{"crs":{"properties":{"name":"urn:ogc:def:crs:OGC:1.3:CRS84"},"type":"name"},"features":[{"geometry":{"coordinates":[25.05385,60.20905],"type":"Point"},"properties":{"concentration_Be-7":3714.36,"concentration_Pb-210":373.82,"concentration_air-volume":32988.0,"from_timestamp":"2010-07-18T07:57:00Z","id":"103428","site":"Helsinki","to_timestamp":"2010-07-20T07:56:00Z","uncertainty_Be-7-uncertainty":5.0,"uncertainty_Pb-210-uncertainty":5.0},"type":"Feature"},{"geometry":{"coordinates":[25.05385,60.20905],"type":"Point"},"properties":{"concentration_Be-7":2575.36,"concentration_Pb-210":217.57,"concentration_air-volume":16279.0,"from_timestamp":"2010-07-20T07:57:00Z","id":"103428","site":"Helsinki","to_timestamp":"2010-07-21T07:56:00Z","uncertainty_Be-7-uncertainty":5.0,"uncertainty_Pb-210-uncertainty":6.0},"type":"Feature"},{"geometry":{"coordinates":[25.05385,60.20905],"type":"Point"},"properties":{"concentration_Be-7":2853.22,"concentration_Pb-210":4151.59,"concentration_air-volume":32665.0,"from_timestamp":"2010-07-21T07:57:00Z","id":"103428","site":"Helsinki","to_timestamp":"2010-07-23T07:56:00Z","uncertainty_Be-7-uncertainty":5.0,"uncertainty_Pb-210-uncertainty":5.0},"type":"Feature"},{"geometry":{"coordinates":[25.05385,60.20905],"type":"Point"},"properties":{"concentration_Be-7":3902.23,"concentration_Pb-210":180.04,"concentration_air-volume":33751.0,"from_timestamp":"2010-07-23T07:57:00Z","id":"103428","site":"Helsinki","to_timestamp":"2010-07-25T07:56:00Z","uncertainty_Be-7-uncertainty":5.0,"uncertainty_Pb-210-uncertainty":5.0},"type":"Feature"},{"geometry":{"coordinates":[25.05385,60.20905],"type":"Point"},"properties":{"concentration_Be-7":6978.7,"concentration_Cs-137":1.47,"concentration_Pb-210":810.81,"concentration_air-volume":16200.0,"from_timestamp":"2010-07-25T07:57:00Z","id":"103428","site":"Helsinki","to_timestamp":"2010-07-26T07:56:00Z","uncertainty_Be-7-uncertainty":5.0,"uncertainty_Cs-137-uncertainty":16.0,"uncertainty_Pb-210-uncertainty":5.0},"type":"Feature"},{"geometry":{"coordinates":[25.05385,60.20905],"type":"Point"},"properties":{"concentration_Be-7":6759.92,"concentration_Pb-210":14033.11,"concentration_air-volume":15951.0,"from_timestamp":"2010-07-26T07:57:00Z","id":"103428","site":"Helsinki","to_timestamp":"2010-07-27T07:56:00Z","uncertainty_Be-7-uncertainty":5.0,"uncertainty_Pb-210-uncertainty":5.0},"type":"Feature"},{"geometry":{"coordinates":[25.05385,60.20905],"type":"Point"},"properties":{"concentration_Be-7":7354.93,"concentration_Pb-210":407.45,"concentration_air-volume":16049.0,"from_timestamp":"2010-07-27T07:57:00Z","id":"103428","site":"Helsinki","to_timestamp":"2010-07-28T07:56:00Z","uncertainty_Be-7-uncertainty":5.0,"uncertainty_Pb-210-uncertainty":22.0},"type":"Feature"},{"geometry":{"coordinates":[26.91808,60.48318],"type":"Point"},"properties":{"concentration_Be-7":4772.82,"concentration_Co-60":0.09,"concentration_Cs-137":2.6,"concentration_Na-22":0.63,"concentration_Pb-210":528.5,"concentration_air-volume":182787.0,"from_timestamp":"2010-07-12T07:10:00Z","id":"103429","site":"Kotka","to_timestamp":"2010-07-26T07:11:00Z","uncertainty_Be-7-uncertainty":5.0,"uncertainty_Co-60-uncertainty":16.0,"uncertainty_Cs-137-uncertainty":5.0,"uncertainty_Na-22-uncertainty":7.0,"uncertainty_Pb-210-uncertainty":5.0},"type":"Feature"},{"geometry":{"coordinates":[26.91808,60.48318],"type":"Point"},"properties":{"concentration_Be-7":6859.12,"concentration_Cs-137":2.89,"concentration_Na-22":0.88,"concentration_Pb-210":879.74,"concentration_air-volume":94940.0,"from_timestamp":"2010-07-26T07:11:00Z","id":"103429","site":"Kotka","to_timestamp":"2010-08-02T07:45:00Z","uncertainty_Be-7-uncertainty":5.0,"uncertainty_Cs-137-uncertainty":6.0,"uncertainty_Na-22-uncertainty":29.0,"uncertainty_Pb-210-uncertainty":5.0},"type":"Feature"},{"geometry":{"coordinates":[28.82663,61.13229],"type":"Point"},"properties":{"concentration_Be-7":3933.61,"concentration_Cs-137":0.95,"concentration_Na-22":0.7,"concentration_Pb-210":284.1,"concentration_air-volume":25194.0,"from_timestamp":"2010-07-19T05:00:00Z","id":"103430","site":"Imatra","to_timestamp":"2010-07-26T05:30:00Z","uncertainty_Be-7-uncertainty":6.0,"uncertainty_Cs-137-uncertainty":11.0,"uncertainty_Na-22-uncertainty":24.0,"uncertainty_Pb-210-uncertainty":20.0},"type":"Feature"},{"geometry":{"coordinates":[28.82663,61.13229],"type":"Point"},"properties":{"concentration_Be-7":6751.3,"concentration_Cs-137":2.03,"concentration_Na-22":1.01,"concentration_Pb-210":860.41,"concentration_air-volume":24431.0,"from_timestamp":"2010-07-26T05:30:00Z","id":"103430","site":"Imatra","to_timestamp":"2010-08-02T05:00:00Z","uncertainty_Be-7-uncertainty":6.0,"uncertainty_Cs-137-uncertainty":6.0,"uncertainty_Na-22-uncertainty":17.0,"uncertainty_Pb-210-uncertainty":20.0},"type":"Feature"},{"geometry":{"coordinates":[27.57,68.64],"type":"Point"},"properties":{"concentration_Be-7":1997.92,"concentration_Cs-137":0.29,"concentration_Pb-210":230.46,"concentration_air-volume":29368.0,"from_timestamp":"2010-07-12T05:40:00Z","id":"103431","site":"Ivalo","to_timestamp":"2010-07-20T05:00:00Z","uncertainty_Be-7-uncertainty":5.0,"uncertainty_Cs-137-uncertainty":20.0,"uncertainty_Pb-210-uncertainty":11.0},"type":"Feature"},{"geometry":{"coordinates":[27.57,68.64],"type":"Point"},"properties":{"concentration_Be-7":2390.12,"concentration_Na-22":0.73,"concentration_air-volume":22314.0,"from_timestamp":"2010-07-20T05:34:00Z","id":"103431","site":"Ivalo","to_timestamp":"2010-07-26T06:38:00Z","uncertainty_Be-7-uncertainty":5.0,"uncertainty_Na-22-uncertainty":17.0},"type":"Feature"},{"geometry":{"coordinates":[27.57,68.64],"type":"Point"},"properties":{"concentration_Be-7":2340.43,"concentration_Cs-137":0.47,"concentration_Na-22":0.54,"concentration_air-volume":25341.0,"from_timestamp":"2010-07-26T06:38:00Z","id":"103431","site":"Ivalo","to_timestamp":"2010-08-02T06:00:00Z","uncertainty_Be-7-uncertainty":5.0,"uncertainty_Cs-137-uncertainty":6.0,"uncertainty_Na-22-uncertainty":16.0},"type":"Feature"},{"geometry":{"coordinates":[27.63414,62.89195],"type":"Point"},"properties":{"concentration_Be-7":3629.42,"concentration_air-volume":10508.0,"from_timestamp":"2010-07-19T07:44:00Z","id":"103432","site":"Kuopio","to_timestamp":"2010-07-22T07:40:00Z","uncertainty_Be-7-uncertainty":6.0},"type":"Feature"},{"geometry":{"coordinates":[27.63414,62.89195],"type":"Point"},"properties":{"concentration_Be-7":4375.43,"concentration_air-volume":14088.0,"from_timestamp":"2010-07-22T07:42:00Z","id":"103432","site":"Kuopio","to_timestamp":"2010-07-26T08:04:00Z","uncertainty_Be-7-uncertainty":6.0},"type":"Feature"},{"geometry":{"coordinates":[27.63414,62.89195],"type":"Point"},"properties":{"concentration_Be-7":8844.94,"concentration_air-volume":10035.0,"from_timestamp":"2010-07-26T08:05:00Z","id":"103432","site":"Kuopio","to_timestamp":"2010-07-29T07:35:00Z","uncertainty_Be-7-uncertainty":6.0},"type":"Feature"},{"geometry":{"coordinates":[25.67774,66.51285],"type":"Point"},"properties":{"concentration_Be-7":2996.49,"concentration_Cs-137":0.35,"concentration_Na-22":0.51,"concentration_Pb-210":114.97,"concentration_air-volume":70247.0,"from_timestamp":"2010-07-19T09:37:00Z","id":"103433","site":"Rovaniemi","to_timestamp":"2010-07-26T09:00:00Z","uncertainty_Be-7-uncertainty":5.0,"uncertainty_Cs-137-uncertainty":9.0,"uncertainty_Na-22-uncertainty":10.0,"uncertainty_Pb-210-uncertainty":5.0},"type":"Feature"},{"geometry":{"coordinates":[25.67774,66.51285],"type":"Point"},"properties":{"concentration_Be-7":3471.74,"concentration_Cs-137":0.72,"concentration_Na-22":0.5,"concentration_Pb-210":281.95,"concentration_air-volume":74929.0,"from_timestamp":"2010-07-26T09:13:00Z","id":"103433","site":"Rovaniemi","to_timestamp":"2010-08-02T09:26:00Z","uncertainty_Be-7-uncertainty":5.0,"uncertainty_Cs-137-uncertainty":7.0,"uncertainty_Na-22-uncertainty":26.0,"uncertainty_Pb-210-uncertainty":5.0},"type":"Feature"},{"geometry":{"coordinates":[26.62807,67.36505],"type":"Point"},"properties":{"concentration_Be-7":2346.65,"concentration_Cs-137":0.4,"concentration_Na-22":0.62,"concentration_Pb-210":313.86,"concentration_air-volume":24870.0,"from_timestamp":"2010-07-19T05:54:00Z","id":"103434","site":"Sodankylä","to_timestamp":"2010-07-26T05:56:00Z","uncertainty_Be-7-uncertainty":5.0,"uncertainty_Cs-137-uncertainty":16.0,"uncertainty_Na-22-uncertainty":15.0,"uncertainty_Pb-210-uncertainty":9.0},"type":"Feature"},{"geometry":{"coordinates":[26.62807,67.36505],"type":"Point"},"properties":{"concentration_Be-7":2960.64,"concentration_Cs-137":0.73,"concentration_Pb-210":229.32,"concentration_air-volume":24134.0,"from_timestamp":"2010-07-26T06:01:00Z","id":"103434","site":"Sodankylä","to_timestamp":"2010-08-02T05:35:00Z","uncertainty_Be-7-uncertainty":5.0,"uncertainty_Cs-137-uncertainty":10.0,"uncertainty_Pb-210-uncertainty":12.0},"type":"Feature"},{"geometry":{"coordinates":[27.70835,64.08474],"type":"Point"},"properties":{"concentration_Be-7":3328.8,"concentration_Cs-137":0.73,"concentration_Na-22":0.57,"concentration_Pb-210":78.13,"concentration_air-volume":75926.0,"from_timestamp":"2010-07-19T17:39:00Z","id":"103435","site":"Kajaani","to_timestamp":"2010-07-26T08:27:00Z","uncertainty_Be-7-uncertainty":5.0,"uncertainty_Cs-137-uncertainty":8.0,"uncertainty_Na-22-uncertainty":12.0,"uncertainty_Pb-210-uncertainty":8.0},"type":"Feature"},{"geometry":{"coordinates":[27.70835,64.08474],"type":"Point"},"properties":{"concentration_Be-7":5665.72,"concentration_Cs-137":1.44,"concentration_Na-22":0.81,"concentration_Pb-210":202.28,"concentration_air-volume":79303.0,"from_timestamp":"2010-07-26T08:27:00Z","id":"103435","site":"Kajaani","to_timestamp":"2010-08-02T05:30:00Z","uncertainty_Be-7-uncertainty":5.0,"uncertainty_Cs-137-uncertainty":6.0,"uncertainty_Na-22-uncertainty":10.0,"uncertainty_Pb-210-uncertainty":6.0},"type":"Feature"}],"name":"stuk_open_data_air_radionuclides","type":"FeatureCollection"}