{"crs":{"properties":{"name":"urn:ogc:def:crs:OGC:1.3:CRS84"},"type":"name"},"features":[{"geometry":{"coordinates":[25.05385,60.20905],"type":"Point"},"properties":{"concentration_Be-7":4300.4,"concentration_Pb-210":2023.72,"concentration_air-volume":17621.0,"from_timestamp":"2010-02-09T07:59:00Z","id":"103428","site":"Helsinki","to_timestamp":"2010-02-10T07:58:00Z","uncertainty_Be-7-uncertainty":5.0,"uncertainty_Pb-210-uncertainty":8.0},"type":"Feature"},{"geometry":{"coordinates":[25.05385,60.20905],"type":"Point"},"properties":{"concentration_Be-7":3480.9,"concentration_Cs-137":1.87,"concentration_Pb-210":2638.32,"concentration_air-volume":34761.0,"from_timestamp":"2010-02-10T07:59:00Z","id":"103428","site":"Helsinki","to_timestamp":"2010-02-12T07:58:00Z","uncertainty_Be-7-uncertainty":5.0,"uncertainty_Cs-137-uncertainty":10.0,"uncertainty_Pb-210-uncertainty":6.0},"type":"Feature"},{"geometry":{"coordinates":[25.05385,60.20905],"type":"Point"},"properties":{"concentration_Be-7":3491.59,"concentration_Cs-137":2.15,"concentration_Pb-210":1758.64,"concentration_air-volume":35421.0,"from_timestamp":"2010-02-12T07:59:00Z","id":"103428","site":"Helsinki","to_timestamp":"2010-02-14T07:58:00Z","uncertainty_Be-7-uncertainty":5.0,"uncertainty_Cs-137-uncertainty":13.0,"uncertainty_Pb-210-uncertainty":7.0},"type":"Feature"},{"geometry":{"coordinates":[25.05385,60.20905],"type":"Point"},"properties":{"concentration_Be-7":1506.18,"concentration_Cs-137":2.45,"concentration_Pb-210":1122.38,"concentration_air-volume":35335.0,"from_timestamp":"2010-02-14T07:59:00Z","id":"103428","site":"Helsinki","to_timestamp":"2010-02-16T07:58:00Z","uncertainty_Be-7-uncertainty":5.0,"uncertainty_Cs-137-uncertainty":10.0,"uncertainty_Pb-210-uncertainty":8.0},"type":"Feature"},{"geometry":{"coordinates":[25.05385,60.20905],"type":"Point"},"properties":{"concentration_Be-7":993.83,"concentration_air-volume":19777.0,"from_timestamp":"2010-02-16T07:58:00Z","id":"103428","site":"Helsinki","to_timestamp":"2010-02-17T10:56:00Z","uncertainty_Be-7-uncertainty":5.0},"type":"Feature"},{"geometry":{"coordinates":[25.05385,60.20905],"type":"Point"},"properties":{"concentration_Be-7":1855.47,"concentration_Pb-210":680.66,"concentration_air-volume":15461.0,"from_timestamp":"2010-02-17T10:57:00Z","id":"103428","site":"Helsinki","to_timestamp":"2010-02-18T07:54:00Z","uncertainty_Be-7-uncertainty":5.0,"uncertainty_Pb-210-uncertainty":11.0},"type":"Feature"},{"geometry":{"coordinates":[26.91808,60.48318],"type":"Point"},"properties":{"concentration_Be-7":3938.68,"concentration_Cs-137":7.05,"concentration_Na-22":0.42,"concentration_Pb-210":1870.77,"concentration_air-volume":73506.0,"from_timestamp":"2010-02-08T15:48:00Z","id":"103429","site":"Kotka","to_timestamp":"2010-02-15T11:23:00Z","uncertainty_Be-7-uncertainty":5.0,"uncertainty_Cs-137-uncertainty":5.0,"uncertainty_Na-22-uncertainty":16.0,"uncertainty_Pb-210-uncertainty":5.0},"type":"Feature"},{"geometry":{"coordinates":[26.91808,60.48318],"type":"Point"},"properties":{"concentration_Be-7":3075.57,"concentration_Cs-137":9.19,"concentration_Na-22":0.33,"concentration_Pb-210":1037.38,"concentration_air-volume":96502.0,"from_timestamp":"2010-02-15T11:29:00Z","id":"103429","site":"Kotka","to_timestamp":"2010-02-22T07:30:00Z","uncertainty_Be-7-uncertainty":5.0,"uncertainty_Cs-137-uncertainty":5.0,"uncertainty_Na-22-uncertainty":17.0,"uncertainty_Pb-210-uncertainty":5.0},"type":"Feature"},{"geometry":{"coordinates":[28.82663,61.13229],"type":"Point"},"properties":{"concentration_Be-7":3453.26,"concentration_Cs-137":0.93,"concentration_Pb-210":1314.68,"concentration_air-volume":26597.0,"from_timestamp":"2010-02-08T08:00:00Z","id":"103430","site":"Imatra","to_timestamp":"2010-02-15T06:25:00Z","uncertainty_Be-7-uncertainty":6.0,"uncertainty_Cs-137-uncertainty":13.0,"uncertainty_Pb-210-uncertainty":20.0},"type":"Feature"},{"geometry":{"coordinates":[28.82663,61.13229],"type":"Point"},"properties":{"concentration_Be-7":2956.39,"concentration_Cs-137":1.17,"concentration_Pb-210":12512.65,"concentration_air-volume":27879.0,"from_timestamp":"2010-02-15T06:30:00Z","id":"103430","site":"Imatra","to_timestamp":"2010-02-22T07:00:00Z","uncertainty_Be-7-uncertainty":6.0,"uncertainty_Cs-137-uncertainty":9.0,"uncertainty_Pb-210-uncertainty":6.0},"type":"Feature"},{"geometry":{"coordinates":[27.57,68.64],"type":"Point"},"properties":{"concentration_Be-7":1688.62,"concentration_Cs-137":1.12,"concentration_Na-22":0.26,"concentration_Pb-210":400.85,"concentration_air-volume":26918.0,"from_timestamp":"2010-02-08T09:56:00Z","id":"103431","site":"Ivalo","to_timestamp":"2010-02-15T05:00:00Z","uncertainty_Be-7-uncertainty":5.0,"uncertainty_Cs-137-uncertainty":6.0,"uncertainty_Na-22-uncertainty":5.0,"uncertainty_Pb-210-uncertainty":9.0},"type":"Feature"},{"geometry":{"coordinates":[27.57,68.64],"type":"Point"},"properties":{"concentration_Be-7":1477.21,"concentration_Cs-137":0.43,"concentration_Na-22":0.37,"concentration_Pb-210":229.91,"concentration_air-volume":28906.0,"from_timestamp":"2010-02-15T05:05:00Z","id":"103431","site":"Ivalo","to_timestamp":"2010-02-22T06:35:00Z","uncertainty_Be-7-uncertainty":5.0,"uncertainty_Cs-137-uncertainty":16.0,"uncertainty_Na-22-uncertainty":17.0,"uncertainty_Pb-210-uncertainty":9.0},"type":"Feature"},{"geometry":{"coordinates":[27.63414,62.89195],"type":"Point"},"properties":{"concentration_Be-7":3915.31,"concentration_Cs-137":1.93,"concentration_air-volume":11472.0,"from_timestamp":"2010-02-08T08:32:00Z","id":"103432","site":"Kuopio","to_timestamp":"2010-02-11T06:53:00Z","uncertainty_Be-7-uncertainty":6.0,"uncertainty_Cs-137-uncertainty":24.0},"type":"Feature"},{"geometry":{"coordinates":[27.63414,62.89195],"type":"Point"},"properties":{"concentration_Be-7":2491.78,"concentration_Cs-137":2.46,"concentration_Pb-210":1600.36,"concentration_air-volume":15385.0,"from_timestamp":"2010-02-11T06:56:00Z","id":"103432","site":"Kuopio","to_timestamp":"2010-02-15T08:10:00Z","uncertainty_Be-7-uncertainty":6.0,"uncertainty_Cs-137-uncertainty":12.0,"uncertainty_Pb-210-uncertainty":20.0},"type":"Feature"},{"geometry":{"coordinates":[27.63414,62.89195],"type":"Point"},"properties":{"concentration_Be-7":1384.41,"concentration_Cs-137":0.76,"concentration_Pb-210":405.14,"concentration_air-volume":11638.0,"from_timestamp":"2010-02-15T08:11:00Z","id":"103432","site":"Kuopio","to_timestamp":"2010-02-18T06:25:00Z","uncertainty_Be-7-uncertainty":6.0,"uncertainty_Cs-137-uncertainty":30.0,"uncertainty_Pb-210-uncertainty":20.0},"type":"Feature"},{"geometry":{"coordinates":[25.67774,66.51285],"type":"Point"},"properties":{"concentration_Be-7":1849.74,"concentration_Cs-137":1.17,"concentration_Na-22":0.17,"concentration_Pb-210":416.14,"concentration_air-volume":76201.0,"from_timestamp":"2010-02-08T09:04:00Z","id":"103433","site":"Rovaniemi","to_timestamp":"2010-02-15T07:58:00Z","uncertainty_Be-7-uncertainty":5.0,"uncertainty_Cs-137-uncertainty":5.0,"uncertainty_Na-22-uncertainty":18.0,"uncertainty_Pb-210-uncertainty":6.0},"type":"Feature"},{"geometry":{"coordinates":[25.67774,66.51285],"type":"Point"},"properties":{"concentration_Be-7":2540.68,"concentration_Cs-137":0.47,"concentration_Na-22":0.28,"concentration_Pb-210":377.12,"concentration_air-volume":76973.0,"from_timestamp":"2010-02-15T08:02:00Z","id":"103433","site":"Rovaniemi","to_timestamp":"2010-02-22T09:47:00Z","uncertainty_Be-7-uncertainty":5.0,"uncertainty_Cs-137-uncertainty":8.0,"uncertainty_Na-22-uncertainty":7.0,"uncertainty_Pb-210-uncertainty":9.0},"type":"Feature"},{"geometry":{"coordinates":[26.62807,67.36505],"type":"Point"},"properties":{"concentration_Be-7":1402.63,"concentration_Cs-137":0.83,"concentration_Na-22":0.26,"concentration_Pb-210":686.69,"concentration_air-volume":28362.0,"from_timestamp":"2010-02-08T05:41:00Z","id":"103434","site":"Sodankylä","to_timestamp":"2010-02-15T05:05:00Z","uncertainty_Be-7-uncertainty":5.0,"uncertainty_Cs-137-uncertainty":8.0,"uncertainty_Na-22-uncertainty":6.0,"uncertainty_Pb-210-uncertainty":9.0},"type":"Feature"},{"geometry":{"coordinates":[26.62807,67.36505],"type":"Point"},"properties":{"concentration_Be-7":1703.29,"concentration_Cs-137":0.32,"concentration_Na-22":0.36,"concentration_Pb-210":330.32,"concentration_air-volume":29505.0,"from_timestamp":"2010-02-15T05:07:00Z","id":"103434","site":"Sodankylä","to_timestamp":"2010-02-22T05:10:00Z","uncertainty_Be-7-uncertainty":5.0,"uncertainty_Cs-137-uncertainty":11.0,"uncertainty_Na-22-uncertainty":23.0,"uncertainty_Pb-210-uncertainty":9.0},"type":"Feature"},{"geometry":{"coordinates":[27.70835,64.08474],"type":"Point"},"properties":{"concentration_Be-7":2062.73,"concentration_Cs-137":1.06,"concentration_Na-22":0.27,"concentration_Pb-210":347.43,"concentration_air-volume":70700.0,"from_timestamp":"2010-02-09T11:42:00Z","id":"103435","site":"Kajaani","to_timestamp":"2010-02-15T07:10:00Z","uncertainty_Be-7-uncertainty":5.0,"uncertainty_Cs-137-uncertainty":7.0,"uncertainty_Na-22-uncertainty":23.0,"uncertainty_Pb-210-uncertainty":5.0},"type":"Feature"},{"geometry":{"coordinates":[27.70835,64.08474],"type":"Point"},"properties":{"concentration_Be-7":2462.93,"concentration_Cs-137":0.26,"concentration_Na-22":0.35,"concentration_Pb-210":207.31,"concentration_air-volume":86401.0,"from_timestamp":"2010-02-15T07:16:00Z","id":"103435","site":"Kajaani","to_timestamp":"2010-02-22T05:05:00Z","uncertainty_Be-7-uncertainty":5.0,"uncertainty_Cs-137-uncertainty":14.0,"uncertainty_Na-22-uncertainty":16.0,"uncertainty_Pb-210-uncertainty":6.0},"type":"Feature"}],"name":"stuk_open_data_air_radionuclides","type":"FeatureCollection"}