{"crs":{"properties":{"name":"urn:ogc:def:crs:OGC:1.3:CRS84"},"type":"name"},"features":[{"geometry":{"coordinates":[25.05385,60.20905],"type":"Point"},"properties":{"concentration_Be-7":2174.37,"concentration_Pb-210":963.86,"concentration_air-volume":35609.0,"from_timestamp":"2010-12-26T07:57:00Z","id":"103428","site":"Helsinki","to_timestamp":"2010-12-28T07:56:00Z","uncertainty_Be-7-uncertainty":5.0,"uncertainty_Pb-210-uncertainty":6.0},"type":"Feature"},{"geometry":{"coordinates":[25.05385,60.20905],"type":"Point"},"properties":{"concentration_Be-7":2448.75,"concentration_Cs-137":0.84,"concentration_Pb-210":872.46,"concentration_air-volume":36166.0,"from_timestamp":"2010-12-28T07:57:00Z","id":"103428","site":"Helsinki","to_timestamp":"2010-12-30T07:56:00Z","uncertainty_Be-7-uncertainty":5.0,"uncertainty_Cs-137-uncertainty":22.0,"uncertainty_Pb-210-uncertainty":5.0},"type":"Feature"},{"geometry":{"coordinates":[25.05385,60.20905],"type":"Point"},"properties":{"concentration_Be-7":1466.66,"concentration_Cs-137":0.98,"concentration_Pb-210":222.07,"concentration_air-volume":34446.0,"from_timestamp":"2010-12-30T07:57:00Z","id":"103428","site":"Helsinki","to_timestamp":"2011-01-01T07:56:00Z","uncertainty_Be-7-uncertainty":5.0,"uncertainty_Cs-137-uncertainty":12.0,"uncertainty_Pb-210-uncertainty":9.0},"type":"Feature"},{"geometry":{"coordinates":[25.05385,60.20905],"type":"Point"},"properties":{"concentration_Be-7":923.57,"concentration_Cs-137":1.96,"concentration_Pb-210":254.24,"concentration_air-volume":34867.0,"from_timestamp":"2011-01-01T07:57:00Z","id":"103428","site":"Helsinki","to_timestamp":"2011-01-03T07:56:00Z","uncertainty_Be-7-uncertainty":5.0,"uncertainty_Cs-137-uncertainty":11.0,"uncertainty_Pb-210-uncertainty":9.0},"type":"Feature"},{"geometry":{"coordinates":[25.05385,60.20905],"type":"Point"},"properties":{"concentration_Be-7":690.81,"concentration_Cs-137":5.71,"concentration_air-volume":34549.0,"from_timestamp":"2011-01-03T07:57:00Z","id":"103428","site":"Helsinki","to_timestamp":"2011-01-05T07:56:00Z","uncertainty_Be-7-uncertainty":7.0,"uncertainty_Cs-137-uncertainty":8.0},"type":"Feature"},{"geometry":{"coordinates":[26.91808,60.48318],"type":"Point"},"properties":{"concentration_Be-7":1856.7,"concentration_Cs-137":5.48,"concentration_Pb-210":1911.35,"concentration_air-volume":85741.0,"from_timestamp":"2010-12-20T09:00:00Z","id":"103429","site":"Kotka","to_timestamp":"2010-12-27T11:28:00Z","uncertainty_Be-7-uncertainty":5.0,"uncertainty_Cs-137-uncertainty":5.0,"uncertainty_Pb-210-uncertainty":5.0},"type":"Feature"},{"geometry":{"coordinates":[26.91808,60.48318],"type":"Point"},"properties":{"concentration_Be-7":2061.91,"concentration_Cs-137":2.71,"concentration_Na-22":0.28,"concentration_Pb-210":1046.28,"concentration_air-volume":80931.0,"from_timestamp":"2010-12-27T11:32:00Z","id":"103429","site":"Kotka","to_timestamp":"2011-01-03T06:54:00Z","uncertainty_Be-7-uncertainty":7.0,"uncertainty_Cs-137-uncertainty":7.0,"uncertainty_Na-22-uncertainty":20.0,"uncertainty_Pb-210-uncertainty":17.0},"type":"Feature"},{"geometry":{"coordinates":[26.91808,60.48318],"type":"Point"},"properties":{"concentration_Be-7":1103.81,"concentration_Cs-137":4.35,"concentration_Pb-210":213.71,"concentration_air-volume":83617.0,"from_timestamp":"2011-01-03T06:57:00Z","id":"103429","site":"Kotka","to_timestamp":"2011-01-10T12:20:00Z","uncertainty_Be-7-uncertainty":5.0,"uncertainty_Cs-137-uncertainty":5.0,"uncertainty_Pb-210-uncertainty":5.0},"type":"Feature"},{"geometry":{"coordinates":[28.82663,61.13229],"type":"Point"},"properties":{"concentration_Be-7":1738.73,"concentration_Cs-137":1.16,"concentration_Pb-210":444.36,"concentration_air-volume":28048.0,"from_timestamp":"2010-12-20T07:30:00Z","id":"103430","site":"Imatra","to_timestamp":"2010-12-27T07:15:00Z","uncertainty_Be-7-uncertainty":6.0,"uncertainty_Cs-137-uncertainty":13.0,"uncertainty_Pb-210-uncertainty":7.0},"type":"Feature"},{"geometry":{"coordinates":[28.82663,61.13229],"type":"Point"},"properties":{"concentration_Be-7":1782.34,"concentration_Cs-137":1.54,"concentration_Pb-210":706.78,"concentration_air-volume":26518.0,"from_timestamp":"2010-12-27T07:20:00Z","id":"103430","site":"Imatra","to_timestamp":"2011-01-03T07:05:00Z","uncertainty_Be-7-uncertainty":6.0,"uncertainty_Cs-137-uncertainty":9.0,"uncertainty_Pb-210-uncertainty":20.0},"type":"Feature"},{"geometry":{"coordinates":[28.82663,61.13229],"type":"Point"},"properties":{"concentration_Be-7":1312.17,"concentration_Cs-137":1.83,"concentration_Pb-210":728.36,"concentration_air-volume":26310.0,"from_timestamp":"2011-01-03T07:15:00Z","id":"103430","site":"Imatra","to_timestamp":"2011-01-10T06:50:00Z","uncertainty_Be-7-uncertainty":6.0,"uncertainty_Cs-137-uncertainty":8.0,"uncertainty_Pb-210-uncertainty":20.0},"type":"Feature"},{"geometry":{"coordinates":[27.57,68.64],"type":"Point"},"properties":{"concentration_Be-7":2620.99,"concentration_Cs-137":1.29,"concentration_Pb-210":534.75,"concentration_air-volume":13660.0,"from_timestamp":"2010-12-20T04:46:00Z","id":"103431","site":"Ivalo","to_timestamp":"2010-12-27T05:31:00Z","uncertainty_Be-7-uncertainty":5.0,"uncertainty_Cs-137-uncertainty":15.0,"uncertainty_Pb-210-uncertainty":9.0},"type":"Feature"},{"geometry":{"coordinates":[27.57,68.64],"type":"Point"},"properties":{"concentration_Be-7":1587.5,"concentration_Cs-137":0.61,"concentration_Na-22":0.37,"concentration_Pb-210":253.86,"concentration_air-volume":26857.0,"from_timestamp":"2010-12-27T05:35:00Z","id":"103431","site":"Ivalo","to_timestamp":"2011-01-03T05:24:00Z","uncertainty_Be-7-uncertainty":5.0,"uncertainty_Cs-137-uncertainty":13.0,"uncertainty_Na-22-uncertainty":14.0,"uncertainty_Pb-210-uncertainty":12.0},"type":"Feature"},{"geometry":{"coordinates":[27.57,68.64],"type":"Point"},"properties":{"concentration_Be-7":1248.92,"concentration_Cs-137":0.59,"concentration_Pb-210":203.41,"concentration_air-volume":27079.0,"from_timestamp":"2011-01-03T05:28:00Z","id":"103431","site":"Ivalo","to_timestamp":"2011-01-10T06:55:00Z","uncertainty_Be-7-uncertainty":5.0,"uncertainty_Cs-137-uncertainty":8.0,"uncertainty_Pb-210-uncertainty":11.0},"type":"Feature"},{"geometry":{"coordinates":[27.63414,62.89195],"type":"Point"},"properties":{"concentration_Be-7":1412.47,"concentration_Cs-137":1.08,"concentration_air-volume":16971.0,"from_timestamp":"2010-12-23T07:09:00Z","id":"103432","site":"Kuopio","to_timestamp":"2010-12-27T06:31:00Z","uncertainty_Be-7-uncertainty":6.0,"uncertainty_Cs-137-uncertainty":28.0},"type":"Feature"},{"geometry":{"coordinates":[27.63414,62.89195],"type":"Point"},"properties":{"concentration_Be-7":2280.75,"concentration_air-volume":12644.0,"from_timestamp":"2010-12-27T06:33:00Z","id":"103432","site":"Kuopio","to_timestamp":"2010-12-30T06:32:00Z","uncertainty_Be-7-uncertainty":6.0},"type":"Feature"},{"geometry":{"coordinates":[27.63414,62.89195],"type":"Point"},"properties":{"concentration_Be-7":1510.45,"concentration_Cs-137":1.72,"concentration_air-volume":15952.0,"from_timestamp":"2010-12-30T06:35:00Z","id":"103432","site":"Kuopio","to_timestamp":"2011-01-03T07:23:00Z","uncertainty_Be-7-uncertainty":6.0,"uncertainty_Cs-137-uncertainty":20.0},"type":"Feature"},{"geometry":{"coordinates":[27.63414,62.89195],"type":"Point"},"properties":{"concentration_Be-7":829.44,"concentration_Cs-137":2.43,"concentration_air-volume":15447.0,"from_timestamp":"2011-01-03T07:25:00Z","id":"103432","site":"Kuopio","to_timestamp":"2011-01-07T06:39:00Z","uncertainty_Be-7-uncertainty":6.0,"uncertainty_Cs-137-uncertainty":16.0},"type":"Feature"},{"geometry":{"coordinates":[25.67774,66.51285],"type":"Point"},"properties":{"concentration_Be-7":2154.84,"concentration_Cs-137":1.06,"concentration_Na-22":0.24,"concentration_Pb-210":438.61,"concentration_air-volume":77204.0,"from_timestamp":"2010-12-20T10:40:00Z","id":"103433","site":"Rovaniemi","to_timestamp":"2010-12-27T11:00:00Z","uncertainty_Be-7-uncertainty":5.0,"uncertainty_Cs-137-uncertainty":7.0,"uncertainty_Na-22-uncertainty":27.0,"uncertainty_Pb-210-uncertainty":6.0},"type":"Feature"},{"geometry":{"coordinates":[25.67774,66.51285],"type":"Point"},"properties":{"concentration_Be-7":1153.64,"concentration_Cs-137":1.16,"concentration_Na-22":0.15,"concentration_Pb-210":429.89,"concentration_air-volume":79842.0,"from_timestamp":"2010-12-27T11:05:00Z","id":"103433","site":"Rovaniemi","to_timestamp":"2011-01-03T09:20:00Z","uncertainty_Be-7-uncertainty":5.0,"uncertainty_Cs-137-uncertainty":6.0,"uncertainty_Na-22-uncertainty":26.0,"uncertainty_Pb-210-uncertainty":5.0},"type":"Feature"},{"geometry":{"coordinates":[25.67774,66.51285],"type":"Point"},"properties":{"concentration_Be-7":1090.85,"concentration_Cs-137":0.84,"concentration_Pb-210":134.31,"concentration_air-volume":77649.0,"from_timestamp":"2011-01-03T09:24:00Z","id":"103433","site":"Rovaniemi","to_timestamp":"2011-01-10T12:29:00Z","uncertainty_Be-7-uncertainty":5.0,"uncertainty_Cs-137-uncertainty":23.0,"uncertainty_Pb-210-uncertainty":9.0},"type":"Feature"},{"geometry":{"coordinates":[26.62807,67.36505],"type":"Point"},"properties":{"concentration_Be-7":1779.63,"concentration_Cs-137":0.23,"concentration_Pb-210":233.17,"concentration_air-volume":27216.0,"from_timestamp":"2010-12-20T05:10:00Z","id":"103434","site":"Sodankylä","to_timestamp":"2010-12-27T05:07:00Z","uncertainty_Be-7-uncertainty":5.0,"uncertainty_Cs-137-uncertainty":27.0,"uncertainty_Pb-210-uncertainty":10.0},"type":"Feature"},{"geometry":{"coordinates":[26.62807,67.36505],"type":"Point"},"properties":{"concentration_Be-7":1270.53,"concentration_Cs-137":0.85,"concentration_Pb-210":233.14,"concentration_air-volume":27173.0,"from_timestamp":"2010-12-27T05:08:00Z","id":"103434","site":"Sodankylä","to_timestamp":"2011-01-03T05:10:00Z","uncertainty_Be-7-uncertainty":5.0,"uncertainty_Cs-137-uncertainty":14.0,"uncertainty_Pb-210-uncertainty":12.0},"type":"Feature"},{"geometry":{"coordinates":[26.62807,67.36505],"type":"Point"},"properties":{"concentration_Be-7":1097.26,"concentration_Pb-210":221.17,"concentration_air-volume":26990.0,"from_timestamp":"2011-01-03T05:12:00Z","id":"103434","site":"Sodankylä","to_timestamp":"2011-01-10T05:23:00Z","uncertainty_Be-7-uncertainty":5.0,"uncertainty_Pb-210-uncertainty":19.0},"type":"Feature"},{"geometry":{"coordinates":[27.70835,64.08474],"type":"Point"},"properties":{"concentration_Be-7":1409.77,"concentration_Cs-137":0.25,"concentration_Pb-210":145.32,"concentration_air-volume":114471.0,"from_timestamp":"2010-12-20T10:35:00Z","id":"103435","site":"Kajaani","to_timestamp":"2010-12-28T15:37:00Z","uncertainty_Be-7-uncertainty":5.0,"uncertainty_Cs-137-uncertainty":13.0,"uncertainty_Pb-210-uncertainty":6.0},"type":"Feature"},{"geometry":{"coordinates":[27.70835,64.08474],"type":"Point"},"properties":{"concentration_Be-7":1790.48,"concentration_Cs-137":0.97,"concentration_air-volume":69801.0,"from_timestamp":"2010-12-28T15:40:00Z","id":"103435","site":"Kajaani","to_timestamp":"2011-01-03T07:06:00Z","uncertainty_Be-7-uncertainty":7.0,"uncertainty_Cs-137-uncertainty":9.0},"type":"Feature"},{"geometry":{"coordinates":[27.70835,64.08474],"type":"Point"},"properties":{"concentration_Be-7":897.24,"concentration_Cs-137":0.7,"concentration_Pb-210":549.46,"concentration_air-volume":111216.0,"from_timestamp":"2011-01-03T07:13:00Z","id":"103435","site":"Kajaani","to_timestamp":"2011-01-11T07:55:00Z","uncertainty_Be-7-uncertainty":5.0,"uncertainty_Cs-137-uncertainty":7.0,"uncertainty_Pb-210-uncertainty":5.0},"type":"Feature"}],"name":"stuk_open_data_air_radionuclides","type":"FeatureCollection"}