{"crs":{"properties":{"name":"urn:ogc:def:crs:OGC:1.3:CRS84"},"type":"name"},"features":[{"geometry":{"coordinates":[25.05385,60.20905],"type":"Point"},"properties":{"concentration_Be-7":1648.01,"concentration_Pb-210":477.75,"concentration_air-volume":16898.0,"from_timestamp":"2010-04-06T08:59:00Z","id":"103428","site":"Helsinki","to_timestamp":"2010-04-07T08:58:00Z","uncertainty_Be-7-uncertainty":5.0,"uncertainty_Pb-210-uncertainty":9.0},"type":"Feature"},{"geometry":{"coordinates":[25.05385,60.20905],"type":"Point"},"properties":{"concentration_Be-7":612.02,"concentration_Pb-210":365.01,"concentration_air-volume":16910.0,"from_timestamp":"2010-04-07T08:59:00Z","id":"103428","site":"Helsinki","to_timestamp":"2010-04-08T08:58:00Z","uncertainty_Be-7-uncertainty":5.0,"uncertainty_Pb-210-uncertainty":10.0},"type":"Feature"},{"geometry":{"coordinates":[25.05385,60.20905],"type":"Point"},"properties":{"concentration_Be-7":2042.86,"concentration_Pb-210":294.25,"concentration_air-volume":16064.0,"from_timestamp":"2010-04-08T08:59:00Z","id":"103428","site":"Helsinki","to_timestamp":"2010-04-09T08:58:00Z","uncertainty_Be-7-uncertainty":5.0,"uncertainty_Pb-210-uncertainty":11.0},"type":"Feature"},{"geometry":{"coordinates":[25.05385,60.20905],"type":"Point"},"properties":{"concentration_Be-7":1983.56,"concentration_Pb-210":405.09,"concentration_air-volume":16785.0,"from_timestamp":"2010-04-09T08:59:00Z","id":"103428","site":"Helsinki","to_timestamp":"2010-04-10T08:58:00Z","uncertainty_Be-7-uncertainty":5.0,"uncertainty_Pb-210-uncertainty":9.0},"type":"Feature"},{"geometry":{"coordinates":[25.05385,60.20905],"type":"Point"},"properties":{"concentration_Be-7":2340.1,"concentration_Pb-210":606.61,"concentration_air-volume":16666.0,"from_timestamp":"2010-04-10T08:59:00Z","id":"103428","site":"Helsinki","to_timestamp":"2010-04-11T08:58:00Z","uncertainty_Be-7-uncertainty":5.0,"uncertainty_Pb-210-uncertainty":8.0},"type":"Feature"},{"geometry":{"coordinates":[25.05385,60.20905],"type":"Point"},"properties":{"concentration_Be-7":2822.13,"concentration_Pb-210":600.02,"concentration_air-volume":16842.0,"from_timestamp":"2010-04-11T08:59:00Z","id":"103428","site":"Helsinki","to_timestamp":"2010-04-12T08:58:00Z","uncertainty_Be-7-uncertainty":5.0,"uncertainty_Pb-210-uncertainty":7.0},"type":"Feature"},{"geometry":{"coordinates":[25.05385,60.20905],"type":"Point"},"properties":{"concentration_Be-7":2575.82,"concentration_Pb-210":548.43,"concentration_air-volume":14602.0,"from_timestamp":"2010-04-12T08:59:00Z","id":"103428","site":"Helsinki","to_timestamp":"2010-04-13T08:57:00Z","uncertainty_Be-7-uncertainty":5.0,"uncertainty_Pb-210-uncertainty":9.0},"type":"Feature"},{"geometry":{"coordinates":[25.05385,60.20905],"type":"Point"},"properties":{"concentration_Be-7":3486.37,"concentration_Pb-210":803.8,"concentration_air-volume":13097.0,"from_timestamp":"2010-04-13T08:58:00Z","id":"103428","site":"Helsinki","to_timestamp":"2010-04-14T08:57:00Z","uncertainty_Be-7-uncertainty":5.0,"uncertainty_Pb-210-uncertainty":8.0},"type":"Feature"},{"geometry":{"coordinates":[26.91808,60.48318],"type":"Point"},"properties":{"concentration_Be-7":1918.53,"concentration_Cs-137":3.17,"concentration_Pb-210":373.46,"concentration_air-volume":97658.0,"from_timestamp":"2010-04-06T05:48:00Z","id":"103429","site":"Kotka","to_timestamp":"2010-04-11T07:25:00Z","uncertainty_Be-7-uncertainty":5.0,"uncertainty_Cs-137-uncertainty":6.0,"uncertainty_Pb-210-uncertainty":5.0},"type":"Feature"},{"geometry":{"coordinates":[26.91808,60.48318],"type":"Point"},"properties":{"concentration_Be-7":2296.47,"concentration_Cs-137":3.36,"concentration_Na-22":0.3,"concentration_air-volume":195850.0,"from_timestamp":"2010-04-11T07:27:00Z","id":"103429","site":"Kotka","to_timestamp":"2010-04-28T10:22:00Z","uncertainty_Be-7-uncertainty":7.0,"uncertainty_Cs-137-uncertainty":7.0,"uncertainty_Na-22-uncertainty":13.0},"type":"Feature"},{"geometry":{"coordinates":[28.82663,61.13229],"type":"Point"},"properties":{"concentration_Be-7":2123.71,"concentration_Cs-137":1.21,"concentration_Pb-210":352.39,"concentration_air-volume":21598.0,"from_timestamp":"2010-04-06T06:25:00Z","id":"103430","site":"Imatra","to_timestamp":"2010-04-12T05:00:00Z","uncertainty_Be-7-uncertainty":6.0,"uncertainty_Cs-137-uncertainty":11.0,"uncertainty_Pb-210-uncertainty":20.0},"type":"Feature"},{"geometry":{"coordinates":[28.82663,61.13229],"type":"Point"},"properties":{"concentration_Be-7":1500.01,"concentration_Cs-137":0.59,"concentration_Pb-210":2877.44,"concentration_air-volume":26535.0,"from_timestamp":"2010-04-12T05:05:00Z","id":"103430","site":"Imatra","to_timestamp":"2010-04-19T06:00:00Z","uncertainty_Be-7-uncertainty":7.0,"uncertainty_Cs-137-uncertainty":11.0,"uncertainty_Pb-210-uncertainty":5.0},"type":"Feature"},{"geometry":{"coordinates":[27.57,68.64],"type":"Point"},"properties":{"concentration_Be-7":1203.57,"concentration_Pb-210":206.5,"concentration_air-volume":21165.0,"from_timestamp":"2010-04-06T07:30:00Z","id":"103431","site":"Ivalo","to_timestamp":"2010-04-12T05:44:00Z","uncertainty_Be-7-uncertainty":5.0,"uncertainty_Pb-210-uncertainty":12.0},"type":"Feature"},{"geometry":{"coordinates":[27.57,68.64],"type":"Point"},"properties":{"concentration_Be-7":1500.11,"concentration_Cs-137":0.38,"concentration_Pb-210":72.17,"concentration_air-volume":26864.0,"from_timestamp":"2010-04-12T05:45:00Z","id":"103431","site":"Ivalo","to_timestamp":"2010-04-19T07:04:00Z","uncertainty_Be-7-uncertainty":5.0,"uncertainty_Cs-137-uncertainty":12.0,"uncertainty_Pb-210-uncertainty":27.0},"type":"Feature"},{"geometry":{"coordinates":[27.63414,62.89195],"type":"Point"},"properties":{"concentration_Be-7":2146.8,"concentration_Cs-137":1.45,"concentration_Pb-210":322.31,"concentration_air-volume":21567.0,"from_timestamp":"2010-04-04T09:36:00Z","id":"103432","site":"Kuopio","to_timestamp":"2010-04-12T07:39:00Z","uncertainty_Be-7-uncertainty":6.0,"uncertainty_Cs-137-uncertainty":11.0,"uncertainty_Pb-210-uncertainty":20.0},"type":"Feature"},{"geometry":{"coordinates":[27.63414,62.89195],"type":"Point"},"properties":{"concentration_Be-7":1816.48,"concentration_Cs-137":1.24,"concentration_air-volume":10788.0,"from_timestamp":"2010-04-12T07:40:00Z","id":"103432","site":"Kuopio","to_timestamp":"2010-04-15T07:36:00Z","uncertainty_Be-7-uncertainty":10.0,"uncertainty_Cs-137-uncertainty":15.0},"type":"Feature"},{"geometry":{"coordinates":[25.67774,66.51285],"type":"Point"},"properties":{"concentration_Be-7":930.39,"concentration_Cs-137":0.38,"concentration_Pb-210":168.94,"concentration_air-volume":64983.0,"from_timestamp":"2010-04-06T09:44:00Z","id":"103433","site":"Rovaniemi","to_timestamp":"2010-04-12T08:50:00Z","uncertainty_Be-7-uncertainty":5.0,"uncertainty_Cs-137-uncertainty":10.0,"uncertainty_Pb-210-uncertainty":5.0},"type":"Feature"},{"geometry":{"coordinates":[25.67774,66.51285],"type":"Point"},"properties":{"concentration_Be-7":1093.73,"concentration_Cs-137":0.26,"concentration_Pb-210":87.4,"concentration_air-volume":42882.0,"from_timestamp":"2010-04-12T08:58:00Z","id":"103433","site":"Rovaniemi","to_timestamp":"2010-04-16T07:37:00Z","uncertainty_Be-7-uncertainty":5.0,"uncertainty_Cs-137-uncertainty":27.0,"uncertainty_Pb-210-uncertainty":6.0},"type":"Feature"},{"geometry":{"coordinates":[26.62807,67.36505],"type":"Point"},"properties":{"concentration_Be-7":1008.5,"concentration_Pb-210":379.72,"concentration_air-volume":27310.0,"from_timestamp":"2010-04-05T05:58:00Z","id":"103434","site":"Sodankylä","to_timestamp":"2010-04-12T05:53:00Z","uncertainty_Be-7-uncertainty":5.0,"uncertainty_Pb-210-uncertainty":10.0},"type":"Feature"},{"geometry":{"coordinates":[26.62807,67.36505],"type":"Point"},"properties":{"concentration_Be-7":1662.04,"concentration_Pb-210":260.3,"concentration_air-volume":27132.0,"from_timestamp":"2010-04-12T05:56:00Z","id":"103434","site":"Sodankylä","to_timestamp":"2010-04-19T05:51:00Z","uncertainty_Be-7-uncertainty":5.0,"uncertainty_Pb-210-uncertainty":8.0},"type":"Feature"},{"geometry":{"coordinates":[27.70835,64.08474],"type":"Point"},"properties":{"concentration_Be-7":1808.94,"concentration_Cs-137":0.55,"concentration_Na-22":0.25,"concentration_Pb-210":160.54,"concentration_air-volume":116767.0,"from_timestamp":"2010-03-29T09:11:00Z","id":"103435","site":"Kajaani","to_timestamp":"2010-04-08T07:14:00Z","uncertainty_Be-7-uncertainty":5.0,"uncertainty_Cs-137-uncertainty":8.0,"uncertainty_Na-22-uncertainty":18.0,"uncertainty_Pb-210-uncertainty":6.0},"type":"Feature"},{"geometry":{"coordinates":[27.70835,64.08474],"type":"Point"},"properties":{"concentration_Be-7":1511.1,"concentration_Cs-137":0.43,"concentration_Pb-210":218.37,"concentration_air-volume":46677.0,"from_timestamp":"2010-04-08T07:16:00Z","id":"103435","site":"Kajaani","to_timestamp":"2010-04-12T04:43:00Z","uncertainty_Be-7-uncertainty":5.0,"uncertainty_Cs-137-uncertainty":14.0,"uncertainty_Pb-210-uncertainty":5.0},"type":"Feature"},{"geometry":{"coordinates":[27.70835,64.08474],"type":"Point"},"properties":{"concentration_Be-7":1515.19,"concentration_Cs-137":0.34,"concentration_Na-22":0.24,"concentration_Pb-210":139.46,"concentration_air-volume":86308.0,"from_timestamp":"2010-04-12T04:46:00Z","id":"103435","site":"Kajaani","to_timestamp":"2010-04-19T06:50:00Z","uncertainty_Be-7-uncertainty":5.0,"uncertainty_Cs-137-uncertainty":12.0,"uncertainty_Na-22-uncertainty":25.0,"uncertainty_Pb-210-uncertainty":5.0},"type":"Feature"}],"name":"stuk_open_data_air_radionuclides","type":"FeatureCollection"}