{"crs":{"properties":{"name":"urn:ogc:def:crs:OGC:1.3:CRS84"},"type":"name"},"features":[{"geometry":{"coordinates":[25.05385,60.20905],"type":"Point"},"properties":{"concentration_Be-7":1491.74,"concentration_Cs-137":5.81,"concentration_Pb-210":952.38,"concentration_air-volume":35383.0,"from_timestamp":"2010-01-08T07:59:00Z","id":"103428","site":"Helsinki","to_timestamp":"2010-01-10T07:58:00Z","uncertainty_Be-7-uncertainty":5.0,"uncertainty_Cs-137-uncertainty":7.0,"uncertainty_Pb-210-uncertainty":5.0},"type":"Feature"},{"geometry":{"coordinates":[25.05385,60.20905],"type":"Point"},"properties":{"concentration_Be-7":921.55,"concentration_Cs-137":1.48,"concentration_Pb-210":76.91,"concentration_air-volume":35538.0,"from_timestamp":"2010-01-10T07:59:00Z","id":"103428","site":"Helsinki","to_timestamp":"2010-01-12T07:58:00Z","uncertainty_Be-7-uncertainty":5.0,"uncertainty_Cs-137-uncertainty":12.0,"uncertainty_Pb-210-uncertainty":24.0},"type":"Feature"},{"geometry":{"coordinates":[25.05385,60.20905],"type":"Point"},"properties":{"concentration_Be-7":322.1,"concentration_Cs-137":0.67,"concentration_Pb-210":127.85,"concentration_air-volume":34924.0,"from_timestamp":"2010-01-12T07:59:00Z","id":"103428","site":"Helsinki","to_timestamp":"2010-01-14T07:58:00Z","uncertainty_Be-7-uncertainty":5.0,"uncertainty_Cs-137-uncertainty":13.0,"uncertainty_Pb-210-uncertainty":5.0},"type":"Feature"},{"geometry":{"coordinates":[25.05385,60.20905],"type":"Point"},"properties":{"concentration_Be-7":686.59,"concentration_Pb-210":162.37,"concentration_air-volume":35039.0,"from_timestamp":"2010-01-14T07:59:00Z","id":"103428","site":"Helsinki","to_timestamp":"2010-01-16T07:58:00Z","uncertainty_Be-7-uncertainty":5.0,"uncertainty_Pb-210-uncertainty":5.0},"type":"Feature"},{"geometry":{"coordinates":[25.05385,60.20905],"type":"Point"},"properties":{"concentration_Be-7":1678.12,"concentration_Pb-210":275.01,"concentration_air-volume":35806.0,"from_timestamp":"2010-01-16T07:59:00Z","id":"103428","site":"Helsinki","to_timestamp":"2010-01-18T07:58:00Z","uncertainty_Be-7-uncertainty":5.0,"uncertainty_Pb-210-uncertainty":5.0},"type":"Feature"},{"geometry":{"coordinates":[26.91808,60.48318],"type":"Point"},"properties":{"concentration_Be-7":912.78,"concentration_Cs-137":4.1,"concentration_Na-22":0.14,"concentration_Pb-210":139.96,"concentration_air-volume":154416.0,"from_timestamp":"2010-01-04T11:25:00Z","id":"103429","site":"Kotka","to_timestamp":"2010-01-18T11:12:00Z","uncertainty_Be-7-uncertainty":5.0,"uncertainty_Cs-137-uncertainty":5.0,"uncertainty_Na-22-uncertainty":21.0,"uncertainty_Pb-210-uncertainty":6.0},"type":"Feature"},{"geometry":{"coordinates":[28.82663,61.13229],"type":"Point"},"properties":{"concentration_Be-7":1205.81,"concentration_Cs-137":2.51,"concentration_Pb-210":843.53,"concentration_air-volume":26986.0,"from_timestamp":"2010-01-04T07:40:00Z","id":"103430","site":"Imatra","to_timestamp":"2010-01-11T07:40:00Z","uncertainty_Be-7-uncertainty":6.0,"uncertainty_Cs-137-uncertainty":8.0,"uncertainty_Pb-210-uncertainty":20.0},"type":"Feature"},{"geometry":{"coordinates":[28.82663,61.13229],"type":"Point"},"properties":{"concentration_Be-7":811.76,"concentration_Cs-137":0.98,"concentration_Pb-210":319.92,"concentration_air-volume":28538.0,"from_timestamp":"2010-01-11T07:45:00Z","id":"103430","site":"Imatra","to_timestamp":"2010-01-18T06:15:00Z","uncertainty_Be-7-uncertainty":6.0,"uncertainty_Cs-137-uncertainty":12.0,"uncertainty_Pb-210-uncertainty":20.0},"type":"Feature"},{"geometry":{"coordinates":[27.57,68.64],"type":"Point"},"properties":{"concentration_Be-7":1695.8,"concentration_Cs-137":0.63,"concentration_Pb-210":647.9,"concentration_air-volume":26004.0,"from_timestamp":"2010-01-04T07:22:00Z","id":"103431","site":"Ivalo","to_timestamp":"2010-01-11T06:47:00Z","uncertainty_Be-7-uncertainty":5.0,"uncertainty_Cs-137-uncertainty":15.0,"uncertainty_Pb-210-uncertainty":9.0},"type":"Feature"},{"geometry":{"coordinates":[27.57,68.64],"type":"Point"},"properties":{"concentration_Be-7":2887.3,"concentration_Cs-137":0.29,"concentration_Pb-210":340.04,"concentration_air-volume":27194.0,"from_timestamp":"2010-01-11T06:49:00Z","id":"103431","site":"Ivalo","to_timestamp":"2010-01-18T05:39:00Z","uncertainty_Be-7-uncertainty":5.0,"uncertainty_Cs-137-uncertainty":28.0,"uncertainty_Pb-210-uncertainty":10.0},"type":"Feature"},{"geometry":{"coordinates":[27.63414,62.89195],"type":"Point"},"properties":{"concentration_Be-7":1611.52,"concentration_Cs-137":2.9,"concentration_air-volume":15890.0,"from_timestamp":"2010-01-07T07:52:00Z","id":"103432","site":"Kuopio","to_timestamp":"2010-01-11T07:24:00Z","uncertainty_Be-7-uncertainty":6.0,"uncertainty_Cs-137-uncertainty":14.0},"type":"Feature"},{"geometry":{"coordinates":[27.63414,62.89195],"type":"Point"},"properties":{"concentration_Be-7":622.49,"concentration_air-volume":11764.0,"from_timestamp":"2010-01-11T07:25:00Z","id":"103432","site":"Kuopio","to_timestamp":"2010-01-14T08:06:00Z","uncertainty_Be-7-uncertainty":6.0},"type":"Feature"},{"geometry":{"coordinates":[27.63414,62.89195],"type":"Point"},"properties":{"concentration_Be-7":1249.95,"concentration_Cs-137":2.22,"concentration_air-volume":15716.0,"from_timestamp":"2010-01-14T08:07:00Z","id":"103432","site":"Kuopio","to_timestamp":"2010-01-18T08:03:00Z","uncertainty_Be-7-uncertainty":6.0,"uncertainty_Cs-137-uncertainty":17.0},"type":"Feature"},{"geometry":{"coordinates":[25.67774,66.51285],"type":"Point"},"properties":{"concentration_Be-7":1957.71,"concentration_Co-60":0.08,"concentration_Cs-137":0.82,"concentration_Mn-54":0.09,"concentration_Na-22":0.23,"concentration_Pb-210":425.05,"concentration_air-volume":78061.0,"from_timestamp":"2010-01-04T10:10:00Z","id":"103433","site":"Rovaniemi","to_timestamp":"2010-01-11T10:29:00Z","uncertainty_Be-7-uncertainty":5.0,"uncertainty_Co-60-uncertainty":29.0,"uncertainty_Cs-137-uncertainty":7.0,"uncertainty_Mn-54-uncertainty":20.0,"uncertainty_Na-22-uncertainty":5.0,"uncertainty_Pb-210-uncertainty":5.0},"type":"Feature"},{"geometry":{"coordinates":[25.67774,66.51285],"type":"Point"},"properties":{"concentration_Be-7":1730.85,"concentration_Cs-137":0.59,"concentration_Pb-210":164.3,"concentration_air-volume":75650.0,"from_timestamp":"2010-01-11T10:33:00Z","id":"103433","site":"Rovaniemi","to_timestamp":"2010-01-18T08:35:00Z","uncertainty_Be-7-uncertainty":6.0,"uncertainty_Cs-137-uncertainty":8.0,"uncertainty_Pb-210-uncertainty":5.0},"type":"Feature"},{"geometry":{"coordinates":[26.62807,67.36505],"type":"Point"},"properties":{"concentration_Be-7":1690.22,"concentration_Pb-210":642.45,"concentration_air-volume":29409.0,"from_timestamp":"2010-01-04T05:10:00Z","id":"103434","site":"Sodankylä","to_timestamp":"2010-01-11T05:06:00Z","uncertainty_Be-7-uncertainty":5.0,"uncertainty_Pb-210-uncertainty":11.0},"type":"Feature"},{"geometry":{"coordinates":[26.62807,67.36505],"type":"Point"},"properties":{"concentration_Be-7":1913.33,"concentration_Cs-137":0.28,"concentration_Pb-210":162.75,"concentration_air-volume":28110.0,"from_timestamp":"2010-01-11T05:06:00Z","id":"103434","site":"Sodankylä","to_timestamp":"2010-01-18T05:02:00Z","uncertainty_Be-7-uncertainty":6.0,"uncertainty_Cs-137-uncertainty":15.0,"uncertainty_Pb-210-uncertainty":15.0},"type":"Feature"},{"geometry":{"coordinates":[27.70835,64.08474],"type":"Point"},"properties":{"concentration_Be-7":1101.24,"concentration_Cs-137":1.08,"concentration_Pb-210":186.13,"concentration_air-volume":74889.0,"from_timestamp":"2010-01-05T06:58:00Z","id":"103435","site":"Kajaani","to_timestamp":"2010-01-11T06:54:00Z","uncertainty_Be-7-uncertainty":5.0,"uncertainty_Cs-137-uncertainty":6.0,"uncertainty_Pb-210-uncertainty":10.0},"type":"Feature"},{"geometry":{"coordinates":[27.70835,64.08474],"type":"Point"},"properties":{"concentration_Be-7":803.92,"concentration_Cs-137":0.52,"concentration_Pb-210":146.12,"concentration_air-volume":100220.0,"from_timestamp":"2010-01-11T06:57:00Z","id":"103435","site":"Kajaani","to_timestamp":"2010-01-19T07:30:00Z","uncertainty_Be-7-uncertainty":5.0,"uncertainty_Cs-137-uncertainty":8.0,"uncertainty_Pb-210-uncertainty":5.0},"type":"Feature"}],"name":"stuk_open_data_air_radionuclides","type":"FeatureCollection"}