{"crs":{"properties":{"name":"urn:ogc:def:crs:OGC:1.3:CRS84"},"type":"name"},"features":[{"geometry":{"coordinates":[25.05385,60.20905],"type":"Point"},"properties":{"concentration_Be-7":1099.59,"concentration_Pb-210":179.58,"concentration_air-volume":16000.0,"from_timestamp":"2010-04-15T08:59:00Z","id":"103428","site":"Helsinki","to_timestamp":"2010-04-16T08:58:00Z","uncertainty_Be-7-uncertainty":5.0,"uncertainty_Pb-210-uncertainty":18.0},"type":"Feature"},{"geometry":{"coordinates":[25.05385,60.20905],"type":"Point"},"properties":{"concentration_Be-7":1128.87,"concentration_Pb-210":274.02,"concentration_air-volume":16681.0,"from_timestamp":"2010-04-16T08:59:00Z","id":"103428","site":"Helsinki","to_timestamp":"2010-04-17T08:58:00Z","uncertainty_Be-7-uncertainty":5.0,"uncertainty_Pb-210-uncertainty":13.0},"type":"Feature"},{"geometry":{"coordinates":[25.05385,60.20905],"type":"Point"},"properties":{"concentration_Be-7":1754.35,"concentration_Pb-210":256.78,"concentration_air-volume":16015.0,"from_timestamp":"2010-04-17T08:59:00Z","id":"103428","site":"Helsinki","to_timestamp":"2010-04-18T08:58:00Z","uncertainty_Be-7-uncertainty":5.0,"uncertainty_Pb-210-uncertainty":14.0},"type":"Feature"},{"geometry":{"coordinates":[25.05385,60.20905],"type":"Point"},"properties":{"concentration_Be-7":3394.88,"concentration_Pb-210":226.08,"concentration_air-volume":16922.0,"from_timestamp":"2010-04-18T08:59:00Z","id":"103428","site":"Helsinki","to_timestamp":"2010-04-19T08:58:00Z","uncertainty_Be-7-uncertainty":5.0,"uncertainty_Pb-210-uncertainty":13.0},"type":"Feature"},{"geometry":{"coordinates":[25.05385,60.20905],"type":"Point"},"properties":{"concentration_Be-7":2236.16,"concentration_Pb-210":208.03,"concentration_air-volume":16700.0,"from_timestamp":"2010-04-19T08:59:00Z","id":"103428","site":"Helsinki","to_timestamp":"2010-04-20T08:58:00Z","uncertainty_Be-7-uncertainty":5.0,"uncertainty_Pb-210-uncertainty":17.0},"type":"Feature"},{"geometry":{"coordinates":[25.05385,60.20905],"type":"Point"},"properties":{"concentration_Be-7":2583.77,"concentration_Pb-210":235.4,"concentration_air-volume":15839.0,"from_timestamp":"2010-04-20T08:59:00Z","id":"103428","site":"Helsinki","to_timestamp":"2010-04-21T08:58:00Z","uncertainty_Be-7-uncertainty":5.0,"uncertainty_Pb-210-uncertainty":22.0},"type":"Feature"},{"geometry":{"coordinates":[25.05385,60.20905],"type":"Point"},"properties":{"concentration_Be-7":2694.5,"concentration_Pb-210":215.51,"concentration_air-volume":16052.0,"from_timestamp":"2010-04-21T08:59:00Z","id":"103428","site":"Helsinki","to_timestamp":"2010-04-22T08:58:00Z","uncertainty_Be-7-uncertainty":5.0,"uncertainty_Pb-210-uncertainty":16.0},"type":"Feature"},{"geometry":{"coordinates":[25.05385,60.20905],"type":"Point"},"properties":{"concentration_Be-7":1049.49,"concentration_Pb-210":274.78,"concentration_air-volume":16766.0,"from_timestamp":"2010-04-22T08:59:00Z","id":"103428","site":"Helsinki","to_timestamp":"2010-04-23T08:58:00Z","uncertainty_Be-7-uncertainty":5.0,"uncertainty_Pb-210-uncertainty":13.0},"type":"Feature"},{"geometry":{"coordinates":[26.91808,60.48318],"type":"Point"},"properties":{"concentration_Be-7":2296.47,"concentration_Cs-137":3.36,"concentration_Na-22":0.3,"concentration_air-volume":195850.0,"from_timestamp":"2010-04-11T07:27:00Z","id":"103429","site":"Kotka","to_timestamp":"2010-04-28T10:22:00Z","uncertainty_Be-7-uncertainty":7.0,"uncertainty_Cs-137-uncertainty":7.0,"uncertainty_Na-22-uncertainty":13.0},"type":"Feature"},{"geometry":{"coordinates":[28.82663,61.13229],"type":"Point"},"properties":{"concentration_Be-7":1500.01,"concentration_Cs-137":0.59,"concentration_Pb-210":2877.44,"concentration_air-volume":26535.0,"from_timestamp":"2010-04-12T05:05:00Z","id":"103430","site":"Imatra","to_timestamp":"2010-04-19T06:00:00Z","uncertainty_Be-7-uncertainty":7.0,"uncertainty_Cs-137-uncertainty":11.0,"uncertainty_Pb-210-uncertainty":5.0},"type":"Feature"},{"geometry":{"coordinates":[28.82663,61.13229],"type":"Point"},"properties":{"concentration_Be-7":2279.25,"concentration_Cs-137":0.96,"concentration_Pb-210":164.27,"concentration_air-volume":25947.0,"from_timestamp":"2010-04-19T06:05:00Z","id":"103430","site":"Imatra","to_timestamp":"2010-04-26T06:20:00Z","uncertainty_Be-7-uncertainty":6.0,"uncertainty_Cs-137-uncertainty":6.0,"uncertainty_Pb-210-uncertainty":10.0},"type":"Feature"},{"geometry":{"coordinates":[27.57,68.64],"type":"Point"},"properties":{"concentration_Be-7":1500.11,"concentration_Cs-137":0.38,"concentration_Pb-210":72.17,"concentration_air-volume":26864.0,"from_timestamp":"2010-04-12T05:45:00Z","id":"103431","site":"Ivalo","to_timestamp":"2010-04-19T07:04:00Z","uncertainty_Be-7-uncertainty":5.0,"uncertainty_Cs-137-uncertainty":12.0,"uncertainty_Pb-210-uncertainty":27.0},"type":"Feature"},{"geometry":{"coordinates":[27.57,68.64],"type":"Point"},"properties":{"concentration_Be-7":2581.11,"concentration_air-volume":27171.0,"from_timestamp":"2010-04-19T07:05:00Z","id":"103431","site":"Ivalo","to_timestamp":"2010-04-26T09:02:00Z","uncertainty_Be-7-uncertainty":5.0},"type":"Feature"},{"geometry":{"coordinates":[27.63414,62.89195],"type":"Point"},"properties":{"concentration_Be-7":1816.48,"concentration_Cs-137":1.24,"concentration_air-volume":10788.0,"from_timestamp":"2010-04-12T07:40:00Z","id":"103432","site":"Kuopio","to_timestamp":"2010-04-15T07:36:00Z","uncertainty_Be-7-uncertainty":10.0,"uncertainty_Cs-137-uncertainty":15.0},"type":"Feature"},{"geometry":{"coordinates":[27.63414,62.89195],"type":"Point"},"properties":{"concentration_Be-7":1470.87,"concentration_Cs-137":1.11,"concentration_air-volume":15000.0,"from_timestamp":"2010-04-15T07:37:00Z","id":"103432","site":"Kuopio","to_timestamp":"2010-04-19T09:38:00Z","uncertainty_Be-7-uncertainty":12.0,"uncertainty_Cs-137-uncertainty":20.0},"type":"Feature"},{"geometry":{"coordinates":[27.63414,62.89195],"type":"Point"},"properties":{"concentration_Be-7":1728.02,"concentration_air-volume":10872.0,"from_timestamp":"2010-04-19T09:39:00Z","id":"103432","site":"Kuopio","to_timestamp":"2010-04-22T07:41:00Z","uncertainty_Be-7-uncertainty":10.0},"type":"Feature"},{"geometry":{"coordinates":[27.63414,62.89195],"type":"Point"},"properties":{"concentration_Be-7":2899.6,"concentration_Cs-137":1.34,"concentration_Pb-210":199.72,"concentration_air-volume":14985.0,"from_timestamp":"2010-04-22T07:42:00Z","id":"103432","site":"Kuopio","to_timestamp":"2010-04-26T07:52:00Z","uncertainty_Be-7-uncertainty":6.0,"uncertainty_Cs-137-uncertainty":12.0,"uncertainty_Pb-210-uncertainty":20.0},"type":"Feature"},{"geometry":{"coordinates":[25.67774,66.51285],"type":"Point"},"properties":{"concentration_Be-7":1093.73,"concentration_Cs-137":0.26,"concentration_Pb-210":87.4,"concentration_air-volume":42882.0,"from_timestamp":"2010-04-12T08:58:00Z","id":"103433","site":"Rovaniemi","to_timestamp":"2010-04-16T07:37:00Z","uncertainty_Be-7-uncertainty":5.0,"uncertainty_Cs-137-uncertainty":27.0,"uncertainty_Pb-210-uncertainty":6.0},"type":"Feature"},{"geometry":{"coordinates":[25.67774,66.51285],"type":"Point"},"properties":{"concentration_Be-7":2720.87,"concentration_Pb-210":122.94,"concentration_air-volume":32246.0,"from_timestamp":"2010-04-16T07:40:00Z","id":"103433","site":"Rovaniemi","to_timestamp":"2010-04-19T09:06:00Z","uncertainty_Be-7-uncertainty":5.0,"uncertainty_Pb-210-uncertainty":7.0},"type":"Feature"},{"geometry":{"coordinates":[25.67774,66.51285],"type":"Point"},"properties":{"concentration_Be-7":1849.02,"concentration_Cs-137":0.13,"concentration_Na-22":0.23,"concentration_Pb-210":97.74,"concentration_air-volume":75780.0,"from_timestamp":"2010-04-19T09:10:00Z","id":"103433","site":"Rovaniemi","to_timestamp":"2010-04-26T08:52:00Z","uncertainty_Be-7-uncertainty":5.0,"uncertainty_Cs-137-uncertainty":23.0,"uncertainty_Na-22-uncertainty":27.0,"uncertainty_Pb-210-uncertainty":5.0},"type":"Feature"},{"geometry":{"coordinates":[26.62807,67.36505],"type":"Point"},"properties":{"concentration_Be-7":1662.04,"concentration_Pb-210":260.3,"concentration_air-volume":27132.0,"from_timestamp":"2010-04-12T05:56:00Z","id":"103434","site":"Sodankylä","to_timestamp":"2010-04-19T05:51:00Z","uncertainty_Be-7-uncertainty":5.0,"uncertainty_Pb-210-uncertainty":8.0},"type":"Feature"},{"geometry":{"coordinates":[26.62807,67.36505],"type":"Point"},"properties":{"concentration_Be-7":1978.61,"concentration_Cs-137":0.28,"concentration_Pb-210":162.29,"concentration_air-volume":27449.0,"from_timestamp":"2010-04-19T05:52:00Z","id":"103434","site":"Sodankylä","to_timestamp":"2010-04-26T05:50:00Z","uncertainty_Be-7-uncertainty":5.0,"uncertainty_Cs-137-uncertainty":17.0,"uncertainty_Pb-210-uncertainty":14.0},"type":"Feature"},{"geometry":{"coordinates":[27.70835,64.08474],"type":"Point"},"properties":{"concentration_Be-7":1515.19,"concentration_Cs-137":0.34,"concentration_Na-22":0.24,"concentration_Pb-210":139.46,"concentration_air-volume":86308.0,"from_timestamp":"2010-04-12T04:46:00Z","id":"103435","site":"Kajaani","to_timestamp":"2010-04-19T06:50:00Z","uncertainty_Be-7-uncertainty":5.0,"uncertainty_Cs-137-uncertainty":12.0,"uncertainty_Na-22-uncertainty":25.0,"uncertainty_Pb-210-uncertainty":5.0},"type":"Feature"},{"geometry":{"coordinates":[27.70835,64.08474],"type":"Point"},"properties":{"concentration_Be-7":1663.04,"concentration_Cs-137":0.23,"concentration_Pb-210":105.47,"concentration_air-volume":83726.0,"from_timestamp":"2010-04-19T06:07:00Z","id":"103435","site":"Kajaani","to_timestamp":"2010-04-26T04:04:00Z","uncertainty_Be-7-uncertainty":5.0,"uncertainty_Cs-137-uncertainty":14.0,"uncertainty_Pb-210-uncertainty":5.0},"type":"Feature"}],"name":"stuk_open_data_air_radionuclides","type":"FeatureCollection"}