{"crs":{"properties":{"name":"urn:ogc:def:crs:OGC:1.3:CRS84"},"type":"name"},"features":[{"geometry":{"coordinates":[25.05385,60.20905],"type":"Point"},"properties":{"concentration_Be-7":3196.2,"concentration_Pb-210":560.54,"concentration_air-volume":15959.0,"from_timestamp":"2010-04-30T08:59:00Z","id":"103428","site":"Helsinki","to_timestamp":"2010-05-01T08:57:00Z","uncertainty_Be-7-uncertainty":5.0,"uncertainty_Pb-210-uncertainty":9.0},"type":"Feature"},{"geometry":{"coordinates":[25.05385,60.20905],"type":"Point"},"properties":{"concentration_Be-7":2358.13,"concentration_Pb-210":334.49,"concentration_air-volume":16567.0,"from_timestamp":"2010-05-01T08:58:00Z","id":"103428","site":"Helsinki","to_timestamp":"2010-05-02T08:57:00Z","uncertainty_Be-7-uncertainty":5.0,"uncertainty_Pb-210-uncertainty":11.0},"type":"Feature"},{"geometry":{"coordinates":[25.05385,60.20905],"type":"Point"},"properties":{"concentration_Be-7":2183.15,"concentration_Pb-210":257.73,"concentration_air-volume":16784.0,"from_timestamp":"2010-05-02T08:58:00Z","id":"103428","site":"Helsinki","to_timestamp":"2010-05-03T08:57:00Z","uncertainty_Be-7-uncertainty":5.0,"uncertainty_Pb-210-uncertainty":14.0},"type":"Feature"},{"geometry":{"coordinates":[25.05385,60.20905],"type":"Point"},"properties":{"concentration_Be-7":4027.39,"concentration_Pb-210":246.19,"concentration_air-volume":16669.0,"from_timestamp":"2010-05-03T08:58:00Z","id":"103428","site":"Helsinki","to_timestamp":"2010-05-04T08:57:00Z","uncertainty_Be-7-uncertainty":5.0,"uncertainty_Pb-210-uncertainty":13.0},"type":"Feature"},{"geometry":{"coordinates":[25.05385,60.20905],"type":"Point"},"properties":{"concentration_Be-7":3835.89,"concentration_Pb-210":395.38,"concentration_air-volume":16905.0,"from_timestamp":"2010-05-04T08:58:00Z","id":"103428","site":"Helsinki","to_timestamp":"2010-05-05T08:57:00Z","uncertainty_Be-7-uncertainty":5.0,"uncertainty_Pb-210-uncertainty":10.0},"type":"Feature"},{"geometry":{"coordinates":[25.05385,60.20905],"type":"Point"},"properties":{"concentration_Be-7":3165.15,"concentration_Pb-210":323.98,"concentration_air-volume":16821.0,"from_timestamp":"2010-05-05T08:58:00Z","id":"103428","site":"Helsinki","to_timestamp":"2010-05-06T08:57:00Z","uncertainty_Be-7-uncertainty":8.0,"uncertainty_Pb-210-uncertainty":12.0},"type":"Feature"},{"geometry":{"coordinates":[25.05385,60.20905],"type":"Point"},"properties":{"concentration_Be-7":2383.08,"concentration_Pb-210":253.83,"concentration_air-volume":16572.0,"from_timestamp":"2010-05-06T08:58:00Z","id":"103428","site":"Helsinki","to_timestamp":"2010-05-07T08:57:00Z","uncertainty_Be-7-uncertainty":5.0,"uncertainty_Pb-210-uncertainty":16.0},"type":"Feature"},{"geometry":{"coordinates":[25.05385,60.20905],"type":"Point"},"properties":{"concentration_Be-7":3094.46,"concentration_Pb-210":280.63,"concentration_air-volume":16846.0,"from_timestamp":"2010-05-07T08:58:00Z","id":"103428","site":"Helsinki","to_timestamp":"2010-05-08T08:57:00Z","uncertainty_Be-7-uncertainty":5.0,"uncertainty_Pb-210-uncertainty":12.0},"type":"Feature"},{"geometry":{"coordinates":[25.05385,60.20905],"type":"Point"},"properties":{"concentration_Be-7":2812.62,"concentration_Pb-210":348.19,"concentration_air-volume":16468.0,"from_timestamp":"2010-05-08T08:58:00Z","id":"103428","site":"Helsinki","to_timestamp":"2010-05-09T08:57:00Z","uncertainty_Be-7-uncertainty":5.0,"uncertainty_Pb-210-uncertainty":12.0},"type":"Feature"},{"geometry":{"coordinates":[26.91808,60.48318],"type":"Point"},"properties":{"concentration_Be-7":2513.9,"concentration_Cs-137":1.78,"concentration_Na-22":0.43,"concentration_Pb-210":67.45,"concentration_air-volume":168439.0,"from_timestamp":"2010-04-28T10:26:00Z","id":"103429","site":"Kotka","to_timestamp":"2010-05-10T11:10:00Z","uncertainty_Be-7-uncertainty":5.0,"uncertainty_Cs-137-uncertainty":6.0,"uncertainty_Na-22-uncertainty":11.0,"uncertainty_Pb-210-uncertainty":7.0},"type":"Feature"},{"geometry":{"coordinates":[28.82663,61.13229],"type":"Point"},"properties":{"concentration_Be-7":2789.89,"concentration_Cs-137":0.7,"concentration_Pb-210":182.35,"concentration_air-volume":26960.0,"from_timestamp":"2010-04-26T06:25:00Z","id":"103430","site":"Imatra","to_timestamp":"2010-05-03T07:15:00Z","uncertainty_Be-7-uncertainty":6.0,"uncertainty_Cs-137-uncertainty":17.0,"uncertainty_Pb-210-uncertainty":9.0},"type":"Feature"},{"geometry":{"coordinates":[28.82663,61.13229],"type":"Point"},"properties":{"concentration_Be-7":3001.99,"concentration_Cs-137":1.11,"concentration_Pb-210":174.41,"concentration_air-volume":26623.0,"from_timestamp":"2010-05-03T07:20:00Z","id":"103430","site":"Imatra","to_timestamp":"2010-05-10T06:15:00Z","uncertainty_Be-7-uncertainty":6.0,"uncertainty_Cs-137-uncertainty":11.0,"uncertainty_Pb-210-uncertainty":20.0},"type":"Feature"},{"geometry":{"coordinates":[27.57,68.64],"type":"Point"},"properties":{"concentration_Be-7":1436.3,"concentration_Cs-137":0.28,"concentration_Pb-210":183.62,"concentration_air-volume":26139.0,"from_timestamp":"2010-04-26T09:03:00Z","id":"103431","site":"Ivalo","to_timestamp":"2010-05-03T07:01:00Z","uncertainty_Be-7-uncertainty":5.0,"uncertainty_Cs-137-uncertainty":23.0,"uncertainty_Pb-210-uncertainty":11.0},"type":"Feature"},{"geometry":{"coordinates":[27.57,68.64],"type":"Point"},"properties":{"concentration_Be-7":3774.71,"concentration_Cs-137":0.35,"concentration_Na-22":0.74,"concentration_Pb-210":322.8,"concentration_air-volume":26410.0,"from_timestamp":"2010-05-03T07:10:00Z","id":"103431","site":"Ivalo","to_timestamp":"2010-05-10T05:11:00Z","uncertainty_Be-7-uncertainty":5.0,"uncertainty_Cs-137-uncertainty":27.0,"uncertainty_Na-22-uncertainty":16.0,"uncertainty_Pb-210-uncertainty":12.0},"type":"Feature"},{"geometry":{"coordinates":[27.63414,62.89195],"type":"Point"},"properties":{"concentration_Be-7":938.43,"concentration_Cs-137":1.1,"concentration_Pb-210":115.63,"concentration_air-volume":14900.0,"from_timestamp":"2010-04-29T07:44:00Z","id":"103432","site":"Kuopio","to_timestamp":"2010-05-03T08:06:00Z","uncertainty_Be-7-uncertainty":6.0,"uncertainty_Cs-137-uncertainty":15.0,"uncertainty_Pb-210-uncertainty":20.0},"type":"Feature"},{"geometry":{"coordinates":[27.63414,62.89195],"type":"Point"},"properties":{"concentration_Be-7":3363.23,"concentration_Cs-137":1.92,"concentration_Pb-210":183.85,"concentration_air-volume":11190.0,"from_timestamp":"2010-05-03T08:07:00Z","id":"103432","site":"Kuopio","to_timestamp":"2010-05-07T07:45:00Z","uncertainty_Be-7-uncertainty":6.0,"uncertainty_Cs-137-uncertainty":11.0,"uncertainty_Pb-210-uncertainty":20.0},"type":"Feature"},{"geometry":{"coordinates":[27.63414,62.89195],"type":"Point"},"properties":{"concentration_Be-7":1849.13,"concentration_Cs-137":1.16,"concentration_Pb-210":208.28,"concentration_air-volume":22911.0,"from_timestamp":"2010-05-07T07:46:00Z","id":"103432","site":"Kuopio","to_timestamp":"2010-05-12T12:57:00Z","uncertainty_Be-7-uncertainty":6.0,"uncertainty_Cs-137-uncertainty":11.0,"uncertainty_Pb-210-uncertainty":20.0},"type":"Feature"},{"geometry":{"coordinates":[25.67774,66.51285],"type":"Point"},"properties":{"concentration_Be-7":1532.7,"concentration_Cs-137":0.15,"concentration_Na-22":0.2,"concentration_Pb-210":81.13,"concentration_air-volume":77238.0,"from_timestamp":"2010-04-26T08:55:00Z","id":"103433","site":"Rovaniemi","to_timestamp":"2010-05-03T10:19:00Z","uncertainty_Be-7-uncertainty":5.0,"uncertainty_Cs-137-uncertainty":15.0,"uncertainty_Na-22-uncertainty":23.0,"uncertainty_Pb-210-uncertainty":12.0},"type":"Feature"},{"geometry":{"coordinates":[25.67774,66.51285],"type":"Point"},"properties":{"concentration_Be-7":2561.71,"concentration_Cs-137":0.09,"concentration_Na-22":0.37,"concentration_Pb-210":99.01,"concentration_air-volume":75395.0,"from_timestamp":"2010-05-03T10:36:00Z","id":"103433","site":"Rovaniemi","to_timestamp":"2010-05-10T08:43:00Z","uncertainty_Be-7-uncertainty":5.0,"uncertainty_Cs-137-uncertainty":19.0,"uncertainty_Na-22-uncertainty":15.0,"uncertainty_Pb-210-uncertainty":5.0},"type":"Feature"},{"geometry":{"coordinates":[26.62807,67.36505],"type":"Point"},"properties":{"concentration_Be-7":1324.18,"concentration_Pb-210":81.01,"concentration_air-volume":26845.0,"from_timestamp":"2010-04-26T05:55:00Z","id":"103434","site":"Sodankylä","to_timestamp":"2010-05-03T05:28:00Z","uncertainty_Be-7-uncertainty":6.0,"uncertainty_Pb-210-uncertainty":16.0},"type":"Feature"},{"geometry":{"coordinates":[26.62807,67.36505],"type":"Point"},"properties":{"concentration_Be-7":2657.88,"concentration_Na-22":0.53,"concentration_Pb-210":145.61,"concentration_air-volume":26965.0,"from_timestamp":"2010-05-03T05:33:00Z","id":"103434","site":"Sodankylä","to_timestamp":"2010-05-10T05:38:00Z","uncertainty_Be-7-uncertainty":5.0,"uncertainty_Na-22-uncertainty":19.0,"uncertainty_Pb-210-uncertainty":20.0},"type":"Feature"},{"geometry":{"coordinates":[27.70835,64.08474],"type":"Point"},"properties":{"concentration_Be-7":1848.32,"concentration_Cs-137":0.4,"concentration_Na-22":0.41,"concentration_Pb-210":143.52,"concentration_air-volume":86051.0,"from_timestamp":"2010-04-26T04:08:00Z","id":"103435","site":"Kajaani","to_timestamp":"2010-05-03T05:54:00Z","uncertainty_Be-7-uncertainty":5.0,"uncertainty_Cs-137-uncertainty":12.0,"uncertainty_Na-22-uncertainty":17.0,"uncertainty_Pb-210-uncertainty":5.0},"type":"Feature"},{"geometry":{"coordinates":[27.70835,64.08474],"type":"Point"},"properties":{"concentration_Be-7":2099.92,"concentration_Na-22":0.48,"concentration_Pb-210":59.1,"concentration_air-volume":83446.0,"from_timestamp":"2010-05-03T05:59:00Z","id":"103435","site":"Kajaani","to_timestamp":"2010-05-10T05:23:00Z","uncertainty_Be-7-uncertainty":5.0,"uncertainty_Na-22-uncertainty":14.0,"uncertainty_Pb-210-uncertainty":9.0},"type":"Feature"}],"name":"stuk_open_data_air_radionuclides","type":"FeatureCollection"}