{"crs":{"properties":{"name":"urn:ogc:def:crs:OGC:1.3:CRS84"},"type":"name"},"features":[{"geometry":{"coordinates":[25.05385,60.20905],"type":"Point"},"properties":{"concentration_Be-7":4271.68,"concentration_Pb-210":425.11,"concentration_air-volume":16525.0,"from_timestamp":"2010-06-25T07:57:00Z","id":"103428","site":"Helsinki","to_timestamp":"2010-06-26T07:56:00Z","uncertainty_Be-7-uncertainty":5.0,"uncertainty_Pb-210-uncertainty":9.0},"type":"Feature"},{"geometry":{"coordinates":[25.05385,60.20905],"type":"Point"},"properties":{"concentration_Be-7":1560.04,"concentration_Pb-210":290.06,"concentration_air-volume":16425.0,"from_timestamp":"2010-06-26T07:57:00Z","id":"103428","site":"Helsinki","to_timestamp":"2010-06-27T07:56:00Z","uncertainty_Be-7-uncertainty":5.0,"uncertainty_Pb-210-uncertainty":12.0},"type":"Feature"},{"geometry":{"coordinates":[25.05385,60.20905],"type":"Point"},"properties":{"concentration_Be-7":2448.02,"concentration_Pb-210":197.28,"concentration_air-volume":16492.0,"from_timestamp":"2010-06-27T07:57:00Z","id":"103428","site":"Helsinki","to_timestamp":"2010-06-28T07:56:00Z","uncertainty_Be-7-uncertainty":5.0,"uncertainty_Pb-210-uncertainty":16.0},"type":"Feature"},{"geometry":{"coordinates":[25.05385,60.20905],"type":"Point"},"properties":{"concentration_Be-7":3913.69,"concentration_Pb-210":448.28,"concentration_air-volume":16379.0,"from_timestamp":"2010-06-28T07:57:00Z","id":"103428","site":"Helsinki","to_timestamp":"2010-06-29T07:56:00Z","uncertainty_Be-7-uncertainty":5.0,"uncertainty_Pb-210-uncertainty":10.0},"type":"Feature"},{"geometry":{"coordinates":[25.05385,60.20905],"type":"Point"},"properties":{"concentration_Be-7":2804.71,"concentration_Pb-210":323.75,"concentration_air-volume":16435.0,"from_timestamp":"2010-06-29T07:57:00Z","id":"103428","site":"Helsinki","to_timestamp":"2010-06-30T07:56:00Z","uncertainty_Be-7-uncertainty":5.0,"uncertainty_Pb-210-uncertainty":15.0},"type":"Feature"},{"geometry":{"coordinates":[25.05385,60.20905],"type":"Point"},"properties":{"concentration_Be-7":4883.81,"concentration_Pb-210":611.76,"concentration_air-volume":16079.0,"from_timestamp":"2010-06-30T07:57:00Z","id":"103428","site":"Helsinki","to_timestamp":"2010-07-01T07:56:00Z","uncertainty_Be-7-uncertainty":5.0,"uncertainty_Pb-210-uncertainty":8.0},"type":"Feature"},{"geometry":{"coordinates":[25.05385,60.20905],"type":"Point"},"properties":{"concentration_Be-7":1984.38,"concentration_Pb-210":310.45,"concentration_air-volume":16257.0,"from_timestamp":"2010-07-01T07:57:00Z","id":"103428","site":"Helsinki","to_timestamp":"2010-07-02T07:56:00Z","uncertainty_Be-7-uncertainty":5.0,"uncertainty_Pb-210-uncertainty":12.0},"type":"Feature"},{"geometry":{"coordinates":[25.05385,60.20905],"type":"Point"},"properties":{"concentration_Be-7":2631.7,"concentration_air-volume":16214.0,"from_timestamp":"2010-07-02T07:57:00Z","id":"103428","site":"Helsinki","to_timestamp":"2010-07-03T07:56:00Z","uncertainty_Be-7-uncertainty":5.0},"type":"Feature"},{"geometry":{"coordinates":[25.05385,60.20905],"type":"Point"},"properties":{"concentration_Be-7":2603.56,"concentration_Pb-210":212.96,"concentration_air-volume":16210.0,"from_timestamp":"2010-07-03T07:57:00Z","id":"103428","site":"Helsinki","to_timestamp":"2010-07-04T07:56:00Z","uncertainty_Be-7-uncertainty":5.0,"uncertainty_Pb-210-uncertainty":16.0},"type":"Feature"},{"geometry":{"coordinates":[26.91808,60.48318],"type":"Point"},"properties":{"concentration_Be-7":3144.42,"concentration_Cs-137":3.72,"concentration_Na-22":0.48,"concentration_Pb-210":255.37,"concentration_air-volume":90208.0,"from_timestamp":"2010-06-22T05:24:00Z","id":"103429","site":"Kotka","to_timestamp":"2010-06-28T13:19:00Z","uncertainty_Be-7-uncertainty":5.0,"uncertainty_Cs-137-uncertainty":5.0,"uncertainty_Na-22-uncertainty":13.0,"uncertainty_Pb-210-uncertainty":5.0},"type":"Feature"},{"geometry":{"coordinates":[26.91808,60.48318],"type":"Point"},"properties":{"concentration_Be-7":4142.49,"concentration_Cs-137":2.41,"concentration_Na-22":0.73,"concentration_Pb-210":93.97,"concentration_air-volume":184175.0,"from_timestamp":"2010-06-28T13:22:00Z","id":"103429","site":"Kotka","to_timestamp":"2010-07-12T07:00:00Z","uncertainty_Be-7-uncertainty":5.0,"uncertainty_Cs-137-uncertainty":5.0,"uncertainty_Na-22-uncertainty":8.0,"uncertainty_Pb-210-uncertainty":6.0},"type":"Feature"},{"geometry":{"coordinates":[28.82663,61.13229],"type":"Point"},"properties":{"concentration_Be-7":2983.35,"concentration_Cs-137":0.82,"concentration_Pb-210":158.42,"concentration_air-volume":25470.0,"from_timestamp":"2010-06-21T06:55:00Z","id":"103430","site":"Imatra","to_timestamp":"2010-06-28T06:10:00Z","uncertainty_Be-7-uncertainty":6.0,"uncertainty_Cs-137-uncertainty":14.0,"uncertainty_Pb-210-uncertainty":10.0},"type":"Feature"},{"geometry":{"coordinates":[28.82663,61.13229],"type":"Point"},"properties":{"concentration_Be-7":3534.6,"concentration_Cs-137":1.08,"concentration_Pb-210":209.39,"concentration_air-volume":25222.0,"from_timestamp":"2010-06-28T06:15:00Z","id":"103430","site":"Imatra","to_timestamp":"2010-07-05T06:20:00Z","uncertainty_Be-7-uncertainty":6.0,"uncertainty_Cs-137-uncertainty":11.0,"uncertainty_Pb-210-uncertainty":9.0},"type":"Feature"},{"geometry":{"coordinates":[27.57,68.64],"type":"Point"},"properties":{"concentration_Be-7":1266.16,"concentration_Cs-137":0.56,"concentration_Pb-210":52.24,"concentration_air-volume":25437.0,"from_timestamp":"2010-06-21T10:07:00Z","id":"103431","site":"Ivalo","to_timestamp":"2010-06-28T10:06:00Z","uncertainty_Be-7-uncertainty":5.0,"uncertainty_Cs-137-uncertainty":5.0,"uncertainty_Pb-210-uncertainty":11.0},"type":"Feature"},{"geometry":{"coordinates":[27.57,68.64],"type":"Point"},"properties":{"concentration_Be-7":2134.18,"concentration_Na-22":0.44,"concentration_Pb-210":249.83,"concentration_air-volume":35867.0,"from_timestamp":"2010-06-28T10:07:00Z","id":"103431","site":"Ivalo","to_timestamp":"2010-07-08T05:28:00Z","uncertainty_Be-7-uncertainty":5.0,"uncertainty_Na-22-uncertainty":7.0,"uncertainty_Pb-210-uncertainty":11.0},"type":"Feature"},{"geometry":{"coordinates":[27.63414,62.89195],"type":"Point"},"properties":{"concentration_Be-7":3136.89,"concentration_Cs-137":2.13,"concentration_air-volume":13971.0,"from_timestamp":"2010-06-24T08:34:00Z","id":"103432","site":"Kuopio","to_timestamp":"2010-06-28T07:38:00Z","uncertainty_Be-7-uncertainty":10.0,"uncertainty_Cs-137-uncertainty":13.0},"type":"Feature"},{"geometry":{"coordinates":[27.63414,62.89195],"type":"Point"},"properties":{"concentration_Be-7":2681.47,"concentration_Cs-137":1.73,"concentration_Pb-210":207.3,"concentration_air-volume":10690.0,"from_timestamp":"2010-06-28T07:42:00Z","id":"103432","site":"Kuopio","to_timestamp":"2010-07-01T07:42:00Z","uncertainty_Be-7-uncertainty":6.0,"uncertainty_Cs-137-uncertainty":10.0,"uncertainty_Pb-210-uncertainty":20.0},"type":"Feature"},{"geometry":{"coordinates":[27.63414,62.89195],"type":"Point"},"properties":{"concentration_Be-7":3123.65,"concentration_Cs-137":1.73,"concentration_Pb-210":287.72,"concentration_air-volume":14287.0,"from_timestamp":"2010-07-01T07:46:00Z","id":"103432","site":"Kuopio","to_timestamp":"2010-07-05T09:19:00Z","uncertainty_Be-7-uncertainty":6.0,"uncertainty_Cs-137-uncertainty":12.0,"uncertainty_Pb-210-uncertainty":20.0},"type":"Feature"},{"geometry":{"coordinates":[25.67774,66.51285],"type":"Point"},"properties":{"concentration_Be-7":1659.29,"concentration_Cs-137":0.36,"concentration_Na-22":0.29,"concentration_Pb-210":60.11,"concentration_air-volume":73965.0,"from_timestamp":"2010-06-21T09:56:00Z","id":"103433","site":"Rovaniemi","to_timestamp":"2010-06-28T10:40:00Z","uncertainty_Be-7-uncertainty":5.0,"uncertainty_Cs-137-uncertainty":6.0,"uncertainty_Na-22-uncertainty":18.0,"uncertainty_Pb-210-uncertainty":6.0},"type":"Feature"},{"geometry":{"coordinates":[25.67774,66.51285],"type":"Point"},"properties":{"concentration_Be-7":2399.59,"concentration_Cs-137":0.39,"concentration_Na-22":0.54,"concentration_Pb-210":137.64,"concentration_air-volume":75861.0,"from_timestamp":"2010-06-28T10:45:00Z","id":"103433","site":"Rovaniemi","to_timestamp":"2010-07-05T09:05:00Z","uncertainty_Be-7-uncertainty":5.0,"uncertainty_Cs-137-uncertainty":10.0,"uncertainty_Na-22-uncertainty":16.0,"uncertainty_Pb-210-uncertainty":5.0},"type":"Feature"},{"geometry":{"coordinates":[26.62807,67.36505],"type":"Point"},"properties":{"concentration_Be-7":1653.57,"concentration_Cs-137":0.75,"concentration_Pb-210":251.12,"concentration_air-volume":24775.0,"from_timestamp":"2010-06-21T05:50:00Z","id":"103434","site":"Sodankylä","to_timestamp":"2010-06-28T05:57:00Z","uncertainty_Be-7-uncertainty":5.0,"uncertainty_Cs-137-uncertainty":15.0,"uncertainty_Pb-210-uncertainty":11.0},"type":"Feature"},{"geometry":{"coordinates":[26.62807,67.36505],"type":"Point"},"properties":{"concentration_Be-7":2217.86,"concentration_Cs-137":0.64,"concentration_air-volume":24974.0,"from_timestamp":"2010-06-28T05:59:00Z","id":"103434","site":"Sodankylä","to_timestamp":"2010-07-05T05:40:00Z","uncertainty_Be-7-uncertainty":5.0,"uncertainty_Cs-137-uncertainty":10.0},"type":"Feature"},{"geometry":{"coordinates":[27.70835,64.08474],"type":"Point"},"properties":{"concentration_Be-7":2131.31,"concentration_Cs-137":0.72,"concentration_Na-22":0.35,"concentration_air-volume":85650.0,"from_timestamp":"2010-06-21T07:33:00Z","id":"103435","site":"Kajaani","to_timestamp":"2010-06-28T13:26:00Z","uncertainty_Be-7-uncertainty":7.0,"uncertainty_Cs-137-uncertainty":9.0,"uncertainty_Na-22-uncertainty":17.0},"type":"Feature"},{"geometry":{"coordinates":[27.70835,64.08474],"type":"Point"},"properties":{"concentration_Be-7":2774.19,"concentration_Cs-137":0.72,"concentration_Na-22":0.47,"concentration_Pb-210":264.37,"concentration_air-volume":77494.0,"from_timestamp":"2010-06-28T13:29:00Z","id":"103435","site":"Kajaani","to_timestamp":"2010-07-05T04:36:00Z","uncertainty_Be-7-uncertainty":5.0,"uncertainty_Cs-137-uncertainty":8.0,"uncertainty_Na-22-uncertainty":17.0,"uncertainty_Pb-210-uncertainty":5.0},"type":"Feature"}],"name":"stuk_open_data_air_radionuclides","type":"FeatureCollection"}