{"crs":{"properties":{"name":"urn:ogc:def:crs:OGC:1.3:CRS84"},"type":"name"},"features":[{"geometry":{"coordinates":[25.05385,60.20905],"type":"Point"},"properties":{"concentration_Be-7":1362.3,"concentration_Pb-210":521.57,"concentration_air-volume":34730.0,"from_timestamp":"2010-03-04T07:59:00Z","id":"103428","site":"Helsinki","to_timestamp":"2010-03-06T07:58:00Z","uncertainty_Be-7-uncertainty":5.0,"uncertainty_Pb-210-uncertainty":13.0},"type":"Feature"},{"geometry":{"coordinates":[25.05385,60.20905],"type":"Point"},"properties":{"concentration_Be-7":1400.04,"concentration_Pb-210":476.94,"concentration_air-volume":35429.0,"from_timestamp":"2010-03-06T07:59:00Z","id":"103428","site":"Helsinki","to_timestamp":"2010-03-08T07:58:00Z","uncertainty_Be-7-uncertainty":5.0,"uncertainty_Pb-210-uncertainty":14.0},"type":"Feature"},{"geometry":{"coordinates":[25.05385,60.20905],"type":"Point"},"properties":{"concentration_Be-7":1321.87,"concentration_air-volume":17261.0,"from_timestamp":"2010-03-08T07:59:00Z","id":"103428","site":"Helsinki","to_timestamp":"2010-03-09T07:58:00Z","uncertainty_Be-7-uncertainty":5.0},"type":"Feature"},{"geometry":{"coordinates":[25.05385,60.20905],"type":"Point"},"properties":{"concentration_Be-7":2176.95,"concentration_air-volume":17168.0,"from_timestamp":"2010-03-10T07:59:00Z","id":"103428","site":"Helsinki","to_timestamp":"2010-03-11T07:58:00Z","uncertainty_Be-7-uncertainty":5.0},"type":"Feature"},{"geometry":{"coordinates":[25.05385,60.20905],"type":"Point"},"properties":{"concentration_Be-7":2427.01,"concentration_air-volume":17013.0,"from_timestamp":"2010-03-11T07:58:00Z","id":"103428","site":"Helsinki","to_timestamp":"2010-03-12T07:58:00Z","uncertainty_Be-7-uncertainty":5.0},"type":"Feature"},{"geometry":{"coordinates":[25.05385,60.20905],"type":"Point"},"properties":{"concentration_Be-7":1563.24,"concentration_air-volume":34163.0,"from_timestamp":"2010-03-12T07:59:00Z","id":"103428","site":"Helsinki","to_timestamp":"2010-03-14T07:58:00Z","uncertainty_Be-7-uncertainty":5.0},"type":"Feature"},{"geometry":{"coordinates":[26.91808,60.48318],"type":"Point"},"properties":{"concentration_Be-7":1478.88,"concentration_Cs-137":3.22,"concentration_Pb-210":99.83,"concentration_air-volume":87572.0,"from_timestamp":"2010-03-03T06:00:00Z","id":"103429","site":"Kotka","to_timestamp":"2010-03-08T08:12:00Z","uncertainty_Be-7-uncertainty":5.0,"uncertainty_Cs-137-uncertainty":6.0,"uncertainty_Pb-210-uncertainty":8.0},"type":"Feature"},{"geometry":{"coordinates":[26.91808,60.48318],"type":"Point"},"properties":{"concentration_Be-7":1206.77,"concentration_Cs-137":1.73,"concentration_Pb-210":139.67,"concentration_air-volume":114243.0,"from_timestamp":"2010-03-08T08:14:00Z","id":"103429","site":"Kotka","to_timestamp":"2010-03-15T11:15:00Z","uncertainty_Be-7-uncertainty":6.0,"uncertainty_Cs-137-uncertainty":15.0,"uncertainty_Pb-210-uncertainty":20.0},"type":"Feature"},{"geometry":{"coordinates":[28.82663,61.13229],"type":"Point"},"properties":{"concentration_Be-7":2049.63,"concentration_Cs-137":1.03,"concentration_air-volume":15803.0,"from_timestamp":"2010-03-04T06:30:00Z","id":"103430","site":"Imatra","to_timestamp":"2010-03-08T06:25:00Z","uncertainty_Be-7-uncertainty":10.0,"uncertainty_Cs-137-uncertainty":20.0},"type":"Feature"},{"geometry":{"coordinates":[28.82663,61.13229],"type":"Point"},"properties":{"concentration_Be-7":1514.46,"concentration_Cs-137":0.95,"concentration_Pb-210":160.53,"concentration_air-volume":26226.0,"from_timestamp":"2010-03-08T06:25:00Z","id":"103430","site":"Imatra","to_timestamp":"2010-03-15T07:55:00Z","uncertainty_Be-7-uncertainty":6.0,"uncertainty_Cs-137-uncertainty":13.0,"uncertainty_Pb-210-uncertainty":20.0},"type":"Feature"},{"geometry":{"coordinates":[27.57,68.64],"type":"Point"},"properties":{"concentration_Be-7":2231.43,"concentration_Pb-210":329.6,"concentration_air-volume":27662.0,"from_timestamp":"2010-03-01T06:30:00Z","id":"103431","site":"Ivalo","to_timestamp":"2010-03-08T07:41:00Z","uncertainty_Be-7-uncertainty":5.0,"uncertainty_Pb-210-uncertainty":10.0},"type":"Feature"},{"geometry":{"coordinates":[27.57,68.64],"type":"Point"},"properties":{"concentration_Be-7":1616.49,"concentration_Pb-210":304.16,"concentration_air-volume":27746.0,"from_timestamp":"2010-03-08T07:43:00Z","id":"103431","site":"Ivalo","to_timestamp":"2010-03-15T07:43:00Z","uncertainty_Be-7-uncertainty":5.0,"uncertainty_Pb-210-uncertainty":11.0},"type":"Feature"},{"geometry":{"coordinates":[27.63414,62.89195],"type":"Point"},"properties":{"concentration_Be-7":2217.28,"concentration_air-volume":15680.0,"from_timestamp":"2010-03-04T06:38:00Z","id":"103432","site":"Kuopio","to_timestamp":"2010-03-08T06:27:00Z","uncertainty_Be-7-uncertainty":6.0},"type":"Feature"},{"geometry":{"coordinates":[27.63414,62.89195],"type":"Point"},"properties":{"concentration_Be-7":1408.33,"concentration_Cs-137":1.5,"concentration_air-volume":11530.0,"from_timestamp":"2010-03-08T06:28:00Z","id":"103432","site":"Kuopio","to_timestamp":"2010-03-11T06:28:00Z","uncertainty_Be-7-uncertainty":6.0,"uncertainty_Cs-137-uncertainty":29.0},"type":"Feature"},{"geometry":{"coordinates":[27.63414,62.89195],"type":"Point"},"properties":{"concentration_Be-7":1328.56,"concentration_air-volume":15505.0,"from_timestamp":"2010-03-11T06:29:00Z","id":"103432","site":"Kuopio","to_timestamp":"2010-03-15T07:46:00Z","uncertainty_Be-7-uncertainty":6.0},"type":"Feature"},{"geometry":{"coordinates":[25.67774,66.51285],"type":"Point"},"properties":{"concentration_Be-7":2041.88,"concentration_Cs-137":0.4,"concentration_Pb-210":196.9,"concentration_air-volume":74301.0,"from_timestamp":"2010-03-01T08:25:00Z","id":"103433","site":"Rovaniemi","to_timestamp":"2010-03-08T09:08:00Z","uncertainty_Be-7-uncertainty":5.0,"uncertainty_Cs-137-uncertainty":14.0,"uncertainty_Pb-210-uncertainty":5.0},"type":"Feature"},{"geometry":{"coordinates":[25.67774,66.51285],"type":"Point"},"properties":{"concentration_Be-7":1581.88,"concentration_Cs-137":0.26,"concentration_Na-22":0.18,"concentration_Pb-210":142.97,"concentration_air-volume":73702.0,"from_timestamp":"2010-03-08T09:14:00Z","id":"103433","site":"Rovaniemi","to_timestamp":"2010-03-15T11:30:00Z","uncertainty_Be-7-uncertainty":5.0,"uncertainty_Cs-137-uncertainty":9.0,"uncertainty_Na-22-uncertainty":8.0,"uncertainty_Pb-210-uncertainty":5.0},"type":"Feature"},{"geometry":{"coordinates":[26.62807,67.36505],"type":"Point"},"properties":{"concentration_Be-7":2027.31,"concentration_Cs-137":0.27,"concentration_air-volume":28195.0,"from_timestamp":"2010-03-01T05:26:00Z","id":"103434","site":"Sodankylä","to_timestamp":"2010-03-08T05:12:00Z","uncertainty_Be-7-uncertainty":5.0,"uncertainty_Cs-137-uncertainty":14.0},"type":"Feature"},{"geometry":{"coordinates":[26.62807,67.36505],"type":"Point"},"properties":{"concentration_Be-7":1339.33,"concentration_Pb-210":191.22,"concentration_air-volume":28451.0,"from_timestamp":"2010-03-08T05:14:00Z","id":"103434","site":"Sodankylä","to_timestamp":"2010-03-15T05:05:00Z","uncertainty_Be-7-uncertainty":5.0,"uncertainty_Pb-210-uncertainty":5.0},"type":"Feature"},{"geometry":{"coordinates":[27.70835,64.08474],"type":"Point"},"properties":{"concentration_Be-7":967.54,"concentration_Cs-137":0.3,"concentration_Pb-210":122.31,"concentration_air-volume":84521.0,"from_timestamp":"2010-03-01T06:17:00Z","id":"103435","site":"Kajaani","to_timestamp":"2010-03-08T07:19:00Z","uncertainty_Be-7-uncertainty":5.0,"uncertainty_Cs-137-uncertainty":14.0,"uncertainty_Pb-210-uncertainty":6.0},"type":"Feature"},{"geometry":{"coordinates":[27.70835,64.08474],"type":"Point"},"properties":{"concentration_Be-7":1031.38,"concentration_Cs-137":0.43,"concentration_Pb-210":56.43,"concentration_air-volume":118242.0,"from_timestamp":"2010-03-08T07:19:00Z","id":"103435","site":"Kajaani","to_timestamp":"2010-03-17T13:21:00Z","uncertainty_Be-7-uncertainty":5.0,"uncertainty_Cs-137-uncertainty":9.0,"uncertainty_Pb-210-uncertainty":10.0},"type":"Feature"}],"name":"stuk_open_data_air_radionuclides","type":"FeatureCollection"}