{"crs":{"properties":{"name":"urn:ogc:def:crs:OGC:1.3:CRS84"},"type":"name"},"features":[{"geometry":{"coordinates":[25.05385,60.20905],"type":"Point"},"properties":{"concentration_Be-7":1120.0,"concentration_Pb-210":235.37,"concentration_air-volume":16676.0,"from_timestamp":"2010-03-29T08:59:00Z","id":"103428","site":"Helsinki","to_timestamp":"2010-03-30T08:58:00Z","uncertainty_Be-7-uncertainty":5.0,"uncertainty_Pb-210-uncertainty":14.0},"type":"Feature"},{"geometry":{"coordinates":[25.05385,60.20905],"type":"Point"},"properties":{"concentration_Be-7":1582.08,"concentration_Pb-210":270.22,"concentration_air-volume":16949.0,"from_timestamp":"2010-03-30T08:59:00Z","id":"103428","site":"Helsinki","to_timestamp":"2010-03-31T08:58:00Z","uncertainty_Be-7-uncertainty":5.0,"uncertainty_Pb-210-uncertainty":13.0},"type":"Feature"},{"geometry":{"coordinates":[25.05385,60.20905],"type":"Point"},"properties":{"concentration_Be-7":3259.64,"concentration_Pb-210":619.82,"concentration_air-volume":16776.0,"from_timestamp":"2010-03-31T08:59:00Z","id":"103428","site":"Helsinki","to_timestamp":"2010-04-01T08:58:00Z","uncertainty_Be-7-uncertainty":5.0,"uncertainty_Pb-210-uncertainty":7.0},"type":"Feature"},{"geometry":{"coordinates":[25.05385,60.20905],"type":"Point"},"properties":{"concentration_Be-7":2228.95,"concentration_Pb-210":1000.17,"concentration_air-volume":16572.0,"from_timestamp":"2010-04-01T08:59:00Z","id":"103428","site":"Helsinki","to_timestamp":"2010-04-02T08:58:00Z","uncertainty_Be-7-uncertainty":5.0,"uncertainty_Pb-210-uncertainty":6.0},"type":"Feature"},{"geometry":{"coordinates":[25.05385,60.20905],"type":"Point"},"properties":{"concentration_Be-7":1662.71,"concentration_Pb-210":624.79,"concentration_air-volume":16454.0,"from_timestamp":"2010-04-02T08:59:00Z","id":"103428","site":"Helsinki","to_timestamp":"2010-04-03T08:58:00Z","uncertainty_Be-7-uncertainty":5.0,"uncertainty_Pb-210-uncertainty":9.0},"type":"Feature"},{"geometry":{"coordinates":[25.05385,60.20905],"type":"Point"},"properties":{"concentration_Be-7":1916.89,"concentration_Pb-210":881.59,"concentration_air-volume":16699.0,"from_timestamp":"2010-04-03T08:59:00Z","id":"103428","site":"Helsinki","to_timestamp":"2010-04-04T08:58:00Z","uncertainty_Be-7-uncertainty":5.0,"uncertainty_Pb-210-uncertainty":6.0},"type":"Feature"},{"geometry":{"coordinates":[25.05385,60.20905],"type":"Point"},"properties":{"concentration_Be-7":840.41,"concentration_Pb-210":332.4,"concentration_air-volume":16980.0,"from_timestamp":"2010-04-04T08:59:00Z","id":"103428","site":"Helsinki","to_timestamp":"2010-04-05T08:58:00Z","uncertainty_Be-7-uncertainty":5.0,"uncertainty_Pb-210-uncertainty":10.0},"type":"Feature"},{"geometry":{"coordinates":[25.05385,60.20905],"type":"Point"},"properties":{"concentration_Be-7":3330.14,"concentration_Pb-210":470.27,"concentration_air-volume":16736.0,"from_timestamp":"2010-04-05T08:59:00Z","id":"103428","site":"Helsinki","to_timestamp":"2010-04-06T08:58:00Z","uncertainty_Be-7-uncertainty":5.0,"uncertainty_Pb-210-uncertainty":9.0},"type":"Feature"},{"geometry":{"coordinates":[25.05385,60.20905],"type":"Point"},"properties":{"concentration_Be-7":1648.01,"concentration_Pb-210":477.75,"concentration_air-volume":16898.0,"from_timestamp":"2010-04-06T08:59:00Z","id":"103428","site":"Helsinki","to_timestamp":"2010-04-07T08:58:00Z","uncertainty_Be-7-uncertainty":5.0,"uncertainty_Pb-210-uncertainty":9.0},"type":"Feature"},{"geometry":{"coordinates":[26.91808,60.48318],"type":"Point"},"properties":{"concentration_Be-7":2160.35,"concentration_Cs-137":3.15,"concentration_Na-22":0.18,"concentration_Pb-210":332.95,"concentration_air-volume":98564.0,"from_timestamp":"2010-03-22T11:40:00Z","id":"103429","site":"Kotka","to_timestamp":"2010-03-30T05:10:00Z","uncertainty_Be-7-uncertainty":5.0,"uncertainty_Cs-137-uncertainty":5.0,"uncertainty_Na-22-uncertainty":27.0,"uncertainty_Pb-210-uncertainty":5.0},"type":"Feature"},{"geometry":{"coordinates":[26.91808,60.48318],"type":"Point"},"properties":{"concentration_Be-7":2762.44,"concentration_Co-60":0.2,"concentration_Cs-137":3.63,"concentration_Na-22":0.42,"concentration_Pb-210":733.68,"concentration_air-volume":87881.0,"from_timestamp":"2010-03-30T05:01:00Z","id":"103429","site":"Kotka","to_timestamp":"2010-04-06T05:44:00Z","uncertainty_Be-7-uncertainty":5.0,"uncertainty_Co-60-uncertainty":17.0,"uncertainty_Cs-137-uncertainty":5.0,"uncertainty_Na-22-uncertainty":16.0,"uncertainty_Pb-210-uncertainty":5.0},"type":"Feature"},{"geometry":{"coordinates":[26.91808,60.48318],"type":"Point"},"properties":{"concentration_Be-7":1918.53,"concentration_Cs-137":3.17,"concentration_Pb-210":373.46,"concentration_air-volume":97658.0,"from_timestamp":"2010-04-06T05:48:00Z","id":"103429","site":"Kotka","to_timestamp":"2010-04-11T07:25:00Z","uncertainty_Be-7-uncertainty":5.0,"uncertainty_Cs-137-uncertainty":6.0,"uncertainty_Pb-210-uncertainty":5.0},"type":"Feature"},{"geometry":{"coordinates":[28.82663,61.13229],"type":"Point"},"properties":{"concentration_Be-7":2509.64,"concentration_Cs-137":1.08,"concentration_air-volume":27957.0,"from_timestamp":"2010-03-29T06:45:00Z","id":"103430","site":"Imatra","to_timestamp":"2010-04-06T06:20:00Z","uncertainty_Be-7-uncertainty":5.0,"uncertainty_Cs-137-uncertainty":11.0},"type":"Feature"},{"geometry":{"coordinates":[28.82663,61.13229],"type":"Point"},"properties":{"concentration_Be-7":2123.71,"concentration_Cs-137":1.21,"concentration_Pb-210":352.39,"concentration_air-volume":21598.0,"from_timestamp":"2010-04-06T06:25:00Z","id":"103430","site":"Imatra","to_timestamp":"2010-04-12T05:00:00Z","uncertainty_Be-7-uncertainty":6.0,"uncertainty_Cs-137-uncertainty":11.0,"uncertainty_Pb-210-uncertainty":20.0},"type":"Feature"},{"geometry":{"coordinates":[27.57,68.64],"type":"Point"},"properties":{"concentration_Be-7":1290.34,"concentration_Cs-137":0.5,"concentration_Pb-210":403.51,"concentration_air-volume":30350.0,"from_timestamp":"2010-03-29T08:32:00Z","id":"103431","site":"Ivalo","to_timestamp":"2010-04-06T07:25:00Z","uncertainty_Be-7-uncertainty":5.0,"uncertainty_Cs-137-uncertainty":19.0,"uncertainty_Pb-210-uncertainty":10.0},"type":"Feature"},{"geometry":{"coordinates":[27.57,68.64],"type":"Point"},"properties":{"concentration_Be-7":1203.57,"concentration_Pb-210":206.5,"concentration_air-volume":21165.0,"from_timestamp":"2010-04-06T07:30:00Z","id":"103431","site":"Ivalo","to_timestamp":"2010-04-12T05:44:00Z","uncertainty_Be-7-uncertainty":5.0,"uncertainty_Pb-210-uncertainty":12.0},"type":"Feature"},{"geometry":{"coordinates":[27.63414,62.89195],"type":"Point"},"properties":{"concentration_Be-7":793.82,"concentration_Cs-137":1.56,"concentration_Pb-210":133.58,"concentration_air-volume":11502.0,"from_timestamp":"2010-03-29T06:37:00Z","id":"103432","site":"Kuopio","to_timestamp":"2010-04-01T08:10:00Z","uncertainty_Be-7-uncertainty":6.0,"uncertainty_Cs-137-uncertainty":11.0,"uncertainty_Pb-210-uncertainty":20.0},"type":"Feature"},{"geometry":{"coordinates":[27.63414,62.89195],"type":"Point"},"properties":{"concentration_Be-7":3055.88,"concentration_Cs-137":1.63,"concentration_air-volume":14066.0,"from_timestamp":"2010-04-01T08:13:00Z","id":"103432","site":"Kuopio","to_timestamp":"2010-04-06T06:47:00Z","uncertainty_Be-7-uncertainty":10.0,"uncertainty_Cs-137-uncertainty":16.0},"type":"Feature"},{"geometry":{"coordinates":[27.63414,62.89195],"type":"Point"},"properties":{"concentration_Be-7":2146.8,"concentration_Cs-137":1.45,"concentration_Pb-210":322.31,"concentration_air-volume":21567.0,"from_timestamp":"2010-04-04T09:36:00Z","id":"103432","site":"Kuopio","to_timestamp":"2010-04-12T07:39:00Z","uncertainty_Be-7-uncertainty":6.0,"uncertainty_Cs-137-uncertainty":11.0,"uncertainty_Pb-210-uncertainty":20.0},"type":"Feature"},{"geometry":{"coordinates":[25.67774,66.51285],"type":"Point"},"properties":{"concentration_Be-7":1241.9,"concentration_Cs-137":0.42,"concentration_Na-22":0.24,"concentration_Pb-210":193.17,"concentration_air-volume":86456.0,"from_timestamp":"2010-03-29T09:46:00Z","id":"103433","site":"Rovaniemi","to_timestamp":"2010-04-06T09:41:00Z","uncertainty_Be-7-uncertainty":5.0,"uncertainty_Cs-137-uncertainty":8.0,"uncertainty_Na-22-uncertainty":11.0,"uncertainty_Pb-210-uncertainty":5.0},"type":"Feature"},{"geometry":{"coordinates":[25.67774,66.51285],"type":"Point"},"properties":{"concentration_Be-7":930.39,"concentration_Cs-137":0.38,"concentration_Pb-210":168.94,"concentration_air-volume":64983.0,"from_timestamp":"2010-04-06T09:44:00Z","id":"103433","site":"Rovaniemi","to_timestamp":"2010-04-12T08:50:00Z","uncertainty_Be-7-uncertainty":5.0,"uncertainty_Cs-137-uncertainty":10.0,"uncertainty_Pb-210-uncertainty":5.0},"type":"Feature"},{"geometry":{"coordinates":[26.62807,67.36505],"type":"Point"},"properties":{"concentration_Be-7":1278.69,"concentration_Pb-210":237.57,"concentration_air-volume":27326.0,"from_timestamp":"2010-03-29T05:01:00Z","id":"103434","site":"Sodankylä","to_timestamp":"2010-04-05T05:55:00Z","uncertainty_Be-7-uncertainty":5.0,"uncertainty_Pb-210-uncertainty":5.0},"type":"Feature"},{"geometry":{"coordinates":[26.62807,67.36505],"type":"Point"},"properties":{"concentration_Be-7":1008.5,"concentration_Pb-210":379.72,"concentration_air-volume":27310.0,"from_timestamp":"2010-04-05T05:58:00Z","id":"103434","site":"Sodankylä","to_timestamp":"2010-04-12T05:53:00Z","uncertainty_Be-7-uncertainty":5.0,"uncertainty_Pb-210-uncertainty":10.0},"type":"Feature"},{"geometry":{"coordinates":[27.70835,64.08474],"type":"Point"},"properties":{"concentration_Be-7":1808.94,"concentration_Cs-137":0.55,"concentration_Na-22":0.25,"concentration_Pb-210":160.54,"concentration_air-volume":116767.0,"from_timestamp":"2010-03-29T09:11:00Z","id":"103435","site":"Kajaani","to_timestamp":"2010-04-08T07:14:00Z","uncertainty_Be-7-uncertainty":5.0,"uncertainty_Cs-137-uncertainty":8.0,"uncertainty_Na-22-uncertainty":18.0,"uncertainty_Pb-210-uncertainty":6.0},"type":"Feature"}],"name":"stuk_open_data_air_radionuclides","type":"FeatureCollection"}