{"crs":{"properties":{"name":"urn:ogc:def:crs:OGC:1.3:CRS84"},"type":"name"},"features":[{"geometry":{"coordinates":[25.05385,60.20905],"type":"Point"},"properties":{"concentration_Be-7":3559.86,"concentration_Pb-210":285.46,"concentration_air-volume":32707.0,"from_timestamp":"2010-08-20T07:57:00Z","id":"103428","site":"Helsinki","to_timestamp":"2010-08-22T07:56:00Z","uncertainty_Be-7-uncertainty":5.0,"uncertainty_Pb-210-uncertainty":5.0},"type":"Feature"},{"geometry":{"coordinates":[25.05385,60.20905],"type":"Point"},"properties":{"concentration_Be-7":1917.24,"concentration_Pb-210":146.89,"concentration_air-volume":32818.0,"from_timestamp":"2010-08-22T07:57:00Z","id":"103428","site":"Helsinki","to_timestamp":"2010-08-24T07:56:00Z","uncertainty_Be-7-uncertainty":6.0,"uncertainty_Pb-210-uncertainty":20.0},"type":"Feature"},{"geometry":{"coordinates":[25.05385,60.20905],"type":"Point"},"properties":{"concentration_Be-7":2269.11,"concentration_air-volume":32617.0,"from_timestamp":"2010-08-24T07:57:00Z","id":"103428","site":"Helsinki","to_timestamp":"2010-08-26T07:56:00Z","uncertainty_Be-7-uncertainty":5.0},"type":"Feature"},{"geometry":{"coordinates":[25.05385,60.20905],"type":"Point"},"properties":{"concentration_Be-7":861.66,"concentration_air-volume":33661.0,"from_timestamp":"2010-08-26T07:57:00Z","id":"103428","site":"Helsinki","to_timestamp":"2010-08-28T05:56:00Z","uncertainty_Be-7-uncertainty":5.0},"type":"Feature"},{"geometry":{"coordinates":[25.05385,60.20905],"type":"Point"},"properties":{"concentration_Be-7":3584.69,"concentration_Pb-210":264.59,"concentration_air-volume":33702.0,"from_timestamp":"2010-08-28T07:57:00Z","id":"103428","site":"Helsinki","to_timestamp":"2010-08-30T07:56:00Z","uncertainty_Be-7-uncertainty":5.0,"uncertainty_Pb-210-uncertainty":6.0},"type":"Feature"},{"geometry":{"coordinates":[26.91808,60.48318],"type":"Point"},"properties":{"concentration_Be-7":4055.16,"concentration_Cs-137":2.62,"concentration_Na-22":0.62,"concentration_Pb-210":431.13,"concentration_air-volume":198664.0,"from_timestamp":"2010-08-09T06:25:00Z","id":"103429","site":"Kotka","to_timestamp":"2010-08-24T04:24:00Z","uncertainty_Be-7-uncertainty":5.0,"uncertainty_Cs-137-uncertainty":6.0,"uncertainty_Na-22-uncertainty":10.0,"uncertainty_Pb-210-uncertainty":5.0},"type":"Feature"},{"geometry":{"coordinates":[26.91808,60.48318],"type":"Point"},"properties":{"concentration_Be-7":2704.03,"concentration_Cs-137":2.71,"concentration_Na-22":0.32,"concentration_air-volume":86272.0,"from_timestamp":"2010-08-24T04:27:00Z","id":"103429","site":"Kotka","to_timestamp":"2010-08-30T06:22:00Z","uncertainty_Be-7-uncertainty":7.0,"uncertainty_Cs-137-uncertainty":7.0,"uncertainty_Na-22-uncertainty":18.0},"type":"Feature"},{"geometry":{"coordinates":[28.82663,61.13229],"type":"Point"},"properties":{"concentration_Be-7":3360.75,"concentration_Cs-137":0.86,"concentration_Pb-210":220.26,"concentration_air-volume":25375.0,"from_timestamp":"2010-08-16T07:30:00Z","id":"103430","site":"Imatra","to_timestamp":"2010-08-23T06:15:00Z","uncertainty_Be-7-uncertainty":6.0,"uncertainty_Cs-137-uncertainty":13.0,"uncertainty_Pb-210-uncertainty":10.0},"type":"Feature"},{"geometry":{"coordinates":[28.82663,61.13229],"type":"Point"},"properties":{"concentration_Be-7":2618.43,"concentration_Pb-210":162.95,"concentration_air-volume":25538.0,"from_timestamp":"2010-08-23T05:20:00Z","id":"103430","site":"Imatra","to_timestamp":"2010-08-30T05:25:00Z","uncertainty_Be-7-uncertainty":6.0,"uncertainty_Pb-210-uncertainty":11.0},"type":"Feature"},{"geometry":{"coordinates":[27.57,68.64],"type":"Point"},"properties":{"concentration_Be-7":1760.5,"concentration_Cs-137":0.44,"concentration_Na-22":0.57,"concentration_air-volume":24927.0,"from_timestamp":"2010-08-16T06:53:00Z","id":"103431","site":"Ivalo","to_timestamp":"2010-08-23T06:45:00Z","uncertainty_Be-7-uncertainty":5.0,"uncertainty_Cs-137-uncertainty":6.0,"uncertainty_Na-22-uncertainty":16.0},"type":"Feature"},{"geometry":{"coordinates":[27.57,68.64],"type":"Point"},"properties":{"concentration_Be-7":1178.82,"concentration_air-volume":24938.0,"from_timestamp":"2010-08-23T06:47:00Z","id":"103431","site":"Ivalo","to_timestamp":"2010-08-30T05:49:00Z","uncertainty_Be-7-uncertainty":5.0},"type":"Feature"},{"geometry":{"coordinates":[27.63414,62.89195],"type":"Point"},"properties":{"concentration_Be-7":2457.55,"concentration_air-volume":14125.0,"from_timestamp":"2010-08-19T08:03:00Z","id":"103432","site":"Kuopio","to_timestamp":"2010-08-23T07:31:00Z","uncertainty_Be-7-uncertainty":6.0},"type":"Feature"},{"geometry":{"coordinates":[27.63414,62.89195],"type":"Point"},"properties":{"concentration_Be-7":556.12,"concentration_air-volume":11057.0,"from_timestamp":"2010-08-23T07:34:00Z","id":"103432","site":"Kuopio","to_timestamp":"2010-08-26T09:20:00Z","uncertainty_Be-7-uncertainty":6.0},"type":"Feature"},{"geometry":{"coordinates":[27.63414,62.89195],"type":"Point"},"properties":{"concentration_Be-7":2587.01,"concentration_air-volume":14322.0,"from_timestamp":"2010-08-26T09:24:00Z","id":"103432","site":"Kuopio","to_timestamp":"2010-08-30T07:46:00Z","uncertainty_Be-7-uncertainty":6.0},"type":"Feature"},{"geometry":{"coordinates":[25.67774,66.51285],"type":"Point"},"properties":{"concentration_Be-7":2445.06,"concentration_Cs-137":0.23,"concentration_Na-22":0.3,"concentration_Pb-210":92.2,"concentration_air-volume":75009.0,"from_timestamp":"2010-08-16T09:09:00Z","id":"103433","site":"Rovaniemi","to_timestamp":"2010-08-23T10:23:00Z","uncertainty_Be-7-uncertainty":5.0,"uncertainty_Cs-137-uncertainty":10.0,"uncertainty_Na-22-uncertainty":13.0,"uncertainty_Pb-210-uncertainty":5.0},"type":"Feature"},{"geometry":{"coordinates":[25.67774,66.51285],"type":"Point"},"properties":{"concentration_Be-7":2424.77,"concentration_Cs-137":0.18,"concentration_Na-22":0.31,"concentration_Pb-210":98.17,"concentration_air-volume":74505.0,"from_timestamp":"2010-08-23T10:25:00Z","id":"103433","site":"Rovaniemi","to_timestamp":"2010-08-30T09:10:00Z","uncertainty_Be-7-uncertainty":5.0,"uncertainty_Cs-137-uncertainty":13.0,"uncertainty_Na-22-uncertainty":25.0,"uncertainty_Pb-210-uncertainty":5.0},"type":"Feature"},{"geometry":{"coordinates":[26.62807,67.36505],"type":"Point"},"properties":{"concentration_Be-7":2347.61,"concentration_air-volume":25171.0,"from_timestamp":"2010-08-16T05:38:00Z","id":"103434","site":"Sodankylä","to_timestamp":"2010-08-23T05:36:00Z","uncertainty_Be-7-uncertainty":5.0},"type":"Feature"},{"geometry":{"coordinates":[26.62807,67.36505],"type":"Point"},"properties":{"concentration_Be-7":1955.33,"concentration_Pb-210":210.65,"concentration_air-volume":25415.0,"from_timestamp":"2010-08-23T05:38:00Z","id":"103434","site":"Sodankylä","to_timestamp":"2010-08-30T05:53:00Z","uncertainty_Be-7-uncertainty":5.0,"uncertainty_Pb-210-uncertainty":11.0},"type":"Feature"},{"geometry":{"coordinates":[27.70835,64.08474],"type":"Point"},"properties":{"concentration_Be-7":1666.04,"concentration_Cs-137":0.32,"concentration_Na-22":0.24,"concentration_Pb-210":59.93,"concentration_air-volume":105275.0,"from_timestamp":"2010-08-16T07:52:00Z","id":"103435","site":"Kajaani","to_timestamp":"2010-08-25T07:00:00Z","uncertainty_Be-7-uncertainty":5.0,"uncertainty_Cs-137-uncertainty":10.0,"uncertainty_Na-22-uncertainty":19.0,"uncertainty_Pb-210-uncertainty":8.0},"type":"Feature"},{"geometry":{"coordinates":[27.70835,64.08474],"type":"Point"},"properties":{"concentration_Be-7":1961.67,"concentration_Cs-137":0.39,"concentration_air-volume":58007.0,"from_timestamp":"2010-08-25T07:02:00Z","id":"103435","site":"Kajaani","to_timestamp":"2010-08-30T04:18:00Z","uncertainty_Be-7-uncertainty":7.0,"uncertainty_Cs-137-uncertainty":17.0},"type":"Feature"}],"name":"stuk_open_data_air_radionuclides","type":"FeatureCollection"}