{"crs":{"properties":{"name":"urn:ogc:def:crs:OGC:1.3:CRS84"},"type":"name"},"features":[{"geometry":{"coordinates":[25.05385,60.20905],"type":"Point"},"properties":{"concentration_Be-7":884.96,"concentration_Pb-210":360.89,"concentration_air-volume":33633.0,"from_timestamp":"2011-10-02T07:55:00Z","id":"103428","site":"Helsinki","to_timestamp":"2011-10-04T07:54:00Z","uncertainty_Be-7-uncertainty":5.0,"uncertainty_Pb-210-uncertainty":5.0},"type":"Feature"},{"geometry":{"coordinates":[25.05385,60.20905],"type":"Point"},"properties":{"concentration_Be-7":3115.76,"concentration_Cs-137":0.43,"concentration_air-volume":32959.0,"from_timestamp":"2011-10-04T07:55:00Z","id":"103428","site":"Helsinki","to_timestamp":"2011-10-06T07:54:00Z","uncertainty_Be-7-uncertainty":7.0,"uncertainty_Cs-137-uncertainty":21.0},"type":"Feature"},{"geometry":{"coordinates":[25.05385,60.20905],"type":"Point"},"properties":{"concentration_Be-7":1849.09,"concentration_Pb-210":109.93,"concentration_air-volume":33352.0,"from_timestamp":"2011-10-06T07:55:00Z","id":"103428","site":"Helsinki","to_timestamp":"2011-10-08T07:54:00Z","uncertainty_Be-7-uncertainty":5.0,"uncertainty_Pb-210-uncertainty":6.0},"type":"Feature"},{"geometry":{"coordinates":[25.05385,60.20905],"type":"Point"},"properties":{"concentration_Be-7":448.3,"concentration_Cs-137":2.21,"concentration_Pb-210":133.0,"concentration_air-volume":16596.0,"from_timestamp":"2011-10-08T07:55:00Z","id":"103428","site":"Helsinki","to_timestamp":"2011-10-09T07:54:00Z","uncertainty_Be-7-uncertainty":5.0,"uncertainty_Cs-137-uncertainty":18.0,"uncertainty_Pb-210-uncertainty":6.0},"type":"Feature"},{"geometry":{"coordinates":[25.05385,60.20905],"type":"Point"},"properties":{"concentration_Be-7":850.74,"concentration_Pb-210":135.41,"concentration_air-volume":16963.0,"from_timestamp":"2011-10-09T07:55:00Z","id":"103428","site":"Helsinki","to_timestamp":"2011-10-10T07:54:00Z","uncertainty_Be-7-uncertainty":5.0,"uncertainty_Pb-210-uncertainty":6.0},"type":"Feature"},{"geometry":{"coordinates":[25.05385,60.20905],"type":"Point"},"properties":{"concentration_Be-7":1049.29,"concentration_air-volume":33480.0,"from_timestamp":"2011-10-10T07:55:00Z","id":"103428","site":"Helsinki","to_timestamp":"2011-10-12T07:54:00Z","uncertainty_Be-7-uncertainty":5.0},"type":"Feature"},{"geometry":{"coordinates":[26.91808,60.48318],"type":"Point"},"properties":{"concentration_Be-7":1409.02,"concentration_Cs-134":0.18,"concentration_Cs-137":3.9,"concentration_Pb-210":56.37,"concentration_air-volume":116947.0,"from_timestamp":"2011-09-26T06:38:00Z","id":"103429","site":"Kotka","to_timestamp":"2011-10-04T07:16:00Z","uncertainty_Be-7-uncertainty":5.0,"uncertainty_Cs-134-uncertainty":17.0,"uncertainty_Cs-137-uncertainty":5.0,"uncertainty_Pb-210-uncertainty":8.0},"type":"Feature"},{"geometry":{"coordinates":[26.91808,60.48318],"type":"Point"},"properties":{"concentration_Be-7":1551.82,"concentration_Cs-137":2.42,"concentration_Na-22":0.17,"concentration_Pb-210":193.96,"concentration_air-volume":89402.0,"from_timestamp":"2011-10-04T07:20:00Z","id":"103429","site":"Kotka","to_timestamp":"2011-10-10T08:35:00Z","uncertainty_Be-7-uncertainty":5.0,"uncertainty_Cs-137-uncertainty":6.0,"uncertainty_Na-22-uncertainty":27.0,"uncertainty_Pb-210-uncertainty":5.0},"type":"Feature"},{"geometry":{"coordinates":[26.91808,60.48318],"type":"Point"},"properties":{"concentration_Be-7":1651.86,"concentration_Cs-137":2.29,"concentration_Na-22":0.17,"concentration_air-volume":104520.0,"from_timestamp":"2011-10-10T08:37:00Z","id":"103429","site":"Kotka","to_timestamp":"2011-10-17T11:34:00Z","uncertainty_Be-7-uncertainty":7.0,"uncertainty_Cs-137-uncertainty":7.0,"uncertainty_Na-22-uncertainty":24.0},"type":"Feature"},{"geometry":{"coordinates":[28.82663,61.13229],"type":"Point"},"properties":{"concentration_Be-7":1455.63,"concentration_Cs-137":1.44,"concentration_Pb-210":219.85,"concentration_air-volume":45146.0,"from_timestamp":"2011-09-22T05:50:00Z","id":"103430","site":"Imatra","to_timestamp":"2011-10-04T07:00:00Z","uncertainty_Be-7-uncertainty":6.0,"uncertainty_Cs-137-uncertainty":8.0,"uncertainty_Pb-210-uncertainty":20.0},"type":"Feature"},{"geometry":{"coordinates":[28.82663,61.13229],"type":"Point"},"properties":{"concentration_Be-7":2233.61,"concentration_air-volume":6972.0,"from_timestamp":"2011-10-04T07:05:00Z","id":"103430","site":"Imatra","to_timestamp":"2011-10-06T04:05:00Z","uncertainty_Be-7-uncertainty":10.0},"type":"Feature"},{"geometry":{"coordinates":[28.82663,61.13229],"type":"Point"},"properties":{"concentration_Be-7":1342.09,"concentration_Cs-137":0.82,"concentration_air-volume":42389.0,"from_timestamp":"2011-10-06T04:10:00Z","id":"103430","site":"Imatra","to_timestamp":"2011-10-17T06:15:00Z","uncertainty_Be-7-uncertainty":6.0,"uncertainty_Cs-137-uncertainty":11.0},"type":"Feature"},{"geometry":{"coordinates":[27.57,68.64],"type":"Point"},"properties":{"concentration_Be-7":1121.03,"concentration_Cs-137":0.28,"concentration_Pb-210":123.4,"concentration_air-volume":25178.0,"from_timestamp":"2011-09-26T07:44:00Z","id":"103431","site":"Ivalo","to_timestamp":"2011-10-03T07:07:00Z","uncertainty_Be-7-uncertainty":5.0,"uncertainty_Cs-137-uncertainty":7.0,"uncertainty_Pb-210-uncertainty":15.0},"type":"Feature"},{"geometry":{"coordinates":[27.57,68.64],"type":"Point"},"properties":{"concentration_Be-7":740.64,"concentration_Cs-137":0.22,"concentration_Pb-210":87.78,"concentration_air-volume":25619.0,"from_timestamp":"2011-10-03T07:11:00Z","id":"103431","site":"Ivalo","to_timestamp":"2011-10-10T09:32:00Z","uncertainty_Be-7-uncertainty":5.0,"uncertainty_Cs-137-uncertainty":19.0,"uncertainty_Pb-210-uncertainty":5.0},"type":"Feature"},{"geometry":{"coordinates":[27.57,68.64],"type":"Point"},"properties":{"concentration_Be-7":927.5,"concentration_Pb-210":104.1,"concentration_air-volume":24888.0,"from_timestamp":"2011-10-10T09:32:00Z","id":"103431","site":"Ivalo","to_timestamp":"2011-10-17T04:45:00Z","uncertainty_Be-7-uncertainty":5.0,"uncertainty_Pb-210-uncertainty":15.0},"type":"Feature"},{"geometry":{"coordinates":[27.63414,62.89195],"type":"Point"},"properties":{"concentration_Be-7":992.61,"concentration_Cs-137":1.11,"concentration_air-volume":15580.0,"from_timestamp":"2011-09-29T06:58:00Z","id":"103432","site":"Kuopio","to_timestamp":"2011-10-03T07:05:00Z","uncertainty_Be-7-uncertainty":6.0,"uncertainty_Cs-137-uncertainty":30.0},"type":"Feature"},{"geometry":{"coordinates":[27.63414,62.89195],"type":"Point"},"properties":{"concentration_Be-7":1471.6,"concentration_air-volume":11368.0,"from_timestamp":"2011-10-03T07:07:00Z","id":"103432","site":"Kuopio","to_timestamp":"2011-10-06T07:05:00Z","uncertainty_Be-7-uncertainty":6.0},"type":"Feature"},{"geometry":{"coordinates":[27.63414,62.89195],"type":"Point"},"properties":{"concentration_Be-7":1642.13,"concentration_Cs-137":1.83,"concentration_air-volume":15206.0,"from_timestamp":"2011-10-06T07:06:00Z","id":"103432","site":"Kuopio","to_timestamp":"2011-10-10T06:57:00Z","uncertainty_Be-7-uncertainty":6.0,"uncertainty_Cs-137-uncertainty":20.0},"type":"Feature"},{"geometry":{"coordinates":[27.63414,62.89195],"type":"Point"},"properties":{"concentration_Be-7":670.61,"concentration_air-volume":11527.0,"from_timestamp":"2011-10-10T06:58:00Z","id":"103432","site":"Kuopio","to_timestamp":"2011-10-13T07:10:00Z","uncertainty_Be-7-uncertainty":6.0},"type":"Feature"},{"geometry":{"coordinates":[25.67774,66.51285],"type":"Point"},"properties":{"concentration_Be-7":1035.18,"concentration_Cs-137":0.5,"concentration_Pb-210":88.78,"concentration_air-volume":95133.0,"from_timestamp":"2011-09-26T09:33:00Z","id":"103433","site":"Rovaniemi","to_timestamp":"2011-10-03T09:09:00Z","uncertainty_Be-7-uncertainty":5.0,"uncertainty_Cs-137-uncertainty":8.0,"uncertainty_Pb-210-uncertainty":5.0},"type":"Feature"},{"geometry":{"coordinates":[25.67774,66.51285],"type":"Point"},"properties":{"concentration_Be-7":1147.66,"concentration_Cs-137":0.34,"concentration_Pb-210":64.65,"concentration_air-volume":95118.0,"from_timestamp":"2011-10-03T09:12:00Z","id":"103433","site":"Rovaniemi","to_timestamp":"2011-10-10T09:22:00Z","uncertainty_Be-7-uncertainty":5.0,"uncertainty_Cs-137-uncertainty":6.0,"uncertainty_Pb-210-uncertainty":6.0},"type":"Feature"},{"geometry":{"coordinates":[25.67774,66.51285],"type":"Point"},"properties":{"concentration_Be-7":1165.23,"concentration_Cs-137":0.34,"concentration_Pb-210":98.62,"concentration_air-volume":93707.0,"from_timestamp":"2011-10-10T09:25:00Z","id":"103433","site":"Rovaniemi","to_timestamp":"2011-10-17T09:30:00Z","uncertainty_Be-7-uncertainty":5.0,"uncertainty_Cs-137-uncertainty":7.0,"uncertainty_Pb-210-uncertainty":5.0},"type":"Feature"},{"geometry":{"coordinates":[26.62807,67.36505],"type":"Point"},"properties":{"concentration_Be-7":807.0,"concentration_Cs-137":0.7,"concentration_air-volume":25372.0,"from_timestamp":"2011-09-26T05:44:00Z","id":"103434","site":"Sodankylä","to_timestamp":"2011-10-03T05:34:00Z","uncertainty_Be-7-uncertainty":5.0,"uncertainty_Cs-137-uncertainty":17.0},"type":"Feature"},{"geometry":{"coordinates":[26.62807,67.36505],"type":"Point"},"properties":{"concentration_Be-7":802.53,"concentration_Pb-210":72.83,"concentration_air-volume":25194.0,"from_timestamp":"2011-10-03T05:36:00Z","id":"103434","site":"Sodankylä","to_timestamp":"2011-10-10T05:51:00Z","uncertainty_Be-7-uncertainty":5.0,"uncertainty_Pb-210-uncertainty":27.0},"type":"Feature"},{"geometry":{"coordinates":[26.62807,67.36505],"type":"Point"},"properties":{"concentration_Be-7":862.46,"concentration_air-volume":25582.0,"from_timestamp":"2011-10-10T05:52:00Z","id":"103434","site":"Sodankylä","to_timestamp":"2011-10-17T05:51:00Z","uncertainty_Be-7-uncertainty":5.0},"type":"Feature"},{"geometry":{"coordinates":[27.70835,64.08474],"type":"Point"},"properties":{"concentration_Be-7":1029.2,"concentration_Cs-137":0.77,"concentration_Pb-210":125.14,"concentration_air-volume":85808.0,"from_timestamp":"2011-09-26T03:39:00Z","id":"103435","site":"Kajaani","to_timestamp":"2011-10-03T06:03:00Z","uncertainty_Be-7-uncertainty":5.0,"uncertainty_Cs-137-uncertainty":8.0,"uncertainty_Pb-210-uncertainty":5.0},"type":"Feature"},{"geometry":{"coordinates":[27.70835,64.08474],"type":"Point"},"properties":{"concentration_Be-7":889.35,"concentration_Cs-134":0.22,"concentration_Cs-137":0.8,"concentration_Pb-210":78.27,"concentration_air-volume":83230.0,"from_timestamp":"2011-10-03T06:07:00Z","id":"103435","site":"Kajaani","to_timestamp":"2011-10-10T05:20:00Z","uncertainty_Be-7-uncertainty":5.0,"uncertainty_Cs-134-uncertainty":20.0,"uncertainty_Cs-137-uncertainty":8.0,"uncertainty_Pb-210-uncertainty":5.0},"type":"Feature"},{"geometry":{"coordinates":[27.70835,64.08474],"type":"Point"},"properties":{"concentration_Be-7":1223.58,"concentration_Cs-137":0.59,"concentration_Pb-210":36.62,"concentration_air-volume":95621.0,"from_timestamp":"2011-10-10T05:23:00Z","id":"103435","site":"Kajaani","to_timestamp":"2011-10-18T05:09:00Z","uncertainty_Be-7-uncertainty":5.0,"uncertainty_Cs-137-uncertainty":9.0,"uncertainty_Pb-210-uncertainty":13.0},"type":"Feature"}],"name":"stuk_open_data_air_radionuclides","type":"FeatureCollection"}