{"crs":{"properties":{"name":"urn:ogc:def:crs:OGC:1.3:CRS84"},"type":"name"},"features":[{"geometry":{"coordinates":[25.05385,60.20905],"type":"Point"},"properties":{"concentration_Be-7":3068.37,"concentration_air-volume":16416.0,"from_timestamp":"2011-08-23T07:56:00Z","id":"103428","site":"Helsinki","to_timestamp":"2011-08-24T07:55:00Z","uncertainty_Be-7-uncertainty":10.0},"type":"Feature"},{"geometry":{"coordinates":[25.05385,60.20905],"type":"Point"},"properties":{"concentration_Be-7":4083.53,"concentration_Cs-137":0.64,"concentration_Na-22":1.02,"concentration_air-volume":33318.0,"from_timestamp":"2011-08-24T07:56:00Z","id":"103428","site":"Helsinki","to_timestamp":"2011-08-26T07:55:00Z","uncertainty_Be-7-uncertainty":7.0,"uncertainty_Cs-137-uncertainty":29.0,"uncertainty_Na-22-uncertainty":24.0},"type":"Feature"},{"geometry":{"coordinates":[25.05385,60.20905],"type":"Point"},"properties":{"concentration_Be-7":5985.18,"concentration_Cs-137":1.94,"concentration_air-volume":32925.0,"from_timestamp":"2011-08-26T07:56:00Z","id":"103428","site":"Helsinki","to_timestamp":"2011-08-28T07:55:00Z","uncertainty_Be-7-uncertainty":7.0,"uncertainty_Cs-137-uncertainty":12.0},"type":"Feature"},{"geometry":{"coordinates":[25.05385,60.20905],"type":"Point"},"properties":{"concentration_Be-7":2841.04,"concentration_Pb-210":255.11,"concentration_air-volume":33197.0,"from_timestamp":"2011-08-28T07:56:00Z","id":"103428","site":"Helsinki","to_timestamp":"2011-08-30T07:55:00Z","uncertainty_Be-7-uncertainty":5.0,"uncertainty_Pb-210-uncertainty":5.0},"type":"Feature"},{"geometry":{"coordinates":[25.05385,60.20905],"type":"Point"},"properties":{"concentration_Be-7":1117.02,"concentration_Pb-210":55.19,"concentration_air-volume":16541.0,"from_timestamp":"2011-08-30T07:56:00Z","id":"103428","site":"Helsinki","to_timestamp":"2011-08-31T07:55:00Z","uncertainty_Be-7-uncertainty":5.0,"uncertainty_Pb-210-uncertainty":7.0},"type":"Feature"},{"geometry":{"coordinates":[25.05385,60.20905],"type":"Point"},"properties":{"concentration_Be-7":1113.45,"concentration_Cs-137":0.76,"concentration_Pb-210":182.74,"concentration_air-volume":33195.0,"from_timestamp":"2011-08-31T07:56:00Z","id":"103428","site":"Helsinki","to_timestamp":"2011-09-02T07:55:00Z","uncertainty_Be-7-uncertainty":5.0,"uncertainty_Cs-137-uncertainty":19.0,"uncertainty_Pb-210-uncertainty":5.0},"type":"Feature"},{"geometry":{"coordinates":[26.91808,60.48318],"type":"Point"},"properties":{"concentration_Be-7":4211.77,"concentration_Cs-134":0.13,"concentration_Cs-137":3.13,"concentration_Na-22":0.46,"concentration_Pb-210":638.69,"concentration_air-volume":97397.0,"from_timestamp":"2011-08-22T10:30:00Z","id":"103429","site":"Kotka","to_timestamp":"2011-08-29T07:00:00Z","uncertainty_Be-7-uncertainty":5.0,"uncertainty_Cs-134-uncertainty":17.0,"uncertainty_Cs-137-uncertainty":5.0,"uncertainty_Na-22-uncertainty":12.0,"uncertainty_Pb-210-uncertainty":5.0},"type":"Feature"},{"geometry":{"coordinates":[26.91808,60.48318],"type":"Point"},"properties":{"concentration_Be-7":2220.03,"concentration_Cs-134":0.26,"concentration_Cs-137":3.23,"concentration_Na-22":0.23,"concentration_Pb-210":856.38,"concentration_air-volume":115306.0,"from_timestamp":"2011-08-29T07:05:00Z","id":"103429","site":"Kotka","to_timestamp":"2011-09-06T04:11:00Z","uncertainty_Be-7-uncertainty":7.0,"uncertainty_Cs-134-uncertainty":10.0,"uncertainty_Cs-137-uncertainty":7.0,"uncertainty_Na-22-uncertainty":19.0,"uncertainty_Pb-210-uncertainty":21.0},"type":"Feature"},{"geometry":{"coordinates":[28.82663,61.13229],"type":"Point"},"properties":{"concentration_Be-7":4804.14,"concentration_Cs-137":0.91,"concentration_Pb-210":523.57,"concentration_air-volume":25140.0,"from_timestamp":"2011-08-22T06:50:00Z","id":"103430","site":"Imatra","to_timestamp":"2011-08-29T05:10:00Z","uncertainty_Be-7-uncertainty":6.0,"uncertainty_Cs-137-uncertainty":11.0,"uncertainty_Pb-210-uncertainty":20.0},"type":"Feature"},{"geometry":{"coordinates":[28.82663,61.13229],"type":"Point"},"properties":{"concentration_Be-7":2440.51,"concentration_Cs-137":0.9,"concentration_Pb-210":217.83,"concentration_air-volume":25779.0,"from_timestamp":"2011-08-29T05:15:00Z","id":"103430","site":"Imatra","to_timestamp":"2011-09-05T05:20:00Z","uncertainty_Be-7-uncertainty":6.0,"uncertainty_Cs-137-uncertainty":13.0,"uncertainty_Pb-210-uncertainty":20.0},"type":"Feature"},{"geometry":{"coordinates":[27.57,68.64],"type":"Point"},"properties":{"concentration_Be-7":1802.26,"concentration_Cs-137":0.38,"concentration_Na-22":0.42,"concentration_Pb-210":254.04,"concentration_air-volume":25012.0,"from_timestamp":"2011-08-22T06:56:00Z","id":"103431","site":"Ivalo","to_timestamp":"2011-08-29T06:34:00Z","uncertainty_Be-7-uncertainty":5.0,"uncertainty_Cs-137-uncertainty":19.0,"uncertainty_Na-22-uncertainty":29.0,"uncertainty_Pb-210-uncertainty":13.0},"type":"Feature"},{"geometry":{"coordinates":[27.57,68.64],"type":"Point"},"properties":{"concentration_Be-7":1941.01,"concentration_Pb-210":99.97,"concentration_air-volume":25346.0,"from_timestamp":"2011-08-29T06:34:00Z","id":"103431","site":"Ivalo","to_timestamp":"2011-09-05T06:38:00Z","uncertainty_Be-7-uncertainty":5.0,"uncertainty_Pb-210-uncertainty":18.0},"type":"Feature"},{"geometry":{"coordinates":[27.63414,62.89195],"type":"Point"},"properties":{"concentration_Be-7":4943.0,"concentration_air-volume":11541.0,"from_timestamp":"2011-08-22T05:45:00Z","id":"103432","site":"Kuopio","to_timestamp":"2011-08-25T07:21:00Z","uncertainty_Be-7-uncertainty":6.0},"type":"Feature"},{"geometry":{"coordinates":[27.63414,62.89195],"type":"Point"},"properties":{"concentration_Be-7":5061.57,"concentration_Cs-137":4.08,"concentration_air-volume":14752.0,"from_timestamp":"2011-08-25T07:22:00Z","id":"103432","site":"Kuopio","to_timestamp":"2011-08-29T06:40:00Z","uncertainty_Be-7-uncertainty":6.0,"uncertainty_Cs-137-uncertainty":12.0},"type":"Feature"},{"geometry":{"coordinates":[27.63414,62.89195],"type":"Point"},"properties":{"concentration_Be-7":2247.27,"concentration_Cs-137":2.27,"concentration_air-volume":11387.0,"from_timestamp":"2011-08-29T06:41:00Z","id":"103432","site":"Kuopio","to_timestamp":"2011-09-01T07:10:00Z","uncertainty_Be-7-uncertainty":6.0,"uncertainty_Cs-137-uncertainty":21.0},"type":"Feature"},{"geometry":{"coordinates":[25.67774,66.51285],"type":"Point"},"properties":{"concentration_Be-7":3645.64,"concentration_Cs-137":0.97,"concentration_Na-22":0.38,"concentration_Pb-210":323.06,"concentration_air-volume":94939.0,"from_timestamp":"2011-08-22T07:32:00Z","id":"103433","site":"Rovaniemi","to_timestamp":"2011-08-29T09:22:00Z","uncertainty_Be-7-uncertainty":5.0,"uncertainty_Cs-137-uncertainty":6.0,"uncertainty_Na-22-uncertainty":15.0,"uncertainty_Pb-210-uncertainty":5.0},"type":"Feature"},{"geometry":{"coordinates":[25.67774,66.51285],"type":"Point"},"properties":{"concentration_Be-7":2507.49,"concentration_Cs-137":0.91,"concentration_Na-22":0.23,"concentration_Pb-210":120.95,"concentration_air-volume":89560.0,"from_timestamp":"2011-08-29T09:27:00Z","id":"103433","site":"Rovaniemi","to_timestamp":"2011-09-05T09:47:00Z","uncertainty_Be-7-uncertainty":5.0,"uncertainty_Cs-137-uncertainty":6.0,"uncertainty_Na-22-uncertainty":11.0,"uncertainty_Pb-210-uncertainty":8.0},"type":"Feature"},{"geometry":{"coordinates":[26.62807,67.36505],"type":"Point"},"properties":{"concentration_Be-7":3123.15,"concentration_Cs-137":0.78,"concentration_Pb-210":154.58,"concentration_air-volume":25095.0,"from_timestamp":"2011-08-22T05:50:00Z","id":"103434","site":"Sodankylä","to_timestamp":"2011-08-29T05:40:00Z","uncertainty_Be-7-uncertainty":5.0,"uncertainty_Cs-137-uncertainty":16.0,"uncertainty_Pb-210-uncertainty":15.0},"type":"Feature"},{"geometry":{"coordinates":[26.62807,67.36505],"type":"Point"},"properties":{"concentration_Be-7":2144.88,"concentration_Cs-137":0.52,"concentration_Pb-210":66.05,"concentration_air-volume":25315.0,"from_timestamp":"2011-08-29T05:40:00Z","id":"103434","site":"Sodankylä","to_timestamp":"2011-09-05T05:28:00Z","uncertainty_Be-7-uncertainty":5.0,"uncertainty_Cs-137-uncertainty":21.0,"uncertainty_Pb-210-uncertainty":26.0},"type":"Feature"},{"geometry":{"coordinates":[27.70835,64.08474],"type":"Point"},"properties":{"concentration_Be-7":4513.36,"concentration_Cs-134":0.83,"concentration_Cs-137":2.89,"concentration_Na-22":0.57,"concentration_Pb-210":673.31,"concentration_air-volume":70168.0,"from_timestamp":"2011-08-23T06:09:00Z","id":"103435","site":"Kajaani","to_timestamp":"2011-08-29T05:16:00Z","uncertainty_Be-7-uncertainty":7.0,"uncertainty_Cs-134-uncertainty":7.0,"uncertainty_Cs-137-uncertainty":7.0,"uncertainty_Na-22-uncertainty":14.0,"uncertainty_Pb-210-uncertainty":24.0},"type":"Feature"},{"geometry":{"coordinates":[27.70835,64.08474],"type":"Point"},"properties":{"concentration_Be-7":2026.25,"concentration_Cs-137":2.21,"concentration_Na-22":0.36,"concentration_Pb-210":165.16,"concentration_air-volume":85170.0,"from_timestamp":"2011-08-29T05:23:00Z","id":"103435","site":"Kajaani","to_timestamp":"2011-09-05T08:57:00Z","uncertainty_Be-7-uncertainty":5.0,"uncertainty_Cs-137-uncertainty":7.0,"uncertainty_Na-22-uncertainty":24.0,"uncertainty_Pb-210-uncertainty":5.0},"type":"Feature"},{"geometry":{"coordinates":[25.05385,60.20905],"type":"Point"},"properties":{"concentration_Be-7":3068.37,"concentration_air-volume":16416.0,"from_timestamp":"2011-08-23T07:56:00Z","id":"103428","site":"Helsinki","to_timestamp":"2011-08-24T07:55:00Z","uncertainty_Be-7-uncertainty":10.0},"type":"Feature"},{"geometry":{"coordinates":[25.05385,60.20905],"type":"Point"},"properties":{"concentration_Be-7":4083.53,"concentration_Cs-137":0.64,"concentration_Na-22":1.02,"concentration_air-volume":33318.0,"from_timestamp":"2011-08-24T07:56:00Z","id":"103428","site":"Helsinki","to_timestamp":"2011-08-26T07:55:00Z","uncertainty_Be-7-uncertainty":7.0,"uncertainty_Cs-137-uncertainty":29.0,"uncertainty_Na-22-uncertainty":24.0},"type":"Feature"},{"geometry":{"coordinates":[25.05385,60.20905],"type":"Point"},"properties":{"concentration_Be-7":5985.18,"concentration_Cs-137":1.94,"concentration_air-volume":32925.0,"from_timestamp":"2011-08-26T07:56:00Z","id":"103428","site":"Helsinki","to_timestamp":"2011-08-28T07:55:00Z","uncertainty_Be-7-uncertainty":7.0,"uncertainty_Cs-137-uncertainty":12.0},"type":"Feature"},{"geometry":{"coordinates":[25.05385,60.20905],"type":"Point"},"properties":{"concentration_Be-7":2841.04,"concentration_Pb-210":255.11,"concentration_air-volume":33197.0,"from_timestamp":"2011-08-28T07:56:00Z","id":"103428","site":"Helsinki","to_timestamp":"2011-08-30T07:55:00Z","uncertainty_Be-7-uncertainty":5.0,"uncertainty_Pb-210-uncertainty":5.0},"type":"Feature"},{"geometry":{"coordinates":[25.05385,60.20905],"type":"Point"},"properties":{"concentration_Be-7":1117.02,"concentration_Pb-210":55.19,"concentration_air-volume":16541.0,"from_timestamp":"2011-08-30T07:56:00Z","id":"103428","site":"Helsinki","to_timestamp":"2011-08-31T07:55:00Z","uncertainty_Be-7-uncertainty":5.0,"uncertainty_Pb-210-uncertainty":7.0},"type":"Feature"},{"geometry":{"coordinates":[25.05385,60.20905],"type":"Point"},"properties":{"concentration_Be-7":1113.45,"concentration_Cs-137":0.76,"concentration_Pb-210":182.74,"concentration_air-volume":33195.0,"from_timestamp":"2011-08-31T07:56:00Z","id":"103428","site":"Helsinki","to_timestamp":"2011-09-02T07:55:00Z","uncertainty_Be-7-uncertainty":5.0,"uncertainty_Cs-137-uncertainty":19.0,"uncertainty_Pb-210-uncertainty":5.0},"type":"Feature"}],"name":"stuk_open_data_air_radionuclides","type":"FeatureCollection"}