{"crs":{"properties":{"name":"urn:ogc:def:crs:OGC:1.3:CRS84"},"type":"name"},"features":[{"geometry":{"coordinates":[25.05385,60.20905],"type":"Point"},"properties":{"concentration_Be-7":1885.54,"concentration_Cs-137":0.72,"concentration_air-volume":34537.0,"from_timestamp":"2011-11-18T06:55:00Z","id":"103428","site":"Helsinki","to_timestamp":"2011-11-20T06:54:00Z","uncertainty_Be-7-uncertainty":7.0,"uncertainty_Cs-137-uncertainty":25.0},"type":"Feature"},{"geometry":{"coordinates":[25.05385,60.20905],"type":"Point"},"properties":{"concentration_Be-7":1166.75,"concentration_Cs-137":0.85,"concentration_air-volume":34491.0,"from_timestamp":"2011-11-20T06:55:00Z","id":"103428","site":"Helsinki","to_timestamp":"2011-11-22T06:54:00Z","uncertainty_Be-7-uncertainty":5.0,"uncertainty_Cs-137-uncertainty":23.0},"type":"Feature"},{"geometry":{"coordinates":[25.05385,60.20905],"type":"Point"},"properties":{"concentration_Be-7":467.98,"concentration_air-volume":17541.0,"from_timestamp":"2011-11-22T06:55:00Z","id":"103428","site":"Helsinki","to_timestamp":"2011-11-23T06:54:00Z","uncertainty_Be-7-uncertainty":5.0},"type":"Feature"},{"geometry":{"coordinates":[25.05385,60.20905],"type":"Point"},"properties":{"concentration_Be-7":2491.49,"concentration_Pb-210":708.49,"concentration_air-volume":17181.0,"from_timestamp":"2011-11-23T06:55:00Z","id":"103428","site":"Helsinki","to_timestamp":"2011-11-24T06:54:00Z","uncertainty_Be-7-uncertainty":5.0,"uncertainty_Pb-210-uncertainty":5.0},"type":"Feature"},{"geometry":{"coordinates":[25.05385,60.20905],"type":"Point"},"properties":{"concentration_Be-7":1814.84,"concentration_Pb-210":334.5,"concentration_air-volume":34053.0,"from_timestamp":"2011-11-24T06:55:00Z","id":"103428","site":"Helsinki","to_timestamp":"2011-11-26T06:54:00Z","uncertainty_Be-7-uncertainty":5.0,"uncertainty_Pb-210-uncertainty":5.0},"type":"Feature"},{"geometry":{"coordinates":[25.05385,60.20905],"type":"Point"},"properties":{"concentration_Be-7":1013.55,"concentration_Pb-210":56.26,"concentration_air-volume":33848.0,"from_timestamp":"2011-11-26T06:55:00Z","id":"103428","site":"Helsinki","to_timestamp":"2011-11-28T06:54:00Z","uncertainty_Be-7-uncertainty":5.0,"uncertainty_Pb-210-uncertainty":6.0},"type":"Feature"},{"geometry":{"coordinates":[26.91808,60.48318],"type":"Point"},"properties":{"concentration_Be-7":1431.63,"concentration_Cs-137":3.14,"concentration_Pb-210":226.24,"concentration_air-volume":103051.0,"from_timestamp":"2011-11-14T12:51:00Z","id":"103429","site":"Kotka","to_timestamp":"2011-11-21T12:50:00Z","uncertainty_Be-7-uncertainty":5.0,"uncertainty_Cs-137-uncertainty":5.0,"uncertainty_Pb-210-uncertainty":5.0},"type":"Feature"},{"geometry":{"coordinates":[26.91808,60.48318],"type":"Point"},"properties":{"concentration_Be-7":1275.22,"concentration_Cs-134":0.06,"concentration_Cs-137":1.0,"concentration_Na-22":0.15,"concentration_Pb-210":232.73,"concentration_air-volume":198532.0,"from_timestamp":"2011-11-21T12:55:00Z","id":"103429","site":"Kotka","to_timestamp":"2011-12-05T07:22:00Z","uncertainty_Be-7-uncertainty":5.0,"uncertainty_Cs-134-uncertainty":21.0,"uncertainty_Cs-137-uncertainty":6.0,"uncertainty_Na-22-uncertainty":18.0,"uncertainty_Pb-210-uncertainty":5.0},"type":"Feature"},{"geometry":{"coordinates":[28.82663,61.13229],"type":"Point"},"properties":{"concentration_Be-7":1191.84,"concentration_Cs-137":0.94,"concentration_air-volume":26945.0,"from_timestamp":"2011-11-14T06:50:00Z","id":"103430","site":"Imatra","to_timestamp":"2011-11-21T06:45:00Z","uncertainty_Be-7-uncertainty":6.0,"uncertainty_Cs-137-uncertainty":13.0},"type":"Feature"},{"geometry":{"coordinates":[28.82663,61.13229],"type":"Point"},"properties":{"concentration_Be-7":1362.17,"concentration_Cs-137":0.47,"concentration_air-volume":27663.0,"from_timestamp":"2011-11-21T06:50:00Z","id":"103430","site":"Imatra","to_timestamp":"2011-11-28T10:00:00Z","uncertainty_Be-7-uncertainty":10.0,"uncertainty_Cs-137-uncertainty":20.0},"type":"Feature"},{"geometry":{"coordinates":[27.57,68.64],"type":"Point"},"properties":{"concentration_Be-7":1134.22,"concentration_Cs-137":0.24,"concentration_Pb-210":140.35,"concentration_air-volume":36644.0,"from_timestamp":"2011-11-14T07:18:00Z","id":"103431","site":"Ivalo","to_timestamp":"2011-11-24T05:17:00Z","uncertainty_Be-7-uncertainty":5.0,"uncertainty_Cs-137-uncertainty":30.0,"uncertainty_Pb-210-uncertainty":12.0},"type":"Feature"},{"geometry":{"coordinates":[27.57,68.64],"type":"Point"},"properties":{"concentration_Be-7":686.27,"concentration_Pb-210":80.64,"concentration_air-volume":40461.0,"from_timestamp":"2011-11-24T05:18:00Z","id":"103431","site":"Ivalo","to_timestamp":"2011-12-05T07:15:00Z","uncertainty_Be-7-uncertainty":5.0,"uncertainty_Pb-210-uncertainty":14.0},"type":"Feature"},{"geometry":{"coordinates":[27.63414,62.89195],"type":"Point"},"properties":{"concentration_Be-7":1185.15,"concentration_air-volume":19648.0,"from_timestamp":"2011-11-17T06:38:00Z","id":"103432","site":"Kuopio","to_timestamp":"2011-11-22T05:34:00Z","uncertainty_Be-7-uncertainty":6.0},"type":"Feature"},{"geometry":{"coordinates":[27.63414,62.89195],"type":"Point"},"properties":{"concentration_Be-7":1230.75,"concentration_air-volume":8139.0,"from_timestamp":"2011-11-22T05:35:00Z","id":"103432","site":"Kuopio","to_timestamp":"2011-11-24T06:54:00Z","uncertainty_Be-7-uncertainty":6.0},"type":"Feature"},{"geometry":{"coordinates":[27.63414,62.89195],"type":"Point"},"properties":{"concentration_Be-7":1773.68,"concentration_air-volume":15152.0,"from_timestamp":"2011-11-24T06:55:00Z","id":"103432","site":"Kuopio","to_timestamp":"2011-11-28T05:42:00Z","uncertainty_Be-7-uncertainty":6.0},"type":"Feature"},{"geometry":{"coordinates":[25.67774,66.51285],"type":"Point"},"properties":{"concentration_Be-7":1088.03,"concentration_Cs-137":0.51,"concentration_Pb-210":108.42,"concentration_air-volume":95190.0,"from_timestamp":"2011-11-14T09:56:00Z","id":"103433","site":"Rovaniemi","to_timestamp":"2011-11-21T09:20:00Z","uncertainty_Be-7-uncertainty":5.0,"uncertainty_Cs-137-uncertainty":8.0,"uncertainty_Pb-210-uncertainty":5.0},"type":"Feature"},{"geometry":{"coordinates":[25.67774,66.51285],"type":"Point"},"properties":{"concentration_Be-7":864.82,"concentration_Cs-137":0.27,"concentration_Pb-210":64.11,"concentration_air-volume":95632.0,"from_timestamp":"2011-11-21T09:30:00Z","id":"103433","site":"Rovaniemi","to_timestamp":"2011-11-28T10:27:00Z","uncertainty_Be-7-uncertainty":5.0,"uncertainty_Cs-137-uncertainty":12.0,"uncertainty_Pb-210-uncertainty":9.0},"type":"Feature"},{"geometry":{"coordinates":[26.62807,67.36505],"type":"Point"},"properties":{"concentration_Be-7":1177.84,"concentration_air-volume":26223.0,"from_timestamp":"2011-11-14T05:29:00Z","id":"103434","site":"Sodankylä","to_timestamp":"2011-11-21T05:02:00Z","uncertainty_Be-7-uncertainty":5.0},"type":"Feature"},{"geometry":{"coordinates":[26.62807,67.36505],"type":"Point"},"properties":{"concentration_Be-7":668.79,"concentration_Pb-210":64.13,"concentration_air-volume":25969.0,"from_timestamp":"2011-11-21T05:03:00Z","id":"103434","site":"Sodankylä","to_timestamp":"2011-11-28T05:03:00Z","uncertainty_Be-7-uncertainty":5.0,"uncertainty_Pb-210-uncertainty":22.0},"type":"Feature"},{"geometry":{"coordinates":[27.70835,64.08474],"type":"Point"},"properties":{"concentration_Be-7":629.17,"concentration_Cs-137":0.15,"concentration_Pb-210":129.01,"concentration_air-volume":83956.0,"from_timestamp":"2011-11-14T07:42:00Z","id":"103435","site":"Kajaani","to_timestamp":"2011-11-21T07:09:00Z","uncertainty_Be-7-uncertainty":5.0,"uncertainty_Cs-137-uncertainty":28.0,"uncertainty_Pb-210-uncertainty":5.0},"type":"Feature"},{"geometry":{"coordinates":[27.70835,64.08474],"type":"Point"},"properties":{"concentration_Be-7":936.23,"concentration_Cs-137":0.35,"concentration_Pb-210":150.41,"concentration_air-volume":86342.0,"from_timestamp":"2011-11-21T07:11:00Z","id":"103435","site":"Kajaani","to_timestamp":"2011-11-28T07:59:00Z","uncertainty_Be-7-uncertainty":5.0,"uncertainty_Cs-137-uncertainty":11.0,"uncertainty_Pb-210-uncertainty":5.0},"type":"Feature"}],"name":"stuk_open_data_air_radionuclides","type":"FeatureCollection"}