{"crs":{"properties":{"name":"urn:ogc:def:crs:OGC:1.3:CRS84"},"type":"name"},"features":[{"geometry":{"coordinates":[25.05385,60.20905],"type":"Point"},"properties":{"concentration_Be-7":2707.78,"concentration_Cs-137":0.68,"concentration_air-volume":33561.0,"from_timestamp":"2011-10-18T07:55:00Z","id":"103428","site":"Helsinki","to_timestamp":"2011-10-20T07:54:00Z","uncertainty_Be-7-uncertainty":9.0,"uncertainty_Cs-137-uncertainty":24.0},"type":"Feature"},{"geometry":{"coordinates":[25.05385,60.20905],"type":"Point"},"properties":{"concentration_Be-7":1057.08,"concentration_Pb-210":89.82,"concentration_air-volume":34266.0,"from_timestamp":"2011-10-20T07:55:00Z","id":"103428","site":"Helsinki","to_timestamp":"2011-10-22T07:54:00Z","uncertainty_Be-7-uncertainty":5.0,"uncertainty_Pb-210-uncertainty":6.0},"type":"Feature"},{"geometry":{"coordinates":[25.05385,60.20905],"type":"Point"},"properties":{"concentration_Be-7":972.35,"concentration_Pb-210":189.27,"concentration_air-volume":34121.0,"from_timestamp":"2011-10-22T07:55:00Z","id":"103428","site":"Helsinki","to_timestamp":"2011-10-24T07:54:00Z","uncertainty_Be-7-uncertainty":5.0,"uncertainty_Pb-210-uncertainty":5.0},"type":"Feature"},{"geometry":{"coordinates":[25.05385,60.20905],"type":"Point"},"properties":{"concentration_Be-7":1945.52,"concentration_Cs-137":0.56,"concentration_Pb-210":307.51,"concentration_air-volume":33840.0,"from_timestamp":"2011-10-24T07:55:00Z","id":"103428","site":"Helsinki","to_timestamp":"2011-10-26T07:54:00Z","uncertainty_Be-7-uncertainty":5.0,"uncertainty_Cs-137-uncertainty":16.0,"uncertainty_Pb-210-uncertainty":5.0},"type":"Feature"},{"geometry":{"coordinates":[25.05385,60.20905],"type":"Point"},"properties":{"concentration_Be-7":1630.46,"concentration_Pb-210":134.48,"concentration_air-volume":17041.0,"from_timestamp":"2011-10-26T07:55:00Z","id":"103428","site":"Helsinki","to_timestamp":"2011-10-27T07:54:00Z","uncertainty_Be-7-uncertainty":5.0,"uncertainty_Pb-210-uncertainty":15.0},"type":"Feature"},{"geometry":{"coordinates":[26.91808,60.48318],"type":"Point"},"properties":{"concentration_Be-7":2182.13,"concentration_Cs-137":2.29,"concentration_Na-22":0.2,"concentration_Pb-210":375.77,"concentration_air-volume":158236.0,"from_timestamp":"2011-10-17T11:34:00Z","id":"103429","site":"Kotka","to_timestamp":"2011-10-31T11:15:00Z","uncertainty_Be-7-uncertainty":5.0,"uncertainty_Cs-137-uncertainty":5.0,"uncertainty_Na-22-uncertainty":14.0,"uncertainty_Pb-210-uncertainty":5.0},"type":"Feature"},{"geometry":{"coordinates":[28.82663,61.13229],"type":"Point"},"properties":{"concentration_Be-7":1860.19,"concentration_Cs-137":1.16,"concentration_air-volume":25063.0,"from_timestamp":"2011-10-17T06:20:00Z","id":"103430","site":"Imatra","to_timestamp":"2011-10-24T05:15:00Z","uncertainty_Be-7-uncertainty":6.0,"uncertainty_Cs-137-uncertainty":13.0},"type":"Feature"},{"geometry":{"coordinates":[28.82663,61.13229],"type":"Point"},"properties":{"concentration_Be-7":2714.75,"concentration_Cs-137":1.7,"concentration_Pb-210":110.93,"concentration_air-volume":26495.0,"from_timestamp":"2011-10-24T05:20:00Z","id":"103430","site":"Imatra","to_timestamp":"2011-10-31T04:55:00Z","uncertainty_Be-7-uncertainty":6.0,"uncertainty_Cs-137-uncertainty":8.0,"uncertainty_Pb-210-uncertainty":13.0},"type":"Feature"},{"geometry":{"coordinates":[27.57,68.64],"type":"Point"},"properties":{"concentration_Be-7":867.77,"concentration_Pb-210":145.06,"concentration_air-volume":25682.0,"from_timestamp":"2011-10-17T04:46:00Z","id":"103431","site":"Ivalo","to_timestamp":"2011-10-24T06:20:00Z","uncertainty_Be-7-uncertainty":5.0,"uncertainty_Pb-210-uncertainty":17.0},"type":"Feature"},{"geometry":{"coordinates":[27.57,68.64],"type":"Point"},"properties":{"concentration_Be-7":652.92,"concentration_Cs-137":0.3,"concentration_Pb-210":135.47,"concentration_air-volume":25868.0,"from_timestamp":"2011-10-24T06:34:00Z","id":"103431","site":"Ivalo","to_timestamp":"2011-10-31T04:57:00Z","uncertainty_Be-7-uncertainty":5.0,"uncertainty_Cs-137-uncertainty":22.0,"uncertainty_Pb-210-uncertainty":13.0},"type":"Feature"},{"geometry":{"coordinates":[27.63414,62.89195],"type":"Point"},"properties":{"concentration_Be-7":3503.19,"concentration_Cs-137":1.86,"concentration_air-volume":11415.0,"from_timestamp":"2011-10-17T06:54:00Z","id":"103432","site":"Kuopio","to_timestamp":"2011-10-20T06:48:00Z","uncertainty_Be-7-uncertainty":6.0,"uncertainty_Cs-137-uncertainty":25.0},"type":"Feature"},{"geometry":{"coordinates":[27.63414,62.89195],"type":"Point"},"properties":{"concentration_Be-7":1097.11,"concentration_Cs-137":1.38,"concentration_air-volume":15736.0,"from_timestamp":"2011-10-20T06:49:00Z","id":"103432","site":"Kuopio","to_timestamp":"2011-10-24T06:58:00Z","uncertainty_Be-7-uncertainty":6.0,"uncertainty_Cs-137-uncertainty":18.0},"type":"Feature"},{"geometry":{"coordinates":[27.63414,62.89195],"type":"Point"},"properties":{"concentration_Be-7":3830.26,"concentration_Cs-137":2.49,"concentration_air-volume":11744.0,"from_timestamp":"2011-10-24T06:59:00Z","id":"103432","site":"Kuopio","to_timestamp":"2011-10-27T07:03:00Z","uncertainty_Be-7-uncertainty":6.0,"uncertainty_Cs-137-uncertainty":19.0},"type":"Feature"},{"geometry":{"coordinates":[25.67774,66.51285],"type":"Point"},"properties":{"concentration_Be-7":1486.5,"concentration_Cs-137":0.53,"concentration_Na-22":0.18,"concentration_Pb-210":122.71,"concentration_air-volume":96554.0,"from_timestamp":"2011-10-17T09:33:00Z","id":"103433","site":"Rovaniemi","to_timestamp":"2011-10-24T16:09:00Z","uncertainty_Be-7-uncertainty":5.0,"uncertainty_Cs-137-uncertainty":6.0,"uncertainty_Na-22-uncertainty":18.0,"uncertainty_Pb-210-uncertainty":5.0},"type":"Feature"},{"geometry":{"coordinates":[25.67774,66.51285],"type":"Point"},"properties":{"concentration_Be-7":2623.31,"concentration_Cs-137":0.63,"concentration_Na-22":0.23,"concentration_Pb-210":295.08,"concentration_air-volume":93046.0,"from_timestamp":"2011-10-24T16:14:00Z","id":"103433","site":"Rovaniemi","to_timestamp":"2011-10-31T11:30:00Z","uncertainty_Be-7-uncertainty":5.0,"uncertainty_Cs-137-uncertainty":7.0,"uncertainty_Na-22-uncertainty":15.0,"uncertainty_Pb-210-uncertainty":5.0},"type":"Feature"},{"geometry":{"coordinates":[26.62807,67.36505],"type":"Point"},"properties":{"concentration_Be-7":1095.09,"concentration_air-volume":25548.0,"from_timestamp":"2011-10-17T05:52:00Z","id":"103434","site":"Sodankylä","to_timestamp":"2011-10-24T05:47:00Z","uncertainty_Be-7-uncertainty":5.0},"type":"Feature"},{"geometry":{"coordinates":[26.62807,67.36505],"type":"Point"},"properties":{"concentration_Be-7":1208.97,"concentration_Cs-137":0.37,"concentration_Pb-210":98.63,"concentration_air-volume":26000.0,"from_timestamp":"2011-10-24T05:48:00Z","id":"103434","site":"Sodankylä","to_timestamp":"2011-10-31T05:24:00Z","uncertainty_Be-7-uncertainty":5.0,"uncertainty_Cs-137-uncertainty":26.0,"uncertainty_Pb-210-uncertainty":19.0},"type":"Feature"},{"geometry":{"coordinates":[27.70835,64.08474],"type":"Point"},"properties":{"concentration_Be-7":1118.0,"concentration_Cs-137":0.63,"concentration_Pb-210":131.49,"concentration_air-volume":73942.0,"from_timestamp":"2011-10-18T05:11:00Z","id":"103435","site":"Kajaani","to_timestamp":"2011-10-24T04:09:00Z","uncertainty_Be-7-uncertainty":5.0,"uncertainty_Cs-137-uncertainty":10.0,"uncertainty_Pb-210-uncertainty":5.0},"type":"Feature"},{"geometry":{"coordinates":[27.70835,64.08474],"type":"Point"},"properties":{"concentration_Be-7":2159.49,"concentration_Cs-137":0.9,"concentration_Na-22":0.26,"concentration_Pb-210":875.81,"concentration_air-volume":94880.0,"from_timestamp":"2011-10-24T04:14:00Z","id":"103435","site":"Kajaani","to_timestamp":"2011-11-01T03:00:00Z","uncertainty_Be-7-uncertainty":7.0,"uncertainty_Cs-137-uncertainty":8.0,"uncertainty_Na-22-uncertainty":19.0,"uncertainty_Pb-210-uncertainty":17.0},"type":"Feature"},{"geometry":{"coordinates":[25.05385,60.20905],"type":"Point"},"properties":{"concentration_Be-7":2707.78,"concentration_Cs-137":0.68,"concentration_air-volume":33561.0,"from_timestamp":"2011-10-18T07:55:00Z","id":"103428","site":"Helsinki","to_timestamp":"2011-10-20T07:54:00Z","uncertainty_Be-7-uncertainty":9.0,"uncertainty_Cs-137-uncertainty":24.0},"type":"Feature"},{"geometry":{"coordinates":[25.05385,60.20905],"type":"Point"},"properties":{"concentration_Be-7":1057.08,"concentration_Pb-210":89.82,"concentration_air-volume":34266.0,"from_timestamp":"2011-10-20T07:55:00Z","id":"103428","site":"Helsinki","to_timestamp":"2011-10-22T07:54:00Z","uncertainty_Be-7-uncertainty":5.0,"uncertainty_Pb-210-uncertainty":6.0},"type":"Feature"},{"geometry":{"coordinates":[25.05385,60.20905],"type":"Point"},"properties":{"concentration_Be-7":972.35,"concentration_Pb-210":189.27,"concentration_air-volume":34121.0,"from_timestamp":"2011-10-22T07:55:00Z","id":"103428","site":"Helsinki","to_timestamp":"2011-10-24T07:54:00Z","uncertainty_Be-7-uncertainty":5.0,"uncertainty_Pb-210-uncertainty":5.0},"type":"Feature"},{"geometry":{"coordinates":[25.05385,60.20905],"type":"Point"},"properties":{"concentration_Be-7":1945.52,"concentration_Cs-137":0.56,"concentration_Pb-210":307.51,"concentration_air-volume":33840.0,"from_timestamp":"2011-10-24T07:55:00Z","id":"103428","site":"Helsinki","to_timestamp":"2011-10-26T07:54:00Z","uncertainty_Be-7-uncertainty":5.0,"uncertainty_Cs-137-uncertainty":16.0,"uncertainty_Pb-210-uncertainty":5.0},"type":"Feature"},{"geometry":{"coordinates":[25.05385,60.20905],"type":"Point"},"properties":{"concentration_Be-7":1630.46,"concentration_Pb-210":134.48,"concentration_air-volume":17041.0,"from_timestamp":"2011-10-26T07:55:00Z","id":"103428","site":"Helsinki","to_timestamp":"2011-10-27T07:54:00Z","uncertainty_Be-7-uncertainty":5.0,"uncertainty_Pb-210-uncertainty":15.0},"type":"Feature"}],"name":"stuk_open_data_air_radionuclides","type":"FeatureCollection"}