{"crs":{"properties":{"name":"urn:ogc:def:crs:OGC:1.3:CRS84"},"type":"name"},"features":[{"geometry":{"coordinates":[25.05385,60.20905],"type":"Point"},"properties":{"concentration_Be-7":1933.89,"concentration_Cs-137":1.01,"concentration_Pb-210":251.11,"concentration_air-volume":16789.0,"from_timestamp":"2011-05-19T07:56:00Z","id":"103428","site":"Helsinki","to_timestamp":"2011-05-20T07:55:00Z","uncertainty_Be-7-uncertainty":6.0,"uncertainty_Cs-137-uncertainty":16.0,"uncertainty_Pb-210-uncertainty":20.0},"type":"Feature"},{"geometry":{"coordinates":[25.05385,60.20905],"type":"Point"},"properties":{"concentration_Be-7":1604.21,"concentration_Pb-210":153.19,"concentration_air-volume":16581.0,"from_timestamp":"2011-05-20T07:56:00Z","id":"103428","site":"Helsinki","to_timestamp":"2011-05-21T07:55:00Z","uncertainty_Be-7-uncertainty":5.0,"uncertainty_Pb-210-uncertainty":5.0},"type":"Feature"},{"geometry":{"coordinates":[25.05385,60.20905],"type":"Point"},"properties":{"concentration_Be-7":1964.15,"concentration_Cs-137":0.7,"concentration_air-volume":16661.0,"from_timestamp":"2011-05-21T07:56:00Z","id":"103428","site":"Helsinki","to_timestamp":"2011-05-22T07:55:00Z","uncertainty_Be-7-uncertainty":10.0,"uncertainty_Cs-137-uncertainty":21.0},"type":"Feature"},{"geometry":{"coordinates":[25.05385,60.20905],"type":"Point"},"properties":{"concentration_Be-7":4823.12,"concentration_Cs-134":0.66,"concentration_Cs-137":1.08,"concentration_Pb-210":306.58,"concentration_air-volume":16794.0,"from_timestamp":"2011-05-22T07:56:00Z","id":"103428","site":"Helsinki","to_timestamp":"2011-05-23T07:55:00Z","uncertainty_Be-7-uncertainty":6.0,"uncertainty_Cs-134-uncertainty":15.0,"uncertainty_Cs-137-uncertainty":13.0,"uncertainty_Pb-210-uncertainty":20.0},"type":"Feature"},{"geometry":{"coordinates":[25.05385,60.20905],"type":"Point"},"properties":{"concentration_Be-7":1921.35,"concentration_Pb-210":168.64,"concentration_air-volume":16577.0,"from_timestamp":"2011-05-23T07:56:00Z","id":"103428","site":"Helsinki","to_timestamp":"2011-05-24T07:55:00Z","uncertainty_Be-7-uncertainty":6.0,"uncertainty_Pb-210-uncertainty":20.0},"type":"Feature"},{"geometry":{"coordinates":[25.05385,60.20905],"type":"Point"},"properties":{"concentration_Be-7":3408.41,"concentration_Pb-210":193.04,"concentration_air-volume":16353.0,"from_timestamp":"2011-05-24T07:56:00Z","id":"103428","site":"Helsinki","to_timestamp":"2011-05-25T07:55:00Z","uncertainty_Be-7-uncertainty":5.0,"uncertainty_Pb-210-uncertainty":6.0},"type":"Feature"},{"geometry":{"coordinates":[25.05385,60.20905],"type":"Point"},"properties":{"concentration_Be-7":908.36,"concentration_Pb-210":52.75,"concentration_air-volume":16630.0,"from_timestamp":"2011-05-25T07:57:00Z","id":"103428","site":"Helsinki","to_timestamp":"2011-05-26T07:56:00Z","uncertainty_Be-7-uncertainty":6.0,"uncertainty_Pb-210-uncertainty":21.0},"type":"Feature"},{"geometry":{"coordinates":[25.05385,60.20905],"type":"Point"},"properties":{"concentration_Be-7":2670.28,"concentration_air-volume":16711.0,"from_timestamp":"2011-05-26T07:56:00Z","id":"103428","site":"Helsinki","to_timestamp":"2011-05-27T07:55:00Z","uncertainty_Be-7-uncertainty":10.0},"type":"Feature"},{"geometry":{"coordinates":[25.05385,60.20905],"type":"Point"},"properties":{"concentration_Be-7":3577.17,"concentration_Pb-210":250.24,"concentration_air-volume":16502.0,"from_timestamp":"2011-05-27T07:56:00Z","id":"103428","site":"Helsinki","to_timestamp":"2011-05-28T07:55:00Z","uncertainty_Be-7-uncertainty":5.0,"uncertainty_Pb-210-uncertainty":5.0},"type":"Feature"},{"geometry":{"coordinates":[26.91808,60.48318],"type":"Point"},"properties":{"concentration_Be-7":3352.42,"concentration_Co-60":0.09,"concentration_Cs-134":1.9,"concentration_Cs-137":6.06,"concentration_I-131":0.37,"concentration_Na-22":0.53,"concentration_Pb-210":298.69,"concentration_air-volume":201200.0,"from_timestamp":"2011-05-09T17:26:00Z","id":"103429","site":"Kotka","to_timestamp":"2011-05-25T09:51:00Z","uncertainty_Be-7-uncertainty":5.0,"uncertainty_Co-60-uncertainty":15.0,"uncertainty_Cs-134-uncertainty":3.0,"uncertainty_Cs-137-uncertainty":5.0,"uncertainty_I-131-uncertainty":14.0,"uncertainty_Na-22-uncertainty":8.0,"uncertainty_Pb-210-uncertainty":5.0},"type":"Feature"},{"geometry":{"coordinates":[26.91808,60.48318],"type":"Point"},"properties":{"concentration_Be-7":2742.15,"concentration_Cs-134":1.8,"concentration_Cs-137":3.26,"concentration_Na-22":0.53,"concentration_Pb-210":164.91,"concentration_air-volume":92539.0,"from_timestamp":"2011-05-25T09:54:00Z","id":"103429","site":"Kotka","to_timestamp":"2011-05-30T07:10:00Z","uncertainty_Be-7-uncertainty":5.0,"uncertainty_Cs-134-uncertainty":4.0,"uncertainty_Cs-137-uncertainty":5.0,"uncertainty_Na-22-uncertainty":11.0,"uncertainty_Pb-210-uncertainty":5.0},"type":"Feature"},{"geometry":{"coordinates":[28.82663,61.13229],"type":"Point"},"properties":{"concentration_Be-7":3268.48,"concentration_Cs-137":2.09,"concentration_Pb-210":174.16,"concentration_air-volume":15247.0,"from_timestamp":"2011-05-19T05:25:00Z","id":"103430","site":"Imatra","to_timestamp":"2011-05-23T10:15:00Z","uncertainty_Be-7-uncertainty":6.0,"uncertainty_Cs-137-uncertainty":10.0,"uncertainty_Pb-210-uncertainty":20.0},"type":"Feature"},{"geometry":{"coordinates":[28.82663,61.13229],"type":"Point"},"properties":{"concentration_Be-7":2960.7,"concentration_Cs-137":0.91,"concentration_Pb-210":157.92,"concentration_air-volume":25148.0,"from_timestamp":"2011-05-23T10:15:00Z","id":"103430","site":"Imatra","to_timestamp":"2011-05-30T05:30:00Z","uncertainty_Be-7-uncertainty":5.0,"uncertainty_Cs-137-uncertainty":15.0,"uncertainty_Pb-210-uncertainty":5.0},"type":"Feature"},{"geometry":{"coordinates":[27.57,68.64],"type":"Point"},"properties":{"concentration_Be-7":1950.89,"concentration_Cs-134":0.41,"concentration_Cs-137":0.77,"concentration_Na-22":0.56,"concentration_air-volume":24771.0,"from_timestamp":"2011-05-16T06:36:00Z","id":"103431","site":"Ivalo","to_timestamp":"2011-05-23T05:15:00Z","uncertainty_Be-7-uncertainty":5.0,"uncertainty_Cs-134-uncertainty":26.0,"uncertainty_Cs-137-uncertainty":27.0,"uncertainty_Na-22-uncertainty":11.0},"type":"Feature"},{"geometry":{"coordinates":[27.57,68.64],"type":"Point"},"properties":{"concentration_Be-7":2234.63,"concentration_Cs-134":0.52,"concentration_Cs-137":0.58,"concentration_Na-22":0.61,"concentration_Pb-210":108.29,"concentration_air-volume":25537.0,"from_timestamp":"2011-05-23T05:20:00Z","id":"103431","site":"Ivalo","to_timestamp":"2011-05-30T11:45:00Z","uncertainty_Be-7-uncertainty":5.0,"uncertainty_Cs-134-uncertainty":23.0,"uncertainty_Cs-137-uncertainty":20.0,"uncertainty_Na-22-uncertainty":28.0,"uncertainty_Pb-210-uncertainty":16.0},"type":"Feature"},{"geometry":{"coordinates":[27.63414,62.89195],"type":"Point"},"properties":{"concentration_Be-7":3393.18,"concentration_Cs-137":1.76,"concentration_air-volume":15085.0,"from_timestamp":"2011-05-19T05:08:00Z","id":"103432","site":"Kuopio","to_timestamp":"2011-05-23T05:06:00Z","uncertainty_Be-7-uncertainty":6.0,"uncertainty_Cs-137-uncertainty":23.0},"type":"Feature"},{"geometry":{"coordinates":[27.63414,62.89195],"type":"Point"},"properties":{"concentration_Be-7":3683.07,"concentration_Cs-137":2.38,"concentration_air-volume":11666.0,"from_timestamp":"2011-05-23T05:07:00Z","id":"103432","site":"Kuopio","to_timestamp":"2011-05-26T07:15:00Z","uncertainty_Be-7-uncertainty":6.0,"uncertainty_Cs-137-uncertainty":20.0},"type":"Feature"},{"geometry":{"coordinates":[27.63414,62.89195],"type":"Point"},"properties":{"concentration_Be-7":2110.64,"concentration_Cs-137":1.2,"concentration_air-volume":15163.0,"from_timestamp":"2011-05-26T07:16:00Z","id":"103432","site":"Kuopio","to_timestamp":"2011-05-30T07:12:00Z","uncertainty_Be-7-uncertainty":6.0,"uncertainty_Cs-137-uncertainty":28.0},"type":"Feature"},{"geometry":{"coordinates":[25.67774,66.51285],"type":"Point"},"properties":{"concentration_Be-7":2534.88,"concentration_Cs-134":0.23,"concentration_Cs-137":0.65,"concentration_Na-22":0.49,"concentration_Pb-210":89.14,"concentration_air-volume":62378.0,"from_timestamp":"2011-05-16T08:40:00Z","id":"103433","site":"Rovaniemi","to_timestamp":"2011-05-23T09:07:00Z","uncertainty_Be-7-uncertainty":5.0,"uncertainty_Cs-134-uncertainty":16.0,"uncertainty_Cs-137-uncertainty":7.0,"uncertainty_Na-22-uncertainty":10.0,"uncertainty_Pb-210-uncertainty":5.0},"type":"Feature"},{"geometry":{"coordinates":[25.67774,66.51285],"type":"Point"},"properties":{"concentration_Be-7":3238.38,"concentration_Cs-134":0.25,"concentration_Cs-137":0.85,"concentration_Na-22":0.58,"concentration_Pb-210":125.07,"concentration_air-volume":67252.0,"from_timestamp":"2011-05-23T09:11:00Z","id":"103433","site":"Rovaniemi","to_timestamp":"2011-05-30T08:57:00Z","uncertainty_Be-7-uncertainty":5.0,"uncertainty_Cs-134-uncertainty":8.0,"uncertainty_Cs-137-uncertainty":7.0,"uncertainty_Na-22-uncertainty":12.0,"uncertainty_Pb-210-uncertainty":5.0},"type":"Feature"},{"geometry":{"coordinates":[26.62807,67.36505],"type":"Point"},"properties":{"concentration_Be-7":2082.98,"concentration_Cs-137":0.31,"concentration_Na-22":0.62,"concentration_Pb-210":120.48,"concentration_air-volume":25092.0,"from_timestamp":"2011-05-16T05:33:00Z","id":"103434","site":"Sodankylä","to_timestamp":"2011-05-23T05:26:00Z","uncertainty_Be-7-uncertainty":5.0,"uncertainty_Cs-137-uncertainty":17.0,"uncertainty_Na-22-uncertainty":15.0,"uncertainty_Pb-210-uncertainty":12.0},"type":"Feature"},{"geometry":{"coordinates":[26.62807,67.36505],"type":"Point"},"properties":{"concentration_Be-7":2264.26,"concentration_Na-22":0.47,"concentration_Pb-210":117.93,"concentration_air-volume":24942.0,"from_timestamp":"2011-05-23T05:28:00Z","id":"103434","site":"Sodankylä","to_timestamp":"2011-05-30T05:22:00Z","uncertainty_Be-7-uncertainty":5.0,"uncertainty_Na-22-uncertainty":20.0,"uncertainty_Pb-210-uncertainty":28.0},"type":"Feature"},{"geometry":{"coordinates":[27.70835,64.08474],"type":"Point"},"properties":{"concentration_Be-7":2256.58,"concentration_Cs-137":1.68,"concentration_Pb-210":141.67,"concentration_air-volume":83910.0,"from_timestamp":"2011-05-16T05:15:00Z","id":"103435","site":"Kajaani","to_timestamp":"2011-05-23T06:25:00Z","uncertainty_Be-7-uncertainty":5.0,"uncertainty_Cs-137-uncertainty":20.0,"uncertainty_Pb-210-uncertainty":7.0},"type":"Feature"},{"geometry":{"coordinates":[27.70835,64.08474],"type":"Point"},"properties":{"concentration_Be-7":2560.02,"concentration_Cs-134":1.86,"concentration_Cs-137":2.73,"concentration_Na-22":0.37,"concentration_Pb-210":154.05,"concentration_air-volume":88192.0,"from_timestamp":"2011-05-23T06:25:00Z","id":"103435","site":"Kajaani","to_timestamp":"2011-05-30T14:27:00Z","uncertainty_Be-7-uncertainty":5.0,"uncertainty_Cs-134-uncertainty":4.0,"uncertainty_Cs-137-uncertainty":6.0,"uncertainty_Na-22-uncertainty":15.0,"uncertainty_Pb-210-uncertainty":5.0},"type":"Feature"}],"name":"stuk_open_data_air_radionuclides","type":"FeatureCollection"}