{"crs":{"properties":{"name":"urn:ogc:def:crs:OGC:1.3:CRS84"},"type":"name"},"features":[{"geometry":{"coordinates":[25.05385,60.20905],"type":"Point"},"properties":{"concentration_Be-7":2648.54,"concentration_air-volume":16629.0,"from_timestamp":"2011-08-15T07:56:00Z","id":"103428","site":"Helsinki","to_timestamp":"2011-08-16T07:55:00Z","uncertainty_Be-7-uncertainty":10.0},"type":"Feature"},{"geometry":{"coordinates":[25.05385,60.20905],"type":"Point"},"properties":{"concentration_Be-7":3901.85,"concentration_air-volume":16478.0,"from_timestamp":"2011-08-16T07:56:00Z","id":"103428","site":"Helsinki","to_timestamp":"2011-08-17T07:55:00Z","uncertainty_Be-7-uncertainty":10.0},"type":"Feature"},{"geometry":{"coordinates":[25.05385,60.20905],"type":"Point"},"properties":{"concentration_Be-7":4099.37,"concentration_Cs-137":1.04,"concentration_air-volume":16700.0,"from_timestamp":"2011-08-17T07:56:00Z","id":"103428","site":"Helsinki","to_timestamp":"2011-08-18T07:55:00Z","uncertainty_Be-7-uncertainty":10.0,"uncertainty_Cs-137-uncertainty":18.0},"type":"Feature"},{"geometry":{"coordinates":[25.05385,60.20905],"type":"Point"},"properties":{"concentration_Be-7":3654.07,"concentration_air-volume":16587.0,"from_timestamp":"2011-08-18T07:56:00Z","id":"103428","site":"Helsinki","to_timestamp":"2011-08-19T07:55:00Z","uncertainty_Be-7-uncertainty":10.0},"type":"Feature"},{"geometry":{"coordinates":[25.05385,60.20905],"type":"Point"},"properties":{"concentration_Be-7":3938.03,"concentration_air-volume":33360.0,"from_timestamp":"2011-08-19T07:56:00Z","id":"103428","site":"Helsinki","to_timestamp":"2011-08-21T07:55:00Z","uncertainty_Be-7-uncertainty":7.0},"type":"Feature"},{"geometry":{"coordinates":[25.05385,60.20905],"type":"Point"},"properties":{"concentration_Be-7":4292.05,"concentration_air-volume":33103.0,"from_timestamp":"2011-08-21T07:56:00Z","id":"103428","site":"Helsinki","to_timestamp":"2011-08-23T07:55:00Z","uncertainty_Be-7-uncertainty":7.0},"type":"Feature"},{"geometry":{"coordinates":[25.05385,60.20905],"type":"Point"},"properties":{"concentration_Be-7":3068.37,"concentration_air-volume":16416.0,"from_timestamp":"2011-08-23T07:56:00Z","id":"103428","site":"Helsinki","to_timestamp":"2011-08-24T07:55:00Z","uncertainty_Be-7-uncertainty":10.0},"type":"Feature"},{"geometry":{"coordinates":[26.91808,60.48318],"type":"Point"},"properties":{"concentration_Be-7":4029.39,"concentration_Cs-137":8.95,"concentration_Pb-210":437.79,"concentration_air-volume":45336.0,"from_timestamp":"2011-08-19T08:30:00Z","id":"103429","site":"Kotka","to_timestamp":"2011-08-22T10:30:00Z","uncertainty_Be-7-uncertainty":5.0,"uncertainty_Cs-137-uncertainty":5.0,"uncertainty_Pb-210-uncertainty":5.0},"type":"Feature"},{"geometry":{"coordinates":[26.91808,60.48318],"type":"Point"},"properties":{"concentration_Be-7":4211.77,"concentration_Cs-134":0.13,"concentration_Cs-137":3.13,"concentration_Na-22":0.46,"concentration_Pb-210":638.69,"concentration_air-volume":97397.0,"from_timestamp":"2011-08-22T10:30:00Z","id":"103429","site":"Kotka","to_timestamp":"2011-08-29T07:00:00Z","uncertainty_Be-7-uncertainty":5.0,"uncertainty_Cs-134-uncertainty":17.0,"uncertainty_Cs-137-uncertainty":5.0,"uncertainty_Na-22-uncertainty":12.0,"uncertainty_Pb-210-uncertainty":5.0},"type":"Feature"},{"geometry":{"coordinates":[28.82663,61.13229],"type":"Point"},"properties":{"concentration_Be-7":2786.33,"concentration_air-volume":25876.0,"from_timestamp":"2011-08-15T05:50:00Z","id":"103430","site":"Imatra","to_timestamp":"2011-08-22T06:50:00Z","uncertainty_Be-7-uncertainty":10.0},"type":"Feature"},{"geometry":{"coordinates":[28.82663,61.13229],"type":"Point"},"properties":{"concentration_Be-7":4804.14,"concentration_Cs-137":0.91,"concentration_Pb-210":523.57,"concentration_air-volume":25140.0,"from_timestamp":"2011-08-22T06:50:00Z","id":"103430","site":"Imatra","to_timestamp":"2011-08-29T05:10:00Z","uncertainty_Be-7-uncertainty":6.0,"uncertainty_Cs-137-uncertainty":11.0,"uncertainty_Pb-210-uncertainty":20.0},"type":"Feature"},{"geometry":{"coordinates":[27.57,68.64],"type":"Point"},"properties":{"concentration_Be-7":3316.38,"concentration_Na-22":0.49,"concentration_Pb-210":131.2,"concentration_air-volume":24738.0,"from_timestamp":"2011-08-15T07:33:00Z","id":"103431","site":"Ivalo","to_timestamp":"2011-08-22T06:56:00Z","uncertainty_Be-7-uncertainty":5.0,"uncertainty_Na-22-uncertainty":15.0,"uncertainty_Pb-210-uncertainty":12.0},"type":"Feature"},{"geometry":{"coordinates":[27.57,68.64],"type":"Point"},"properties":{"concentration_Be-7":1802.26,"concentration_Cs-137":0.38,"concentration_Na-22":0.42,"concentration_Pb-210":254.04,"concentration_air-volume":25012.0,"from_timestamp":"2011-08-22T06:56:00Z","id":"103431","site":"Ivalo","to_timestamp":"2011-08-29T06:34:00Z","uncertainty_Be-7-uncertainty":5.0,"uncertainty_Cs-137-uncertainty":19.0,"uncertainty_Na-22-uncertainty":29.0,"uncertainty_Pb-210-uncertainty":13.0},"type":"Feature"},{"geometry":{"coordinates":[27.63414,62.89195],"type":"Point"},"properties":{"concentration_Be-7":2674.18,"concentration_air-volume":11073.0,"from_timestamp":"2011-08-15T07:12:00Z","id":"103432","site":"Kuopio","to_timestamp":"2011-08-18T05:12:00Z","uncertainty_Be-7-uncertainty":6.0},"type":"Feature"},{"geometry":{"coordinates":[27.63414,62.89195],"type":"Point"},"properties":{"concentration_Be-7":3129.35,"concentration_air-volume":15317.0,"from_timestamp":"2011-08-18T05:14:00Z","id":"103432","site":"Kuopio","to_timestamp":"2011-08-22T05:44:00Z","uncertainty_Be-7-uncertainty":6.0},"type":"Feature"},{"geometry":{"coordinates":[27.63414,62.89195],"type":"Point"},"properties":{"concentration_Be-7":4943.0,"concentration_air-volume":11541.0,"from_timestamp":"2011-08-22T05:45:00Z","id":"103432","site":"Kuopio","to_timestamp":"2011-08-25T07:21:00Z","uncertainty_Be-7-uncertainty":6.0},"type":"Feature"},{"geometry":{"coordinates":[25.67774,66.51285],"type":"Point"},"properties":{"concentration_Be-7":3681.05,"concentration_Cs-137":0.3,"concentration_Na-22":0.53,"concentration_Pb-210":188.45,"concentration_air-volume":85636.0,"from_timestamp":"2011-08-15T12:58:00Z","id":"103433","site":"Rovaniemi","to_timestamp":"2011-08-22T07:29:00Z","uncertainty_Be-7-uncertainty":5.0,"uncertainty_Cs-137-uncertainty":11.0,"uncertainty_Na-22-uncertainty":19.0,"uncertainty_Pb-210-uncertainty":5.0},"type":"Feature"},{"geometry":{"coordinates":[25.67774,66.51285],"type":"Point"},"properties":{"concentration_Be-7":3645.64,"concentration_Cs-137":0.97,"concentration_Na-22":0.38,"concentration_Pb-210":323.06,"concentration_air-volume":94939.0,"from_timestamp":"2011-08-22T07:32:00Z","id":"103433","site":"Rovaniemi","to_timestamp":"2011-08-29T09:22:00Z","uncertainty_Be-7-uncertainty":5.0,"uncertainty_Cs-137-uncertainty":6.0,"uncertainty_Na-22-uncertainty":15.0,"uncertainty_Pb-210-uncertainty":5.0},"type":"Feature"},{"geometry":{"coordinates":[26.62807,67.36505],"type":"Point"},"properties":{"concentration_Be-7":3085.74,"concentration_Cs-137":0.39,"concentration_Na-22":0.56,"concentration_air-volume":25277.0,"from_timestamp":"2011-08-15T05:48:00Z","id":"103434","site":"Sodankylä","to_timestamp":"2011-08-22T05:50:00Z","uncertainty_Be-7-uncertainty":5.0,"uncertainty_Cs-137-uncertainty":12.0,"uncertainty_Na-22-uncertainty":17.0},"type":"Feature"},{"geometry":{"coordinates":[26.62807,67.36505],"type":"Point"},"properties":{"concentration_Be-7":3123.15,"concentration_Cs-137":0.78,"concentration_Pb-210":154.58,"concentration_air-volume":25095.0,"from_timestamp":"2011-08-22T05:50:00Z","id":"103434","site":"Sodankylä","to_timestamp":"2011-08-29T05:40:00Z","uncertainty_Be-7-uncertainty":5.0,"uncertainty_Cs-137-uncertainty":16.0,"uncertainty_Pb-210-uncertainty":15.0},"type":"Feature"},{"geometry":{"coordinates":[27.70835,64.08474],"type":"Point"},"properties":{"concentration_Be-7":1908.93,"concentration_Cs-134":0.31,"concentration_Cs-137":0.75,"concentration_Na-22":0.32,"concentration_Pb-210":161.48,"concentration_air-volume":95214.0,"from_timestamp":"2011-08-09T05:41:00Z","id":"103435","site":"Kajaani","to_timestamp":"2011-08-17T04:48:00Z","uncertainty_Be-7-uncertainty":5.0,"uncertainty_Cs-134-uncertainty":8.0,"uncertainty_Cs-137-uncertainty":7.0,"uncertainty_Na-22-uncertainty":14.0,"uncertainty_Pb-210-uncertainty":5.0},"type":"Feature"},{"geometry":{"coordinates":[27.70835,64.08474],"type":"Point"},"properties":{"concentration_Be-7":2610.42,"concentration_Cs-137":0.61,"concentration_Pb-210":236.18,"concentration_air-volume":72319.0,"from_timestamp":"2011-08-17T04:48:00Z","id":"103435","site":"Kajaani","to_timestamp":"2011-08-23T06:09:00Z","uncertainty_Be-7-uncertainty":5.0,"uncertainty_Cs-137-uncertainty":10.0,"uncertainty_Pb-210-uncertainty":5.0},"type":"Feature"},{"geometry":{"coordinates":[27.70835,64.08474],"type":"Point"},"properties":{"concentration_Be-7":4513.36,"concentration_Cs-134":0.83,"concentration_Cs-137":2.89,"concentration_Na-22":0.57,"concentration_Pb-210":673.31,"concentration_air-volume":70168.0,"from_timestamp":"2011-08-23T06:09:00Z","id":"103435","site":"Kajaani","to_timestamp":"2011-08-29T05:16:00Z","uncertainty_Be-7-uncertainty":7.0,"uncertainty_Cs-134-uncertainty":7.0,"uncertainty_Cs-137-uncertainty":7.0,"uncertainty_Na-22-uncertainty":14.0,"uncertainty_Pb-210-uncertainty":24.0},"type":"Feature"}],"name":"stuk_open_data_air_radionuclides","type":"FeatureCollection"}