{"crs":{"properties":{"name":"urn:ogc:def:crs:OGC:1.3:CRS84"},"type":"name"},"features":[{"geometry":{"coordinates":[25.05385,60.20905],"type":"Point"},"properties":{"concentration_Be-7":690.81,"concentration_Cs-137":5.71,"concentration_air-volume":34549.0,"from_timestamp":"2011-01-03T07:57:00Z","id":"103428","site":"Helsinki","to_timestamp":"2011-01-05T07:56:00Z","uncertainty_Be-7-uncertainty":7.0,"uncertainty_Cs-137-uncertainty":8.0},"type":"Feature"},{"geometry":{"coordinates":[25.05385,60.20905],"type":"Point"},"properties":{"concentration_Be-7":1558.8,"concentration_Cs-137":1.37,"concentration_air-volume":34715.0,"from_timestamp":"2011-01-05T07:57:00Z","id":"103428","site":"Helsinki","to_timestamp":"2011-01-07T07:56:00Z","uncertainty_Be-7-uncertainty":7.0,"uncertainty_Cs-137-uncertainty":15.0},"type":"Feature"},{"geometry":{"coordinates":[25.05385,60.20905],"type":"Point"},"properties":{"concentration_Be-7":2059.47,"concentration_Cs-137":0.74,"concentration_Pb-210":440.7,"concentration_air-volume":34410.0,"from_timestamp":"2011-01-07T07:57:00Z","id":"103428","site":"Helsinki","to_timestamp":"2011-01-09T07:56:00Z","uncertainty_Be-7-uncertainty":5.0,"uncertainty_Cs-137-uncertainty":23.0,"uncertainty_Pb-210-uncertainty":5.0},"type":"Feature"},{"geometry":{"coordinates":[25.05385,60.20905],"type":"Point"},"properties":{"concentration_Be-7":1485.62,"concentration_air-volume":33762.0,"from_timestamp":"2011-01-09T07:57:00Z","id":"103428","site":"Helsinki","to_timestamp":"2011-01-11T07:56:00Z","uncertainty_Be-7-uncertainty":7.0},"type":"Feature"},{"geometry":{"coordinates":[25.05385,60.20905],"type":"Point"},"properties":{"concentration_Be-7":2648.88,"concentration_Na-24":5.85,"concentration_air-volume":34194.0,"from_timestamp":"2011-01-11T07:57:00Z","id":"103428","site":"Helsinki","to_timestamp":"2011-01-13T07:56:00Z","uncertainty_Be-7-uncertainty":7.0,"uncertainty_Na-24-uncertainty":21.0},"type":"Feature"},{"geometry":{"coordinates":[26.91808,60.48318],"type":"Point"},"properties":{"concentration_Be-7":1103.81,"concentration_Cs-137":4.35,"concentration_Pb-210":213.71,"concentration_air-volume":83617.0,"from_timestamp":"2011-01-03T06:57:00Z","id":"103429","site":"Kotka","to_timestamp":"2011-01-10T12:20:00Z","uncertainty_Be-7-uncertainty":5.0,"uncertainty_Cs-137-uncertainty":5.0,"uncertainty_Pb-210-uncertainty":5.0},"type":"Feature"},{"geometry":{"coordinates":[26.91808,60.48318],"type":"Point"},"properties":{"concentration_Be-7":1993.38,"concentration_Cs-137":1.91,"concentration_Na-22":0.21,"concentration_Pb-210":102.19,"concentration_air-volume":93247.0,"from_timestamp":"2011-01-10T12:20:00Z","id":"103429","site":"Kotka","to_timestamp":"2011-01-17T11:20:00Z","uncertainty_Be-7-uncertainty":5.0,"uncertainty_Cs-137-uncertainty":6.0,"uncertainty_Na-22-uncertainty":23.0,"uncertainty_Pb-210-uncertainty":6.0},"type":"Feature"},{"geometry":{"coordinates":[28.82663,61.13229],"type":"Point"},"properties":{"concentration_Be-7":1312.17,"concentration_Cs-137":1.83,"concentration_Pb-210":728.36,"concentration_air-volume":26310.0,"from_timestamp":"2011-01-03T07:15:00Z","id":"103430","site":"Imatra","to_timestamp":"2011-01-10T06:50:00Z","uncertainty_Be-7-uncertainty":6.0,"uncertainty_Cs-137-uncertainty":8.0,"uncertainty_Pb-210-uncertainty":20.0},"type":"Feature"},{"geometry":{"coordinates":[28.82663,61.13229],"type":"Point"},"properties":{"concentration_Be-7":2214.6,"concentration_Cs-137":0.8,"concentration_Pb-210":175.34,"concentration_air-volume":26469.0,"from_timestamp":"2011-01-10T06:55:00Z","id":"103430","site":"Imatra","to_timestamp":"2011-01-17T07:20:00Z","uncertainty_Be-7-uncertainty":6.0,"uncertainty_Cs-137-uncertainty":17.0,"uncertainty_Pb-210-uncertainty":10.0},"type":"Feature"},{"geometry":{"coordinates":[27.57,68.64],"type":"Point"},"properties":{"concentration_Be-7":1248.92,"concentration_Cs-137":0.59,"concentration_Pb-210":203.41,"concentration_air-volume":27079.0,"from_timestamp":"2011-01-03T05:28:00Z","id":"103431","site":"Ivalo","to_timestamp":"2011-01-10T06:55:00Z","uncertainty_Be-7-uncertainty":5.0,"uncertainty_Cs-137-uncertainty":8.0,"uncertainty_Pb-210-uncertainty":11.0},"type":"Feature"},{"geometry":{"coordinates":[27.57,68.64],"type":"Point"},"properties":{"concentration_Be-7":1714.93,"concentration_Cs-137":0.49,"concentration_Pb-210":231.53,"concentration_air-volume":26808.0,"from_timestamp":"2011-01-10T06:56:00Z","id":"103431","site":"Ivalo","to_timestamp":"2011-01-17T08:56:00Z","uncertainty_Be-7-uncertainty":5.0,"uncertainty_Cs-137-uncertainty":8.0,"uncertainty_Pb-210-uncertainty":9.0},"type":"Feature"},{"geometry":{"coordinates":[27.63414,62.89195],"type":"Point"},"properties":{"concentration_Be-7":829.44,"concentration_Cs-137":2.43,"concentration_air-volume":15447.0,"from_timestamp":"2011-01-03T07:25:00Z","id":"103432","site":"Kuopio","to_timestamp":"2011-01-07T06:39:00Z","uncertainty_Be-7-uncertainty":6.0,"uncertainty_Cs-137-uncertainty":16.0},"type":"Feature"},{"geometry":{"coordinates":[27.63414,62.89195],"type":"Point"},"properties":{"concentration_Be-7":1433.36,"concentration_Cs-137":2.11,"concentration_Pb-210":404.43,"concentration_air-volume":11885.0,"from_timestamp":"2011-01-07T06:40:00Z","id":"103432","site":"Kuopio","to_timestamp":"2011-01-10T07:05:00Z","uncertainty_Be-7-uncertainty":6.0,"uncertainty_Cs-137-uncertainty":11.0,"uncertainty_Pb-210-uncertainty":20.0},"type":"Feature"},{"geometry":{"coordinates":[27.63414,62.89195],"type":"Point"},"properties":{"concentration_Be-7":2302.54,"concentration_air-volume":11813.0,"from_timestamp":"2011-01-10T07:08:00Z","id":"103432","site":"Kuopio","to_timestamp":"2011-01-13T07:14:00Z","uncertainty_Be-7-uncertainty":6.0},"type":"Feature"},{"geometry":{"coordinates":[25.67774,66.51285],"type":"Point"},"properties":{"concentration_Be-7":1090.85,"concentration_Cs-137":0.84,"concentration_Pb-210":134.31,"concentration_air-volume":77649.0,"from_timestamp":"2011-01-03T09:24:00Z","id":"103433","site":"Rovaniemi","to_timestamp":"2011-01-10T12:29:00Z","uncertainty_Be-7-uncertainty":5.0,"uncertainty_Cs-137-uncertainty":23.0,"uncertainty_Pb-210-uncertainty":9.0},"type":"Feature"},{"geometry":{"coordinates":[25.67774,66.51285],"type":"Point"},"properties":{"concentration_Be-7":1468.94,"concentration_Cs-137":0.6,"concentration_Na-22":0.16,"concentration_Pb-210":243.29,"concentration_air-volume":73229.0,"from_timestamp":"2011-01-10T12:32:00Z","id":"103433","site":"Rovaniemi","to_timestamp":"2011-01-17T08:03:00Z","uncertainty_Be-7-uncertainty":5.0,"uncertainty_Cs-137-uncertainty":6.0,"uncertainty_Na-22-uncertainty":20.0,"uncertainty_Pb-210-uncertainty":5.0},"type":"Feature"},{"geometry":{"coordinates":[26.62807,67.36505],"type":"Point"},"properties":{"concentration_Be-7":1097.26,"concentration_Pb-210":221.17,"concentration_air-volume":26990.0,"from_timestamp":"2011-01-03T05:12:00Z","id":"103434","site":"Sodankylä","to_timestamp":"2011-01-10T05:23:00Z","uncertainty_Be-7-uncertainty":5.0,"uncertainty_Pb-210-uncertainty":19.0},"type":"Feature"},{"geometry":{"coordinates":[26.62807,67.36505],"type":"Point"},"properties":{"concentration_Be-7":1321.74,"concentration_Pb-210":134.32,"concentration_air-volume":26709.0,"from_timestamp":"2011-01-10T05:28:00Z","id":"103434","site":"Sodankylä","to_timestamp":"2011-01-17T05:10:00Z","uncertainty_Be-7-uncertainty":5.0,"uncertainty_Pb-210-uncertainty":12.0},"type":"Feature"},{"geometry":{"coordinates":[27.70835,64.08474],"type":"Point"},"properties":{"concentration_Be-7":897.24,"concentration_Cs-137":0.7,"concentration_Pb-210":549.46,"concentration_air-volume":111216.0,"from_timestamp":"2011-01-03T07:13:00Z","id":"103435","site":"Kajaani","to_timestamp":"2011-01-11T07:55:00Z","uncertainty_Be-7-uncertainty":5.0,"uncertainty_Cs-137-uncertainty":7.0,"uncertainty_Pb-210-uncertainty":5.0},"type":"Feature"},{"geometry":{"coordinates":[27.70835,64.08474],"type":"Point"},"properties":{"concentration_Be-7":1874.19,"concentration_Cs-137":0.41,"concentration_air-volume":95694.0,"from_timestamp":"2011-01-11T08:00:00Z","id":"103435","site":"Kajaani","to_timestamp":"2011-01-19T06:26:00Z","uncertainty_Be-7-uncertainty":7.0,"uncertainty_Cs-137-uncertainty":11.0},"type":"Feature"},{"geometry":{"coordinates":[25.05385,60.20905],"type":"Point"},"properties":{"concentration_Be-7":690.81,"concentration_Cs-137":5.71,"concentration_air-volume":34549.0,"from_timestamp":"2011-01-03T07:57:00Z","id":"103428","site":"Helsinki","to_timestamp":"2011-01-05T07:56:00Z","uncertainty_Be-7-uncertainty":7.0,"uncertainty_Cs-137-uncertainty":8.0},"type":"Feature"},{"geometry":{"coordinates":[25.05385,60.20905],"type":"Point"},"properties":{"concentration_Be-7":1558.8,"concentration_Cs-137":1.37,"concentration_air-volume":34715.0,"from_timestamp":"2011-01-05T07:57:00Z","id":"103428","site":"Helsinki","to_timestamp":"2011-01-07T07:56:00Z","uncertainty_Be-7-uncertainty":7.0,"uncertainty_Cs-137-uncertainty":15.0},"type":"Feature"},{"geometry":{"coordinates":[25.05385,60.20905],"type":"Point"},"properties":{"concentration_Be-7":2059.47,"concentration_Cs-137":0.74,"concentration_Pb-210":440.7,"concentration_air-volume":34410.0,"from_timestamp":"2011-01-07T07:57:00Z","id":"103428","site":"Helsinki","to_timestamp":"2011-01-09T07:56:00Z","uncertainty_Be-7-uncertainty":5.0,"uncertainty_Cs-137-uncertainty":23.0,"uncertainty_Pb-210-uncertainty":5.0},"type":"Feature"},{"geometry":{"coordinates":[25.05385,60.20905],"type":"Point"},"properties":{"concentration_Be-7":1485.62,"concentration_air-volume":33762.0,"from_timestamp":"2011-01-09T07:57:00Z","id":"103428","site":"Helsinki","to_timestamp":"2011-01-11T07:56:00Z","uncertainty_Be-7-uncertainty":7.0},"type":"Feature"},{"geometry":{"coordinates":[25.05385,60.20905],"type":"Point"},"properties":{"concentration_Be-7":2648.88,"concentration_Na-24":5.85,"concentration_air-volume":34194.0,"from_timestamp":"2011-01-11T07:57:00Z","id":"103428","site":"Helsinki","to_timestamp":"2011-01-13T07:56:00Z","uncertainty_Be-7-uncertainty":7.0,"uncertainty_Na-24-uncertainty":21.0},"type":"Feature"}],"name":"stuk_open_data_air_radionuclides","type":"FeatureCollection"}