{"crs":{"properties":{"name":"urn:ogc:def:crs:OGC:1.3:CRS84"},"type":"name"},"features":[{"geometry":{"coordinates":[25.05385,60.20905],"type":"Point"},"properties":{"concentration_Be-7":7053.86,"concentration_air-volume":16228.0,"from_timestamp":"2011-06-12T07:56:00Z","id":"103428","site":"Helsinki","to_timestamp":"2011-06-13T07:55:00Z","uncertainty_Be-7-uncertainty":10.0},"type":"Feature"},{"geometry":{"coordinates":[25.05385,60.20905],"type":"Point"},"properties":{"concentration_Be-7":1736.95,"concentration_air-volume":16612.0,"from_timestamp":"2011-06-13T07:56:00Z","id":"103428","site":"Helsinki","to_timestamp":"2011-06-14T07:55:00Z","uncertainty_Be-7-uncertainty":10.0},"type":"Feature"},{"geometry":{"coordinates":[25.05385,60.20905],"type":"Point"},"properties":{"concentration_Be-7":1442.32,"concentration_air-volume":16647.0,"from_timestamp":"2011-06-14T07:56:00Z","id":"103428","site":"Helsinki","to_timestamp":"2011-06-15T07:55:00Z","uncertainty_Be-7-uncertainty":10.0},"type":"Feature"},{"geometry":{"coordinates":[25.05385,60.20905],"type":"Point"},"properties":{"concentration_Be-7":2116.56,"concentration_air-volume":16585.0,"from_timestamp":"2011-06-15T07:56:00Z","id":"103428","site":"Helsinki","to_timestamp":"2011-06-16T07:55:00Z","uncertainty_Be-7-uncertainty":10.0},"type":"Feature"},{"geometry":{"coordinates":[25.05385,60.20905],"type":"Point"},"properties":{"concentration_Be-7":2847.6,"concentration_air-volume":16496.0,"from_timestamp":"2011-06-18T07:59:00Z","id":"103428","site":"Helsinki","to_timestamp":"2011-06-19T07:58:00Z","uncertainty_Be-7-uncertainty":10.0},"type":"Feature"},{"geometry":{"coordinates":[25.05385,60.20905],"type":"Point"},"properties":{"concentration_Be-7":2752.03,"concentration_Pb-210":171.16,"concentration_air-volume":16579.0,"from_timestamp":"2011-06-19T07:59:00Z","id":"103428","site":"Helsinki","to_timestamp":"2011-06-20T05:58:00Z","uncertainty_Be-7-uncertainty":5.0,"uncertainty_Pb-210-uncertainty":6.0},"type":"Feature"},{"geometry":{"coordinates":[25.05385,60.20905],"type":"Point"},"properties":{"concentration_Be-7":1941.13,"concentration_Pb-210":168.71,"concentration_air-volume":16607.0,"from_timestamp":"2011-06-20T07:59:00Z","id":"103428","site":"Helsinki","to_timestamp":"2011-06-21T07:58:00Z","uncertainty_Be-7-uncertainty":5.0,"uncertainty_Pb-210-uncertainty":6.0},"type":"Feature"},{"geometry":{"coordinates":[26.91808,60.48318],"type":"Point"},"properties":{"concentration_Be-7":5176.65,"concentration_Cs-134":0.5,"concentration_Cs-137":5.9,"concentration_Na-22":0.98,"concentration_Pb-210":345.65,"concentration_air-volume":93769.0,"from_timestamp":"2011-06-07T10:41:00Z","id":"103429","site":"Kotka","to_timestamp":"2011-06-14T04:01:00Z","uncertainty_Be-7-uncertainty":5.0,"uncertainty_Cs-134-uncertainty":9.0,"uncertainty_Cs-137-uncertainty":5.0,"uncertainty_Na-22-uncertainty":9.0,"uncertainty_Pb-210-uncertainty":5.0},"type":"Feature"},{"geometry":{"coordinates":[26.91808,60.48318],"type":"Point"},"properties":{"concentration_Be-7":2489.44,"concentration_Cs-134":0.54,"concentration_Cs-137":2.18,"concentration_Pb-210":194.33,"concentration_air-volume":121036.0,"from_timestamp":"2011-06-14T04:01:00Z","id":"103429","site":"Kotka","to_timestamp":"2011-06-20T07:40:00Z","uncertainty_Be-7-uncertainty":5.0,"uncertainty_Cs-134-uncertainty":12.0,"uncertainty_Cs-137-uncertainty":7.0,"uncertainty_Pb-210-uncertainty":5.0},"type":"Feature"},{"geometry":{"coordinates":[26.91808,60.48318],"type":"Point"},"properties":{"concentration_Be-7":2519.44,"concentration_Cs-134":0.28,"concentration_Cs-137":2.62,"concentration_Na-22":0.4,"concentration_Pb-210":241.56,"concentration_air-volume":102700.0,"from_timestamp":"2011-06-20T07:42:00Z","id":"103429","site":"Kotka","to_timestamp":"2011-06-27T07:41:00Z","uncertainty_Be-7-uncertainty":5.0,"uncertainty_Cs-134-uncertainty":12.0,"uncertainty_Cs-137-uncertainty":5.0,"uncertainty_Na-22-uncertainty":14.0,"uncertainty_Pb-210-uncertainty":5.0},"type":"Feature"},{"geometry":{"coordinates":[28.82663,61.13229],"type":"Point"},"properties":{"concentration_Be-7":5960.15,"concentration_Cs-134":0.41,"concentration_Cs-137":1.14,"concentration_Na-22":1.17,"concentration_Pb-210":287.81,"concentration_air-volume":25903.0,"from_timestamp":"2011-06-06T06:25:00Z","id":"103430","site":"Imatra","to_timestamp":"2011-06-13T06:15:00Z","uncertainty_Be-7-uncertainty":6.0,"uncertainty_Cs-134-uncertainty":14.0,"uncertainty_Cs-137-uncertainty":9.0,"uncertainty_Na-22-uncertainty":13.0,"uncertainty_Pb-210-uncertainty":20.0},"type":"Feature"},{"geometry":{"coordinates":[28.82663,61.13229],"type":"Point"},"properties":{"concentration_Be-7":3485.82,"concentration_Cs-137":0.78,"concentration_Pb-210":207.12,"concentration_air-volume":25666.0,"from_timestamp":"2011-06-13T06:20:00Z","id":"103430","site":"Imatra","to_timestamp":"2011-06-20T05:25:00Z","uncertainty_Be-7-uncertainty":6.0,"uncertainty_Cs-137-uncertainty":21.0,"uncertainty_Pb-210-uncertainty":20.0},"type":"Feature"},{"geometry":{"coordinates":[28.82663,61.13229],"type":"Point"},"properties":{"concentration_Be-7":3939.18,"concentration_Cs-137":1.49,"concentration_Pb-210":423.53,"concentration_air-volume":12130.0,"from_timestamp":"2011-06-20T05:25:00Z","id":"103430","site":"Imatra","to_timestamp":"2011-06-27T05:10:00Z","uncertainty_Be-7-uncertainty":6.0,"uncertainty_Cs-137-uncertainty":12.0,"uncertainty_Pb-210-uncertainty":20.0},"type":"Feature"},{"geometry":{"coordinates":[27.57,68.64],"type":"Point"},"properties":{"concentration_Be-7":3216.84,"concentration_Cs-137":0.72,"concentration_Pb-210":308.61,"concentration_air-volume":25135.0,"from_timestamp":"2011-06-09T10:39:00Z","id":"103431","site":"Ivalo","to_timestamp":"2011-06-16T10:36:00Z","uncertainty_Be-7-uncertainty":5.0,"uncertainty_Cs-137-uncertainty":14.0,"uncertainty_Pb-210-uncertainty":11.0},"type":"Feature"},{"geometry":{"coordinates":[27.57,68.64],"type":"Point"},"properties":{"concentration_Be-7":3094.93,"concentration_Cs-137":1.0,"concentration_Pb-210":234.43,"concentration_air-volume":24016.0,"from_timestamp":"2011-06-16T10:38:00Z","id":"103431","site":"Ivalo","to_timestamp":"2011-06-23T08:22:00Z","uncertainty_Be-7-uncertainty":5.0,"uncertainty_Cs-137-uncertainty":19.0,"uncertainty_Pb-210-uncertainty":14.0},"type":"Feature"},{"geometry":{"coordinates":[27.63414,62.89195],"type":"Point"},"properties":{"concentration_Be-7":5645.93,"concentration_Cs-137":1.39,"concentration_air-volume":14416.0,"from_timestamp":"2011-06-09T07:10:00Z","id":"103432","site":"Kuopio","to_timestamp":"2011-06-13T05:10:00Z","uncertainty_Be-7-uncertainty":6.0,"uncertainty_Cs-137-uncertainty":24.0},"type":"Feature"},{"geometry":{"coordinates":[27.63414,62.89195],"type":"Point"},"properties":{"concentration_Be-7":3365.88,"concentration_air-volume":11906.0,"from_timestamp":"2011-06-13T05:11:00Z","id":"103432","site":"Kuopio","to_timestamp":"2011-06-16T07:33:00Z","uncertainty_Be-7-uncertainty":6.0},"type":"Feature"},{"geometry":{"coordinates":[27.63414,62.89195],"type":"Point"},"properties":{"concentration_Be-7":5086.69,"concentration_air-volume":14555.0,"from_timestamp":"2011-06-16T07:34:00Z","id":"103432","site":"Kuopio","to_timestamp":"2011-06-20T05:09:00Z","uncertainty_Be-7-uncertainty":6.0},"type":"Feature"},{"geometry":{"coordinates":[27.63414,62.89195],"type":"Point"},"properties":{"concentration_Be-7":3699.28,"concentration_Cs-137":1.67,"concentration_air-volume":11361.0,"from_timestamp":"2011-06-20T05:10:00Z","id":"103432","site":"Kuopio","to_timestamp":"2011-06-23T05:29:00Z","uncertainty_Be-7-uncertainty":6.0,"uncertainty_Cs-137-uncertainty":28.0},"type":"Feature"},{"geometry":{"coordinates":[25.67774,66.51285],"type":"Point"},"properties":{"concentration_Cs-137":9.73,"concentration_air-volume":7532.0,"from_timestamp":"2011-05-30T09:06:00Z","id":"103433","site":"Rovaniemi","to_timestamp":"2011-07-04T09:22:00Z","uncertainty_Cs-137-uncertainty":14.0},"type":"Feature"},{"geometry":{"coordinates":[25.67774,66.51285],"type":"Point"},"properties":{"concentration_Be-7":4879.23,"concentration_Cs-134":0.33,"concentration_Cs-137":3.58,"concentration_Na-22":0.8,"concentration_Pb-210":223.22,"concentration_air-volume":90299.0,"from_timestamp":"2011-06-06T06:35:00Z","id":"103433","site":"Rovaniemi","to_timestamp":"2011-06-13T09:09:00Z","uncertainty_Be-7-uncertainty":5.0,"uncertainty_Cs-134-uncertainty":8.0,"uncertainty_Cs-137-uncertainty":6.0,"uncertainty_Na-22-uncertainty":5.0,"uncertainty_Pb-210-uncertainty":5.0},"type":"Feature"},{"geometry":{"coordinates":[25.67774,66.51285],"type":"Point"},"properties":{"concentration_Be-7":4195.72,"concentration_Cs-134":0.21,"concentration_Cs-137":0.61,"concentration_Na-22":0.73,"concentration_Pb-210":142.0,"concentration_air-volume":89830.0,"from_timestamp":"2011-06-13T09:14:00Z","id":"103433","site":"Rovaniemi","to_timestamp":"2011-06-20T09:24:00Z","uncertainty_Be-7-uncertainty":5.0,"uncertainty_Cs-134-uncertainty":10.0,"uncertainty_Cs-137-uncertainty":6.0,"uncertainty_Na-22-uncertainty":6.0,"uncertainty_Pb-210-uncertainty":14.0},"type":"Feature"},{"geometry":{"coordinates":[25.67774,66.51285],"type":"Point"},"properties":{"concentration_Be-7":2377.51,"concentration_Cs-137":0.42,"concentration_Na-22":0.37,"concentration_Pb-210":108.69,"concentration_air-volume":86954.0,"from_timestamp":"2011-06-20T09:27:00Z","id":"103433","site":"Rovaniemi","to_timestamp":"2011-06-27T09:21:00Z","uncertainty_Be-7-uncertainty":5.0,"uncertainty_Cs-137-uncertainty":6.0,"uncertainty_Na-22-uncertainty":10.0,"uncertainty_Pb-210-uncertainty":5.0},"type":"Feature"},{"geometry":{"coordinates":[26.62807,67.36505],"type":"Point"},"properties":{"concentration_Be-7":5147.17,"concentration_Cs-137":3.59,"concentration_Pb-210":287.17,"concentration_air-volume":24156.0,"from_timestamp":"2011-06-06T05:37:00Z","id":"103434","site":"Sodankylä","to_timestamp":"2011-06-13T05:39:00Z","uncertainty_Be-7-uncertainty":5.0,"uncertainty_Cs-137-uncertainty":7.0,"uncertainty_Pb-210-uncertainty":12.0},"type":"Feature"},{"geometry":{"coordinates":[26.62807,67.36505],"type":"Point"},"properties":{"concentration_Be-7":3901.38,"concentration_Cs-137":1.3,"concentration_Na-22":0.59,"concentration_Pb-210":212.51,"concentration_air-volume":24861.0,"from_timestamp":"2011-06-13T05:41:00Z","id":"103434","site":"Sodankylä","to_timestamp":"2011-06-20T05:41:00Z","uncertainty_Be-7-uncertainty":5.0,"uncertainty_Cs-137-uncertainty":10.0,"uncertainty_Na-22-uncertainty":26.0,"uncertainty_Pb-210-uncertainty":12.0},"type":"Feature"},{"geometry":{"coordinates":[26.62807,67.36505],"type":"Point"},"properties":{"concentration_Be-7":2255.66,"concentration_Cs-137":0.59,"concentration_Pb-210":254.02,"concentration_air-volume":24771.0,"from_timestamp":"2011-06-20T05:42:00Z","id":"103434","site":"Sodankylä","to_timestamp":"2011-06-27T05:45:00Z","uncertainty_Be-7-uncertainty":5.0,"uncertainty_Cs-137-uncertainty":19.0,"uncertainty_Pb-210-uncertainty":9.0},"type":"Feature"},{"geometry":{"coordinates":[27.70835,64.08474],"type":"Point"},"properties":{"concentration_Be-7":5396.48,"concentration_Cs-134":0.49,"concentration_Cs-137":3.77,"concentration_Na-22":0.82,"concentration_air-volume":83189.0,"from_timestamp":"2011-06-06T06:06:00Z","id":"103435","site":"Kajaani","to_timestamp":"2011-06-13T06:20:00Z","uncertainty_Be-7-uncertainty":7.0,"uncertainty_Cs-134-uncertainty":9.0,"uncertainty_Cs-137-uncertainty":7.0,"uncertainty_Na-22-uncertainty":12.0},"type":"Feature"},{"geometry":{"coordinates":[27.70835,64.08474],"type":"Point"},"properties":{"concentration_Be-7":4698.26,"concentration_Cs-137":1.05,"concentration_air-volume":39456.0,"from_timestamp":"2011-06-13T06:24:00Z","id":"103435","site":"Kajaani","to_timestamp":"2011-06-20T05:01:00Z","uncertainty_Be-7-uncertainty":7.0,"uncertainty_Cs-137-uncertainty":14.0},"type":"Feature"}],"name":"stuk_open_data_air_radionuclides","type":"FeatureCollection"}