{"crs":{"properties":{"name":"urn:ogc:def:crs:OGC:1.3:CRS84"},"type":"name"},"features":[{"geometry":{"coordinates":[25.05385,60.20905],"type":"Point"},"properties":{"concentration_Be-7":1630.46,"concentration_Pb-210":134.48,"concentration_air-volume":17041.0,"from_timestamp":"2011-10-26T07:55:00Z","id":"103428","site":"Helsinki","to_timestamp":"2011-10-27T07:54:00Z","uncertainty_Be-7-uncertainty":5.0,"uncertainty_Pb-210-uncertainty":15.0},"type":"Feature"},{"geometry":{"coordinates":[25.05385,60.20905],"type":"Point"},"properties":{"concentration_Be-7":2746.51,"concentration_Cs-137":2.35,"concentration_Pb-210":881.31,"concentration_air-volume":33433.0,"from_timestamp":"2011-10-27T07:55:00Z","id":"103428","site":"Helsinki","to_timestamp":"2011-10-29T07:54:00Z","uncertainty_Be-7-uncertainty":5.0,"uncertainty_Cs-137-uncertainty":10.0,"uncertainty_Pb-210-uncertainty":5.0},"type":"Feature"},{"geometry":{"coordinates":[25.05385,60.20905],"type":"Point"},"properties":{"concentration_Be-7":2248.66,"concentration_Pb-210":234.74,"concentration_air-volume":16867.0,"from_timestamp":"2011-10-29T07:55:00Z","id":"103428","site":"Helsinki","to_timestamp":"2011-10-30T06:54:00Z","uncertainty_Be-7-uncertainty":5.0,"uncertainty_Pb-210-uncertainty":5.0},"type":"Feature"},{"geometry":{"coordinates":[25.05385,60.20905],"type":"Point"},"properties":{"concentration_Be-7":1660.85,"concentration_Pb-210":557.86,"concentration_air-volume":16662.0,"from_timestamp":"2011-10-30T06:55:00Z","id":"103428","site":"Helsinki","to_timestamp":"2011-10-31T06:54:00Z","uncertainty_Be-7-uncertainty":5.0,"uncertainty_Pb-210-uncertainty":5.0},"type":"Feature"},{"geometry":{"coordinates":[25.05385,60.20905],"type":"Point"},"properties":{"concentration_Be-7":1061.08,"concentration_Pb-210":232.89,"concentration_air-volume":33603.0,"from_timestamp":"2011-10-31T06:55:00Z","id":"103428","site":"Helsinki","to_timestamp":"2011-11-02T06:54:00Z","uncertainty_Be-7-uncertainty":5.0,"uncertainty_Pb-210-uncertainty":5.0},"type":"Feature"},{"geometry":{"coordinates":[25.05385,60.20905],"type":"Point"},"properties":{"concentration_Be-7":1675.97,"concentration_Pb-210":880.52,"concentration_air-volume":33190.0,"from_timestamp":"2011-11-02T06:55:00Z","id":"103428","site":"Helsinki","to_timestamp":"2011-11-04T06:54:00Z","uncertainty_Be-7-uncertainty":5.0,"uncertainty_Pb-210-uncertainty":5.0},"type":"Feature"},{"geometry":{"coordinates":[26.91808,60.48318],"type":"Point"},"properties":{"concentration_Be-7":2182.13,"concentration_Cs-137":2.29,"concentration_Na-22":0.2,"concentration_Pb-210":375.77,"concentration_air-volume":158236.0,"from_timestamp":"2011-10-17T11:34:00Z","id":"103429","site":"Kotka","to_timestamp":"2011-10-31T11:15:00Z","uncertainty_Be-7-uncertainty":5.0,"uncertainty_Cs-137-uncertainty":5.0,"uncertainty_Na-22-uncertainty":14.0,"uncertainty_Pb-210-uncertainty":5.0},"type":"Feature"},{"geometry":{"coordinates":[26.91808,60.48318],"type":"Point"},"properties":{"concentration_Be-7":1621.66,"concentration_Cs-137":4.33,"concentration_Na-22":0.24,"concentration_Pb-210":647.72,"concentration_air-volume":92728.0,"from_timestamp":"2011-10-31T12:23:00Z","id":"103429","site":"Kotka","to_timestamp":"2011-11-07T11:46:00Z","uncertainty_Be-7-uncertainty":5.0,"uncertainty_Cs-137-uncertainty":5.0,"uncertainty_Na-22-uncertainty":19.0,"uncertainty_Pb-210-uncertainty":5.0},"type":"Feature"},{"geometry":{"coordinates":[28.82663,61.13229],"type":"Point"},"properties":{"concentration_Be-7":2714.75,"concentration_Cs-137":1.7,"concentration_Pb-210":110.93,"concentration_air-volume":26495.0,"from_timestamp":"2011-10-24T05:20:00Z","id":"103430","site":"Imatra","to_timestamp":"2011-10-31T04:55:00Z","uncertainty_Be-7-uncertainty":6.0,"uncertainty_Cs-137-uncertainty":8.0,"uncertainty_Pb-210-uncertainty":13.0},"type":"Feature"},{"geometry":{"coordinates":[28.82663,61.13229],"type":"Point"},"properties":{"concentration_Be-7":1641.16,"concentration_Cs-137":1.14,"concentration_Pb-210":119.21,"concentration_air-volume":26293.0,"from_timestamp":"2011-10-31T06:00:00Z","id":"103430","site":"Imatra","to_timestamp":"2011-11-07T06:05:00Z","uncertainty_Be-7-uncertainty":6.0,"uncertainty_Cs-137-uncertainty":12.0,"uncertainty_Pb-210-uncertainty":13.0},"type":"Feature"},{"geometry":{"coordinates":[27.57,68.64],"type":"Point"},"properties":{"concentration_Be-7":652.92,"concentration_Cs-137":0.3,"concentration_Pb-210":135.47,"concentration_air-volume":25868.0,"from_timestamp":"2011-10-24T06:34:00Z","id":"103431","site":"Ivalo","to_timestamp":"2011-10-31T04:57:00Z","uncertainty_Be-7-uncertainty":5.0,"uncertainty_Cs-137-uncertainty":22.0,"uncertainty_Pb-210-uncertainty":13.0},"type":"Feature"},{"geometry":{"coordinates":[27.57,68.64],"type":"Point"},"properties":{"concentration_Be-7":607.99,"concentration_Pb-210":172.29,"concentration_air-volume":26145.0,"from_timestamp":"2011-10-31T04:58:00Z","id":"103431","site":"Ivalo","to_timestamp":"2011-11-07T06:35:00Z","uncertainty_Be-7-uncertainty":5.0,"uncertainty_Pb-210-uncertainty":14.0},"type":"Feature"},{"geometry":{"coordinates":[27.63414,62.89195],"type":"Point"},"properties":{"concentration_Be-7":3830.26,"concentration_Cs-137":2.49,"concentration_air-volume":11744.0,"from_timestamp":"2011-10-24T06:59:00Z","id":"103432","site":"Kuopio","to_timestamp":"2011-10-27T07:03:00Z","uncertainty_Be-7-uncertainty":6.0,"uncertainty_Cs-137-uncertainty":19.0},"type":"Feature"},{"geometry":{"coordinates":[27.63414,62.89195],"type":"Point"},"properties":{"concentration_Be-7":2275.93,"concentration_Cs-137":1.99,"concentration_air-volume":15544.0,"from_timestamp":"2011-10-27T07:03:00Z","id":"103432","site":"Kuopio","to_timestamp":"2011-10-31T07:12:00Z","uncertainty_Be-7-uncertainty":6.0,"uncertainty_Cs-137-uncertainty":18.0},"type":"Feature"},{"geometry":{"coordinates":[27.63414,62.89195],"type":"Point"},"properties":{"concentration_Be-7":1249.19,"concentration_air-volume":11254.0,"from_timestamp":"2011-10-31T07:13:00Z","id":"103432","site":"Kuopio","to_timestamp":"2011-11-03T05:15:00Z","uncertainty_Be-7-uncertainty":6.0},"type":"Feature"},{"geometry":{"coordinates":[27.63414,62.89195],"type":"Point"},"properties":{"concentration_Be-7":1709.09,"concentration_Cs-137":2.54,"concentration_air-volume":15513.0,"from_timestamp":"2011-11-03T05:16:00Z","id":"103432","site":"Kuopio","to_timestamp":"2011-11-07T06:58:00Z","uncertainty_Be-7-uncertainty":6.0,"uncertainty_Cs-137-uncertainty":15.0},"type":"Feature"},{"geometry":{"coordinates":[25.67774,66.51285],"type":"Point"},"properties":{"concentration_Be-7":2623.31,"concentration_Cs-137":0.63,"concentration_Na-22":0.23,"concentration_Pb-210":295.08,"concentration_air-volume":93046.0,"from_timestamp":"2011-10-24T16:14:00Z","id":"103433","site":"Rovaniemi","to_timestamp":"2011-10-31T11:30:00Z","uncertainty_Be-7-uncertainty":5.0,"uncertainty_Cs-137-uncertainty":7.0,"uncertainty_Na-22-uncertainty":15.0,"uncertainty_Pb-210-uncertainty":5.0},"type":"Feature"},{"geometry":{"coordinates":[25.67774,66.51285],"type":"Point"},"properties":{"concentration_Be-7":586.95,"concentration_Cs-137":0.33,"concentration_Pb-210":139.1,"concentration_air-volume":92188.0,"from_timestamp":"2011-10-31T11:34:00Z","id":"103433","site":"Rovaniemi","to_timestamp":"2011-11-07T09:23:00Z","uncertainty_Be-7-uncertainty":5.0,"uncertainty_Cs-137-uncertainty":10.0,"uncertainty_Pb-210-uncertainty":5.0},"type":"Feature"},{"geometry":{"coordinates":[26.62807,67.36505],"type":"Point"},"properties":{"concentration_Be-7":1208.97,"concentration_Cs-137":0.37,"concentration_Pb-210":98.63,"concentration_air-volume":26000.0,"from_timestamp":"2011-10-24T05:48:00Z","id":"103434","site":"Sodankylä","to_timestamp":"2011-10-31T05:24:00Z","uncertainty_Be-7-uncertainty":5.0,"uncertainty_Cs-137-uncertainty":26.0,"uncertainty_Pb-210-uncertainty":19.0},"type":"Feature"},{"geometry":{"coordinates":[26.62807,67.36505],"type":"Point"},"properties":{"concentration_Be-7":412.23,"concentration_air-volume":25881.0,"from_timestamp":"2011-10-31T05:28:00Z","id":"103434","site":"Sodankylä","to_timestamp":"2011-11-07T05:22:00Z","uncertainty_Be-7-uncertainty":5.0},"type":"Feature"},{"geometry":{"coordinates":[27.70835,64.08474],"type":"Point"},"properties":{"concentration_Be-7":2159.49,"concentration_Cs-137":0.9,"concentration_Na-22":0.26,"concentration_Pb-210":875.81,"concentration_air-volume":94880.0,"from_timestamp":"2011-10-24T04:14:00Z","id":"103435","site":"Kajaani","to_timestamp":"2011-11-01T03:00:00Z","uncertainty_Be-7-uncertainty":7.0,"uncertainty_Cs-137-uncertainty":8.0,"uncertainty_Na-22-uncertainty":19.0,"uncertainty_Pb-210-uncertainty":17.0},"type":"Feature"},{"geometry":{"coordinates":[27.70835,64.08474],"type":"Point"},"properties":{"concentration_Be-7":831.29,"concentration_Cs-134":0.17,"concentration_Cs-137":0.91,"concentration_Pb-210":227.41,"concentration_air-volume":73576.0,"from_timestamp":"2011-11-01T04:04:00Z","id":"103435","site":"Kajaani","to_timestamp":"2011-11-07T05:57:00Z","uncertainty_Be-7-uncertainty":5.0,"uncertainty_Cs-134-uncertainty":22.0,"uncertainty_Cs-137-uncertainty":8.0,"uncertainty_Pb-210-uncertainty":5.0},"type":"Feature"},{"geometry":{"coordinates":[25.05385,60.20905],"type":"Point"},"properties":{"concentration_Be-7":1630.46,"concentration_Pb-210":134.48,"concentration_air-volume":17041.0,"from_timestamp":"2011-10-26T07:55:00Z","id":"103428","site":"Helsinki","to_timestamp":"2011-10-27T07:54:00Z","uncertainty_Be-7-uncertainty":5.0,"uncertainty_Pb-210-uncertainty":15.0},"type":"Feature"},{"geometry":{"coordinates":[25.05385,60.20905],"type":"Point"},"properties":{"concentration_Be-7":2746.51,"concentration_Cs-137":2.35,"concentration_Pb-210":881.31,"concentration_air-volume":33433.0,"from_timestamp":"2011-10-27T07:55:00Z","id":"103428","site":"Helsinki","to_timestamp":"2011-10-29T07:54:00Z","uncertainty_Be-7-uncertainty":5.0,"uncertainty_Cs-137-uncertainty":10.0,"uncertainty_Pb-210-uncertainty":5.0},"type":"Feature"},{"geometry":{"coordinates":[25.05385,60.20905],"type":"Point"},"properties":{"concentration_Be-7":2248.66,"concentration_Pb-210":234.74,"concentration_air-volume":16867.0,"from_timestamp":"2011-10-29T07:55:00Z","id":"103428","site":"Helsinki","to_timestamp":"2011-10-30T06:54:00Z","uncertainty_Be-7-uncertainty":5.0,"uncertainty_Pb-210-uncertainty":5.0},"type":"Feature"},{"geometry":{"coordinates":[25.05385,60.20905],"type":"Point"},"properties":{"concentration_Be-7":1660.85,"concentration_Pb-210":557.86,"concentration_air-volume":16662.0,"from_timestamp":"2011-10-30T06:55:00Z","id":"103428","site":"Helsinki","to_timestamp":"2011-10-31T06:54:00Z","uncertainty_Be-7-uncertainty":5.0,"uncertainty_Pb-210-uncertainty":5.0},"type":"Feature"},{"geometry":{"coordinates":[25.05385,60.20905],"type":"Point"},"properties":{"concentration_Be-7":1061.08,"concentration_Pb-210":232.89,"concentration_air-volume":33603.0,"from_timestamp":"2011-10-31T06:55:00Z","id":"103428","site":"Helsinki","to_timestamp":"2011-11-02T06:54:00Z","uncertainty_Be-7-uncertainty":5.0,"uncertainty_Pb-210-uncertainty":5.0},"type":"Feature"},{"geometry":{"coordinates":[25.05385,60.20905],"type":"Point"},"properties":{"concentration_Be-7":1675.97,"concentration_Pb-210":880.52,"concentration_air-volume":33190.0,"from_timestamp":"2011-11-02T06:55:00Z","id":"103428","site":"Helsinki","to_timestamp":"2011-11-04T06:54:00Z","uncertainty_Be-7-uncertainty":5.0,"uncertainty_Pb-210-uncertainty":5.0},"type":"Feature"}],"name":"stuk_open_data_air_radionuclides","type":"FeatureCollection"}