{"crs":{"properties":{"name":"urn:ogc:def:crs:OGC:1.3:CRS84"},"type":"name"},"features":[{"geometry":{"coordinates":[25.05385,60.20905],"type":"Point"},"properties":{"concentration_Be-7":685.06,"concentration_Cs-137":0.87,"concentration_Pb-210":794.02,"concentration_air-volume":34716.0,"from_timestamp":"2011-01-19T07:57:00Z","id":"103428","site":"Helsinki","to_timestamp":"2011-01-21T07:56:00Z","uncertainty_Be-7-uncertainty":5.0,"uncertainty_Cs-137-uncertainty":12.0,"uncertainty_Pb-210-uncertainty":5.0},"type":"Feature"},{"geometry":{"coordinates":[25.05385,60.20905],"type":"Point"},"properties":{"concentration_Be-7":1463.86,"concentration_Cs-137":1.66,"concentration_Pb-210":2453.35,"concentration_air-volume":34658.0,"from_timestamp":"2011-01-21T07:57:00Z","id":"103428","site":"Helsinki","to_timestamp":"2011-01-23T07:56:00Z","uncertainty_Be-7-uncertainty":5.0,"uncertainty_Cs-137-uncertainty":9.0,"uncertainty_Pb-210-uncertainty":5.0},"type":"Feature"},{"geometry":{"coordinates":[25.05385,60.20905],"type":"Point"},"properties":{"concentration_Be-7":697.89,"concentration_Cs-137":0.68,"concentration_air-volume":34657.0,"from_timestamp":"2011-01-24T07:57:00Z","id":"103428","site":"Helsinki","to_timestamp":"2011-01-26T07:56:00Z","uncertainty_Be-7-uncertainty":5.0,"uncertainty_Cs-137-uncertainty":29.0},"type":"Feature"},{"geometry":{"coordinates":[25.05385,60.20905],"type":"Point"},"properties":{"concentration_Be-7":1476.68,"concentration_Cs-137":3.64,"concentration_air-volume":17745.0,"from_timestamp":"2011-01-26T07:56:00Z","id":"103428","site":"Helsinki","to_timestamp":"2011-01-27T07:56:00Z","uncertainty_Be-7-uncertainty":10.0,"uncertainty_Cs-137-uncertainty":11.0},"type":"Feature"},{"geometry":{"coordinates":[25.05385,60.20905],"type":"Point"},"properties":{"concentration_Be-7":2000.95,"concentration_Cs-137":0.74,"concentration_air-volume":35109.0,"from_timestamp":"2011-01-27T07:57:00Z","id":"103428","site":"Helsinki","to_timestamp":"2011-01-29T07:56:00Z","uncertainty_Be-7-uncertainty":7.0,"uncertainty_Cs-137-uncertainty":20.0},"type":"Feature"},{"geometry":{"coordinates":[26.91808,60.48318],"type":"Point"},"properties":{"concentration_Be-7":1459.83,"concentration_Cs-137":1.64,"concentration_Pb-210":1258.23,"concentration_air-volume":101731.0,"from_timestamp":"2011-01-17T11:30:00Z","id":"103429","site":"Kotka","to_timestamp":"2011-01-24T16:55:00Z","uncertainty_Be-7-uncertainty":5.0,"uncertainty_Cs-137-uncertainty":6.0,"uncertainty_Pb-210-uncertainty":5.0},"type":"Feature"},{"geometry":{"coordinates":[26.91808,60.48318],"type":"Point"},"properties":{"concentration_Be-7":1661.06,"concentration_Cs-137":3.21,"concentration_Pb-210":337.87,"concentration_air-volume":99033.0,"from_timestamp":"2011-01-24T17:02:00Z","id":"103429","site":"Kotka","to_timestamp":"2011-01-31T12:45:00Z","uncertainty_Be-7-uncertainty":5.0,"uncertainty_Cs-137-uncertainty":5.0,"uncertainty_Pb-210-uncertainty":5.0},"type":"Feature"},{"geometry":{"coordinates":[28.82663,61.13229],"type":"Point"},"properties":{"concentration_Be-7":2080.33,"concentration_Cs-137":1.03,"concentration_Pb-210":1853.26,"concentration_air-volume":26571.0,"from_timestamp":"2011-01-17T07:25:00Z","id":"103430","site":"Imatra","to_timestamp":"2011-01-24T06:25:00Z","uncertainty_Be-7-uncertainty":6.0,"uncertainty_Cs-137-uncertainty":10.0,"uncertainty_Pb-210-uncertainty":20.0},"type":"Feature"},{"geometry":{"coordinates":[28.82663,61.13229],"type":"Point"},"properties":{"concentration_Be-7":1175.17,"concentration_Cs-137":1.4,"concentration_Pb-210":298.36,"concentration_air-volume":28064.0,"from_timestamp":"2011-01-24T06:30:00Z","id":"103430","site":"Imatra","to_timestamp":"2011-01-31T06:00:00Z","uncertainty_Be-7-uncertainty":6.0,"uncertainty_Cs-137-uncertainty":9.0,"uncertainty_Pb-210-uncertainty":20.0},"type":"Feature"},{"geometry":{"coordinates":[27.57,68.64],"type":"Point"},"properties":{"concentration_Be-7":732.57,"concentration_Cs-137":0.45,"concentration_Pb-210":250.36,"concentration_air-volume":27084.0,"from_timestamp":"2011-01-17T08:57:00Z","id":"103431","site":"Ivalo","to_timestamp":"2011-01-24T09:29:00Z","uncertainty_Be-7-uncertainty":5.0,"uncertainty_Cs-137-uncertainty":17.0,"uncertainty_Pb-210-uncertainty":10.0},"type":"Feature"},{"geometry":{"coordinates":[27.57,68.64],"type":"Point"},"properties":{"concentration_Be-7":1301.32,"concentration_Pb-210":83.08,"concentration_air-volume":26647.0,"from_timestamp":"2011-01-24T09:30:00Z","id":"103431","site":"Ivalo","to_timestamp":"2011-01-31T09:38:00Z","uncertainty_Be-7-uncertainty":5.0,"uncertainty_Pb-210-uncertainty":19.0},"type":"Feature"},{"geometry":{"coordinates":[27.63414,62.89195],"type":"Point"},"properties":{"concentration_Be-7":1367.45,"concentration_air-volume":12009.0,"from_timestamp":"2011-01-17T07:23:00Z","id":"103432","site":"Kuopio","to_timestamp":"2011-01-20T06:44:00Z","uncertainty_Be-7-uncertainty":6.0},"type":"Feature"},{"geometry":{"coordinates":[27.63414,62.89195],"type":"Point"},"properties":{"concentration_Be-7":2151.24,"concentration_Cs-137":1.43,"concentration_air-volume":15815.0,"from_timestamp":"2011-01-20T06:45:00Z","id":"103432","site":"Kuopio","to_timestamp":"2011-01-24T06:43:00Z","uncertainty_Be-7-uncertainty":6.0,"uncertainty_Cs-137-uncertainty":23.0},"type":"Feature"},{"geometry":{"coordinates":[27.63414,62.89195],"type":"Point"},"properties":{"concentration_Be-7":1071.72,"concentration_Cs-137":1.63,"concentration_air-volume":12487.0,"from_timestamp":"2011-01-24T06:44:00Z","id":"103432","site":"Kuopio","to_timestamp":"2011-01-27T06:56:00Z","uncertainty_Be-7-uncertainty":6.0,"uncertainty_Cs-137-uncertainty":25.0},"type":"Feature"},{"geometry":{"coordinates":[27.63414,62.89195],"type":"Point"},"properties":{"concentration_Be-7":1468.1,"concentration_Cs-137":1.32,"concentration_air-volume":16100.0,"from_timestamp":"2011-01-27T06:57:00Z","id":"103432","site":"Kuopio","to_timestamp":"2011-01-31T07:23:00Z","uncertainty_Be-7-uncertainty":6.0,"uncertainty_Cs-137-uncertainty":24.0},"type":"Feature"},{"geometry":{"coordinates":[25.67774,66.51285],"type":"Point"},"properties":{"concentration_Be-7":985.17,"concentration_Cs-137":0.88,"concentration_Pb-210":505.81,"concentration_air-volume":75159.0,"from_timestamp":"2011-01-17T08:05:00Z","id":"103433","site":"Rovaniemi","to_timestamp":"2011-01-24T09:27:00Z","uncertainty_Be-7-uncertainty":5.0,"uncertainty_Cs-137-uncertainty":6.0,"uncertainty_Pb-210-uncertainty":6.0},"type":"Feature"},{"geometry":{"coordinates":[25.67774,66.51285],"type":"Point"},"properties":{"concentration_Be-7":1162.94,"concentration_Cs-137":0.59,"concentration_Na-22":0.22,"concentration_Pb-210":110.92,"concentration_air-volume":76390.0,"from_timestamp":"2011-01-24T09:30:00Z","id":"103433","site":"Rovaniemi","to_timestamp":"2011-01-31T09:33:00Z","uncertainty_Be-7-uncertainty":5.0,"uncertainty_Cs-137-uncertainty":6.0,"uncertainty_Na-22-uncertainty":7.0,"uncertainty_Pb-210-uncertainty":6.0},"type":"Feature"},{"geometry":{"coordinates":[26.62807,67.36505],"type":"Point"},"properties":{"concentration_Be-7":951.17,"concentration_Cs-137":0.39,"concentration_Pb-210":603.46,"concentration_air-volume":26547.0,"from_timestamp":"2011-01-17T05:11:00Z","id":"103434","site":"Sodankylä","to_timestamp":"2011-01-24T05:02:00Z","uncertainty_Be-7-uncertainty":5.0,"uncertainty_Cs-137-uncertainty":19.0,"uncertainty_Pb-210-uncertainty":6.0},"type":"Feature"},{"geometry":{"coordinates":[26.62807,67.36505],"type":"Point"},"properties":{"concentration_Be-7":1017.66,"concentration_Pb-210":83.9,"concentration_air-volume":26813.0,"from_timestamp":"2011-01-24T05:05:00Z","id":"103434","site":"Sodankylä","to_timestamp":"2011-01-31T05:08:00Z","uncertainty_Be-7-uncertainty":6.0,"uncertainty_Pb-210-uncertainty":17.0},"type":"Feature"},{"geometry":{"coordinates":[27.70835,64.08474],"type":"Point"},"properties":{"concentration_Be-7":533.0,"concentration_Cs-137":0.36,"concentration_Pb-210":229.59,"concentration_air-volume":107207.0,"from_timestamp":"2011-01-19T06:30:00Z","id":"103435","site":"Kajaani","to_timestamp":"2011-01-24T10:12:00Z","uncertainty_Be-7-uncertainty":5.0,"uncertainty_Cs-137-uncertainty":9.0,"uncertainty_Pb-210-uncertainty":5.0},"type":"Feature"},{"geometry":{"coordinates":[27.70835,64.08474],"type":"Point"},"properties":{"concentration_Be-7":1172.99,"concentration_Cs-137":0.65,"concentration_air-volume":86373.0,"from_timestamp":"2011-01-24T10:15:00Z","id":"103435","site":"Kajaani","to_timestamp":"2011-01-31T11:41:00Z","uncertainty_Be-7-uncertainty":7.0,"uncertainty_Cs-137-uncertainty":9.0},"type":"Feature"},{"geometry":{"coordinates":[25.05385,60.20905],"type":"Point"},"properties":{"concentration_Be-7":685.06,"concentration_Cs-137":0.87,"concentration_Pb-210":794.02,"concentration_air-volume":34716.0,"from_timestamp":"2011-01-19T07:57:00Z","id":"103428","site":"Helsinki","to_timestamp":"2011-01-21T07:56:00Z","uncertainty_Be-7-uncertainty":5.0,"uncertainty_Cs-137-uncertainty":12.0,"uncertainty_Pb-210-uncertainty":5.0},"type":"Feature"},{"geometry":{"coordinates":[25.05385,60.20905],"type":"Point"},"properties":{"concentration_Be-7":1463.86,"concentration_Cs-137":1.66,"concentration_Pb-210":2453.35,"concentration_air-volume":34658.0,"from_timestamp":"2011-01-21T07:57:00Z","id":"103428","site":"Helsinki","to_timestamp":"2011-01-23T07:56:00Z","uncertainty_Be-7-uncertainty":5.0,"uncertainty_Cs-137-uncertainty":9.0,"uncertainty_Pb-210-uncertainty":5.0},"type":"Feature"},{"geometry":{"coordinates":[25.05385,60.20905],"type":"Point"},"properties":{"concentration_Be-7":697.89,"concentration_Cs-137":0.68,"concentration_air-volume":34657.0,"from_timestamp":"2011-01-24T07:57:00Z","id":"103428","site":"Helsinki","to_timestamp":"2011-01-26T07:56:00Z","uncertainty_Be-7-uncertainty":5.0,"uncertainty_Cs-137-uncertainty":29.0},"type":"Feature"},{"geometry":{"coordinates":[25.05385,60.20905],"type":"Point"},"properties":{"concentration_Be-7":1476.68,"concentration_Cs-137":3.64,"concentration_air-volume":17745.0,"from_timestamp":"2011-01-26T07:56:00Z","id":"103428","site":"Helsinki","to_timestamp":"2011-01-27T07:56:00Z","uncertainty_Be-7-uncertainty":10.0,"uncertainty_Cs-137-uncertainty":11.0},"type":"Feature"},{"geometry":{"coordinates":[25.05385,60.20905],"type":"Point"},"properties":{"concentration_Be-7":2000.95,"concentration_Cs-137":0.74,"concentration_air-volume":35109.0,"from_timestamp":"2011-01-27T07:57:00Z","id":"103428","site":"Helsinki","to_timestamp":"2011-01-29T07:56:00Z","uncertainty_Be-7-uncertainty":7.0,"uncertainty_Cs-137-uncertainty":20.0},"type":"Feature"}],"name":"stuk_open_data_air_radionuclides","type":"FeatureCollection"}