{"crs":{"properties":{"name":"urn:ogc:def:crs:OGC:1.3:CRS84"},"type":"name"},"features":[{"geometry":{"coordinates":[25.05385,60.20905],"type":"Point"},"properties":{"concentration_Be-7":2622.28,"concentration_Pb-210":480.8,"concentration_air-volume":31859.0,"from_timestamp":"2012-08-16T07:53:00Z","id":"103428","site":"Helsinki","to_timestamp":"2012-08-18T07:52:00Z","uncertainty_Be-7-uncertainty":5.0,"uncertainty_Pb-210-uncertainty":5.0},"type":"Feature"},{"geometry":{"coordinates":[25.05385,60.20905],"type":"Point"},"properties":{"concentration_Be-7":2953.39,"concentration_Pb-210":408.18,"concentration_air-volume":15579.0,"from_timestamp":"2012-08-18T07:53:00Z","id":"103428","site":"Helsinki","to_timestamp":"2012-08-19T07:52:00Z","uncertainty_Be-7-uncertainty":5.0,"uncertainty_Pb-210-uncertainty":7.0},"type":"Feature"},{"geometry":{"coordinates":[25.05385,60.20905],"type":"Point"},"properties":{"concentration_Be-7":1524.53,"concentration_Pb-210":235.77,"concentration_air-volume":16516.0,"from_timestamp":"2012-08-19T07:53:00Z","id":"103428","site":"Helsinki","to_timestamp":"2012-08-20T08:33:00Z","uncertainty_Be-7-uncertainty":5.0,"uncertainty_Pb-210-uncertainty":9.0},"type":"Feature"},{"geometry":{"coordinates":[25.05385,60.20905],"type":"Point"},"properties":{"concentration_Be-7":1615.84,"concentration_Pb-210":169.27,"concentration_air-volume":15596.0,"from_timestamp":"2012-08-20T08:34:00Z","id":"103428","site":"Helsinki","to_timestamp":"2012-08-21T07:52:00Z","uncertainty_Be-7-uncertainty":5.0,"uncertainty_Pb-210-uncertainty":13.0},"type":"Feature"},{"geometry":{"coordinates":[25.05385,60.20905],"type":"Point"},"properties":{"concentration_Be-7":2464.87,"concentration_Pb-210":195.56,"concentration_air-volume":15906.0,"from_timestamp":"2012-08-21T07:53:00Z","id":"103428","site":"Helsinki","to_timestamp":"2012-08-22T07:52:00Z","uncertainty_Be-7-uncertainty":5.0,"uncertainty_Pb-210-uncertainty":9.0},"type":"Feature"},{"geometry":{"coordinates":[25.05385,60.20905],"type":"Point"},"properties":{"concentration_Be-7":2722.71,"concentration_Pb-210":326.87,"concentration_air-volume":15696.0,"from_timestamp":"2012-08-22T07:53:00Z","id":"103428","site":"Helsinki","to_timestamp":"2012-08-23T07:52:00Z","uncertainty_Be-7-uncertainty":5.0,"uncertainty_Pb-210-uncertainty":8.0},"type":"Feature"},{"geometry":{"coordinates":[25.05385,60.20905],"type":"Point"},"properties":{"concentration_Be-7":1617.61,"concentration_Pb-210":199.01,"concentration_air-volume":16070.0,"from_timestamp":"2012-08-23T07:53:00Z","id":"103428","site":"Helsinki","to_timestamp":"2012-08-24T08:11:00Z","uncertainty_Be-7-uncertainty":5.0,"uncertainty_Pb-210-uncertainty":10.0},"type":"Feature"},{"geometry":{"coordinates":[25.05385,60.20905],"type":"Point"},"properties":{"concentration_Be-7":1109.73,"concentration_Cs-137":3.11,"concentration_Pb-210":427.29,"concentration_air-volume":15663.0,"from_timestamp":"2012-08-24T08:12:00Z","id":"103428","site":"Helsinki","to_timestamp":"2012-08-25T07:52:00Z","uncertainty_Be-7-uncertainty":5.0,"uncertainty_Cs-137-uncertainty":23.0,"uncertainty_Pb-210-uncertainty":8.0},"type":"Feature"},{"geometry":{"coordinates":[25.05385,60.20905],"type":"Point"},"properties":{"concentration_Be-7":2088.16,"concentration_Pb-210":484.35,"concentration_air-volume":15839.0,"from_timestamp":"2012-08-25T07:53:00Z","id":"103428","site":"Helsinki","to_timestamp":"2012-08-26T07:52:00Z","uncertainty_Be-7-uncertainty":5.0,"uncertainty_Pb-210-uncertainty":8.0},"type":"Feature"},{"geometry":{"coordinates":[26.91808,60.48318],"type":"Point"},"properties":{"concentration_Be-7":2574.94,"concentration_Cs-137":2.7,"concentration_Na-22":0.31,"concentration_Pb-210":382.79,"concentration_air-volume":102056.0,"from_timestamp":"2012-08-13T07:40:00Z","id":"103429","site":"Kotka","to_timestamp":"2012-08-20T10:25:00Z","uncertainty_Be-7-uncertainty":5.0,"uncertainty_Cs-137-uncertainty":6.0,"uncertainty_Na-22-uncertainty":14.0,"uncertainty_Pb-210-uncertainty":5.0},"type":"Feature"},{"geometry":{"coordinates":[26.91808,60.48318],"type":"Point"},"properties":{"concentration_Be-7":1943.69,"concentration_Cs-137":1.34,"concentration_Na-22":0.25,"concentration_Pb-210":308.14,"concentration_air-volume":100304.0,"from_timestamp":"2012-08-20T10:26:00Z","id":"103429","site":"Kotka","to_timestamp":"2012-08-27T11:30:00Z","uncertainty_Be-7-uncertainty":6.0,"uncertainty_Cs-137-uncertainty":7.0,"uncertainty_Na-22-uncertainty":20.0,"uncertainty_Pb-210-uncertainty":20.0},"type":"Feature"},{"geometry":{"coordinates":[28.82663,61.13229],"type":"Point"},"properties":{"concentration_Be-7":2717.71,"concentration_Cs-137":0.5,"concentration_Pb-210":362.98,"concentration_air-volume":26143.0,"from_timestamp":"2012-08-13T05:05:00Z","id":"103430","site":"Imatra","to_timestamp":"2012-08-20T05:40:00Z","uncertainty_Be-7-uncertainty":6.0,"uncertainty_Cs-137-uncertainty":16.0,"uncertainty_Pb-210-uncertainty":20.0},"type":"Feature"},{"geometry":{"coordinates":[28.82663,61.13229],"type":"Point"},"properties":{"concentration_Be-7":1818.86,"concentration_Cs-137":0.58,"concentration_Pb-210":57.27,"concentration_air-volume":29984.0,"from_timestamp":"2012-08-20T05:40:00Z","id":"103430","site":"Imatra","to_timestamp":"2012-08-28T06:40:00Z","uncertainty_Be-7-uncertainty":6.0,"uncertainty_Cs-137-uncertainty":18.0,"uncertainty_Pb-210-uncertainty":20.0},"type":"Feature"},{"geometry":{"coordinates":[27.57,68.64],"type":"Point"},"properties":{"concentration_Be-7":1927.84,"concentration_Na-22":0.66,"concentration_Pb-210":138.84,"concentration_air-volume":24948.0,"from_timestamp":"2012-08-13T05:35:00Z","id":"103431","site":"Ivalo","to_timestamp":"2012-08-20T04:56:00Z","uncertainty_Be-7-uncertainty":5.0,"uncertainty_Na-22-uncertainty":27.0,"uncertainty_Pb-210-uncertainty":5.0},"type":"Feature"},{"geometry":{"coordinates":[27.57,68.64],"type":"Point"},"properties":{"concentration_Be-7":2338.17,"concentration_Na-22":0.39,"concentration_Pb-210":127.85,"concentration_air-volume":25907.0,"from_timestamp":"2012-08-20T04:58:00Z","id":"103431","site":"Ivalo","to_timestamp":"2012-08-27T09:30:00Z","uncertainty_Be-7-uncertainty":5.0,"uncertainty_Na-22-uncertainty":20.0,"uncertainty_Pb-210-uncertainty":5.0},"type":"Feature"},{"geometry":{"coordinates":[27.63414,62.89195],"type":"Point"},"properties":{"concentration_Be-7":3548.19,"concentration_air-volume":14628.0,"from_timestamp":"2012-08-16T06:54:00Z","id":"103432","site":"Kuopio","to_timestamp":"2012-08-20T07:09:00Z","uncertainty_Be-7-uncertainty":6.0},"type":"Feature"},{"geometry":{"coordinates":[27.63414,62.89195],"type":"Point"},"properties":{"concentration_Be-7":2690.56,"concentration_air-volume":11064.0,"from_timestamp":"2012-08-20T07:10:00Z","id":"103432","site":"Kuopio","to_timestamp":"2012-08-23T07:22:00Z","uncertainty_Be-7-uncertainty":6.0},"type":"Feature"},{"geometry":{"coordinates":[27.63414,62.89195],"type":"Point"},"properties":{"concentration_Be-7":1318.3,"concentration_air-volume":14527.0,"from_timestamp":"2012-08-23T07:23:00Z","id":"103432","site":"Kuopio","to_timestamp":"2012-08-27T06:45:00Z","uncertainty_Be-7-uncertainty":6.0},"type":"Feature"},{"geometry":{"coordinates":[25.67774,66.51285],"type":"Point"},"properties":{"concentration_Be-7":2549.29,"concentration_Cs-137":0.67,"concentration_Na-22":0.19,"concentration_Pb-210":154.44,"concentration_air-volume":70978.0,"from_timestamp":"2012-08-13T06:55:00Z","id":"103433","site":"Rovaniemi","to_timestamp":"2012-08-20T09:34:00Z","uncertainty_Be-7-uncertainty":6.0,"uncertainty_Cs-137-uncertainty":7.0,"uncertainty_Na-22-uncertainty":20.0,"uncertainty_Pb-210-uncertainty":6.0},"type":"Feature"},{"geometry":{"coordinates":[25.67774,66.51285],"type":"Point"},"properties":{"concentration_Be-7":2129.7,"concentration_Cs-137":0.45,"concentration_Na-22":0.31,"concentration_Pb-210":107.15,"concentration_air-volume":87694.0,"from_timestamp":"2012-08-20T10:06:00Z","id":"103433","site":"Rovaniemi","to_timestamp":"2012-08-27T10:08:00Z","uncertainty_Be-7-uncertainty":5.0,"uncertainty_Cs-137-uncertainty":5.0,"uncertainty_Na-22-uncertainty":6.0,"uncertainty_Pb-210-uncertainty":5.0},"type":"Feature"},{"geometry":{"coordinates":[26.62807,67.36505],"type":"Point"},"properties":{"concentration_Be-7":2954.04,"concentration_Cs-137":0.59,"concentration_Pb-210":327.81,"concentration_air-volume":24785.0,"from_timestamp":"2012-08-13T05:58:00Z","id":"103434","site":"Sodankylä","to_timestamp":"2012-08-20T05:50:00Z","uncertainty_Be-7-uncertainty":4.0,"uncertainty_Cs-137-uncertainty":12.0,"uncertainty_Pb-210-uncertainty":12.0},"type":"Feature"},{"geometry":{"coordinates":[26.62807,67.36505],"type":"Point"},"properties":{"concentration_Be-7":2325.12,"concentration_Cs-137":0.41,"concentration_Pb-210":271.57,"concentration_air-volume":25059.0,"from_timestamp":"2012-08-20T05:51:00Z","id":"103434","site":"Sodankylä","to_timestamp":"2012-08-27T05:53:00Z","uncertainty_Be-7-uncertainty":4.0,"uncertainty_Cs-137-uncertainty":10.0,"uncertainty_Pb-210-uncertainty":11.0},"type":"Feature"},{"geometry":{"coordinates":[27.70835,64.08474],"type":"Point"},"properties":{"concentration_Be-7":2616.59,"concentration_Cs-137":0.73,"concentration_Na-22":0.3,"concentration_air-volume":84077.0,"from_timestamp":"2012-08-13T04:04:00Z","id":"103435","site":"Kajaani","to_timestamp":"2012-08-20T08:50:00Z","uncertainty_Be-7-uncertainty":7.0,"uncertainty_Cs-137-uncertainty":9.0,"uncertainty_Na-22-uncertainty":19.0},"type":"Feature"},{"geometry":{"coordinates":[27.70835,64.08474],"type":"Point"},"properties":{"concentration_Be-7":1192.9,"concentration_Cs-137":0.63,"concentration_Pb-210":166.65,"concentration_air-volume":81972.0,"from_timestamp":"2012-08-20T08:53:00Z","id":"103435","site":"Kajaani","to_timestamp":"2012-08-27T07:44:00Z","uncertainty_Be-7-uncertainty":5.0,"uncertainty_Cs-137-uncertainty":9.0,"uncertainty_Pb-210-uncertainty":5.0},"type":"Feature"}],"name":"stuk_open_data_air_radionuclides","type":"FeatureCollection"}