{"crs":{"properties":{"name":"urn:ogc:def:crs:OGC:1.3:CRS84"},"type":"name"},"features":[{"geometry":{"coordinates":[25.05385,60.20905],"type":"Point"},"properties":{"concentration_Be-7":5556.44,"concentration_Cs-137":0.67,"concentration_Pb-210":1257.95,"concentration_air-volume":34299.0,"from_timestamp":"2012-12-23T06:53:00Z","id":"103428","site":"Helsinki","to_timestamp":"2012-12-25T06:52:00Z","uncertainty_Be-7-uncertainty":5.0,"uncertainty_Cs-137-uncertainty":20.0,"uncertainty_Pb-210-uncertainty":5.0},"type":"Feature"},{"geometry":{"coordinates":[25.05385,60.20905],"type":"Point"},"properties":{"concentration_Be-7":2822.5,"concentration_Cs-137":2.14,"concentration_Pb-210":1488.14,"concentration_air-volume":16773.0,"from_timestamp":"2012-12-25T06:53:00Z","id":"103428","site":"Helsinki","to_timestamp":"2012-12-26T06:52:00Z","uncertainty_Be-7-uncertainty":5.0,"uncertainty_Cs-137-uncertainty":19.0,"uncertainty_Pb-210-uncertainty":5.0},"type":"Feature"},{"geometry":{"coordinates":[25.05385,60.20905],"type":"Point"},"properties":{"concentration_Be-7":1127.91,"concentration_Pb-210":176.22,"concentration_air-volume":16388.0,"from_timestamp":"2012-12-26T06:53:00Z","id":"103428","site":"Helsinki","to_timestamp":"2012-12-27T06:52:00Z","uncertainty_Be-7-uncertainty":5.0,"uncertainty_Pb-210-uncertainty":5.0},"type":"Feature"},{"geometry":{"coordinates":[25.05385,60.20905],"type":"Point"},"properties":{"concentration_Be-7":1684.1,"concentration_Cs-137":0.84,"concentration_Pb-210":626.89,"concentration_air-volume":33451.0,"from_timestamp":"2012-12-27T06:53:00Z","id":"103428","site":"Helsinki","to_timestamp":"2012-12-29T06:52:00Z","uncertainty_Be-7-uncertainty":5.0,"uncertainty_Cs-137-uncertainty":14.0,"uncertainty_Pb-210-uncertainty":5.0},"type":"Feature"},{"geometry":{"coordinates":[25.05385,60.20905],"type":"Point"},"properties":{"concentration_Be-7":1278.26,"concentration_Cs-137":0.73,"concentration_Pb-210":331.65,"concentration_air-volume":16884.0,"from_timestamp":"2012-12-29T06:53:00Z","id":"103428","site":"Helsinki","to_timestamp":"2012-12-30T06:52:00Z","uncertainty_Be-7-uncertainty":5.0,"uncertainty_Cs-137-uncertainty":30.0,"uncertainty_Pb-210-uncertainty":6.0},"type":"Feature"},{"geometry":{"coordinates":[25.05385,60.20905],"type":"Point"},"properties":{"concentration_Be-7":2376.0,"concentration_Pb-210":263.75,"concentration_air-volume":16223.0,"from_timestamp":"2012-12-30T06:53:00Z","id":"103428","site":"Helsinki","to_timestamp":"2012-12-31T06:52:00Z","uncertainty_Be-7-uncertainty":5.0,"uncertainty_Pb-210-uncertainty":5.0},"type":"Feature"},{"geometry":{"coordinates":[25.05385,60.20905],"type":"Point"},"properties":{"concentration_Be-7":1154.28,"concentration_Pb-210":81.76,"concentration_air-volume":16435.0,"from_timestamp":"2012-12-31T06:53:00Z","id":"103428","site":"Helsinki","to_timestamp":"2013-01-01T06:52:00Z","uncertainty_Be-7-uncertainty":5.0,"uncertainty_Pb-210-uncertainty":17.0},"type":"Feature"},{"geometry":{"coordinates":[26.91808,60.48318],"type":"Point"},"properties":{"concentration_Be-7":2880.67,"concentration_Cs-137":3.12,"concentration_Na-22":0.26,"concentration_Pb-210":1579.64,"concentration_air-volume":140698.0,"from_timestamp":"2012-12-18T12:30:00Z","id":"103429","site":"Kotka","to_timestamp":"2012-12-31T07:22:00Z","uncertainty_Be-7-uncertainty":5.0,"uncertainty_Cs-137-uncertainty":5.0,"uncertainty_Na-22-uncertainty":14.0,"uncertainty_Pb-210-uncertainty":5.0},"type":"Feature"},{"geometry":{"coordinates":[26.91808,60.48318],"type":"Point"},"properties":{"concentration_Be-7":753.27,"concentration_Cs-137":0.7,"concentration_Pb-210":170.65,"concentration_air-volume":101837.0,"from_timestamp":"2012-12-31T07:24:00Z","id":"103429","site":"Kotka","to_timestamp":"2013-01-07T08:55:00Z","uncertainty_Be-7-uncertainty":5.0,"uncertainty_Cs-137-uncertainty":7.0,"uncertainty_Pb-210-uncertainty":5.0},"type":"Feature"},{"geometry":{"coordinates":[28.82663,61.13229],"type":"Point"},"properties":{"concentration_Be-7":3166.27,"concentration_air-volume":15821.0,"from_timestamp":"2012-12-20T07:00:00Z","id":"103430","site":"Imatra","to_timestamp":"2012-12-24T05:00:00Z","uncertainty_Be-7-uncertainty":10.0},"type":"Feature"},{"geometry":{"coordinates":[28.82663,61.13229],"type":"Point"},"properties":{"concentration_Be-7":3863.91,"concentration_Cs-137":1.17,"concentration_air-volume":12189.0,"from_timestamp":"2012-12-24T05:00:00Z","id":"103430","site":"Imatra","to_timestamp":"2012-12-27T08:00:00Z","uncertainty_Be-7-uncertainty":10.0,"uncertainty_Cs-137-uncertainty":20.0},"type":"Feature"},{"geometry":{"coordinates":[28.82663,61.13229],"type":"Point"},"properties":{"concentration_Be-7":1122.91,"concentration_Cs-137":0.59,"concentration_air-volume":25908.0,"from_timestamp":"2012-12-27T08:00:00Z","id":"103430","site":"Imatra","to_timestamp":"2013-01-03T06:40:00Z","uncertainty_Be-7-uncertainty":10.0,"uncertainty_Cs-137-uncertainty":23.0},"type":"Feature"},{"geometry":{"coordinates":[27.57,68.64],"type":"Point"},"properties":{"concentration_Be-7":3000.24,"concentration_Cs-137":0.52,"concentration_Na-22":0.35,"concentration_Pb-210":1148.72,"concentration_air-volume":40110.0,"from_timestamp":"2012-12-17T05:25:00Z","id":"103431","site":"Ivalo","to_timestamp":"2012-12-27T05:30:00Z","uncertainty_Be-7-uncertainty":5.0,"uncertainty_Cs-137-uncertainty":7.0,"uncertainty_Na-22-uncertainty":18.0,"uncertainty_Pb-210-uncertainty":5.0},"type":"Feature"},{"geometry":{"coordinates":[27.57,68.64],"type":"Point"},"properties":{"concentration_Be-7":2056.25,"concentration_Cs-137":0.67,"concentration_Pb-210":643.5,"concentration_air-volume":14892.0,"from_timestamp":"2012-12-27T05:32:00Z","id":"103431","site":"Ivalo","to_timestamp":"2012-12-31T04:14:00Z","uncertainty_Be-7-uncertainty":5.0,"uncertainty_Cs-137-uncertainty":21.0,"uncertainty_Pb-210-uncertainty":5.0},"type":"Feature"},{"geometry":{"coordinates":[27.57,68.64],"type":"Point"},"properties":{"concentration_Be-7":855.26,"concentration_Cs-137":0.29,"concentration_Pb-210":127.17,"concentration_air-volume":27217.0,"from_timestamp":"2012-12-31T07:15:00Z","id":"103431","site":"Ivalo","to_timestamp":"2013-01-07T08:19:00Z","uncertainty_Be-7-uncertainty":5.0,"uncertainty_Cs-137-uncertainty":28.0,"uncertainty_Pb-210-uncertainty":5.0},"type":"Feature"},{"geometry":{"coordinates":[27.63414,62.89195],"type":"Point"},"properties":{"concentration_Be-7":3386.95,"concentration_Cs-137":1.18,"concentration_air-volume":26368.0,"from_timestamp":"2012-12-20T06:59:00Z","id":"103432","site":"Kuopio","to_timestamp":"2012-12-27T05:33:00Z","uncertainty_Be-7-uncertainty":6.0,"uncertainty_Cs-137-uncertainty":18.0},"type":"Feature"},{"geometry":{"coordinates":[27.63414,62.89195],"type":"Point"},"properties":{"concentration_Be-7":1631.33,"concentration_Cs-137":1.38,"concentration_air-volume":15094.0,"from_timestamp":"2012-12-27T05:36:00Z","id":"103432","site":"Kuopio","to_timestamp":"2012-12-31T04:43:00Z","uncertainty_Be-7-uncertainty":6.0,"uncertainty_Cs-137-uncertainty":26.0},"type":"Feature"},{"geometry":{"coordinates":[27.63414,62.89195],"type":"Point"},"properties":{"concentration_Be-7":776.18,"concentration_air-volume":11715.0,"from_timestamp":"2012-12-31T04:46:00Z","id":"103432","site":"Kuopio","to_timestamp":"2013-01-03T07:07:00Z","uncertainty_Be-7-uncertainty":6.0},"type":"Feature"},{"geometry":{"coordinates":[25.67774,66.51285],"type":"Point"},"properties":{"concentration_Be-7":1763.56,"concentration_Cs-137":0.77,"concentration_Na-22":0.18,"concentration_Pb-210":399.16,"concentration_air-volume":143106.0,"from_timestamp":"2012-12-21T13:22:00Z","id":"103433","site":"Rovaniemi","to_timestamp":"2012-12-31T07:22:00Z","uncertainty_Be-7-uncertainty":5.0,"uncertainty_Cs-137-uncertainty":6.0,"uncertainty_Na-22-uncertainty":11.0,"uncertainty_Pb-210-uncertainty":5.0},"type":"Feature"},{"geometry":{"coordinates":[25.67774,66.51285],"type":"Point"},"properties":{"concentration_Be-7":385.2,"concentration_Cs-137":0.24,"concentration_Pb-210":84.82,"concentration_air-volume":137463.0,"from_timestamp":"2012-12-31T10:27:00Z","id":"103433","site":"Rovaniemi","to_timestamp":"2013-01-07T11:51:00Z","uncertainty_Be-7-uncertainty":5.0,"uncertainty_Cs-137-uncertainty":9.0,"uncertainty_Pb-210-uncertainty":5.0},"type":"Feature"},{"geometry":{"coordinates":[26.62807,67.36505],"type":"Point"},"properties":{"concentration_Be-7":2622.95,"concentration_Cs-137":0.41,"concentration_Na-22":0.17,"concentration_Pb-210":286.65,"concentration_air-volume":39614.0,"from_timestamp":"2012-12-17T05:24:00Z","id":"103434","site":"Sodankylä","to_timestamp":"2012-12-27T04:44:00Z","uncertainty_Be-7-uncertainty":5.0,"uncertainty_Cs-137-uncertainty":17.0,"uncertainty_Na-22-uncertainty":18.0,"uncertainty_Pb-210-uncertainty":10.0},"type":"Feature"},{"geometry":{"coordinates":[26.62807,67.36505],"type":"Point"},"properties":{"concentration_Be-7":1742.93,"concentration_Cs-137":0.64,"concentration_Pb-210":271.74,"concentration_air-volume":15100.0,"from_timestamp":"2012-12-27T04:45:00Z","id":"103434","site":"Sodankylä","to_timestamp":"2012-12-31T05:08:00Z","uncertainty_Be-7-uncertainty":5.0,"uncertainty_Cs-137-uncertainty":28.0,"uncertainty_Pb-210-uncertainty":13.0},"type":"Feature"},{"geometry":{"coordinates":[26.62807,67.36505],"type":"Point"},"properties":{"concentration_Be-7":621.12,"concentration_Pb-210":129.74,"concentration_air-volume":26941.0,"from_timestamp":"2012-12-31T08:09:00Z","id":"103434","site":"Sodankylä","to_timestamp":"2013-01-07T08:30:00Z","uncertainty_Be-7-uncertainty":5.0,"uncertainty_Pb-210-uncertainty":18.0},"type":"Feature"},{"geometry":{"coordinates":[27.70835,64.08474],"type":"Point"},"properties":{"concentration_Be-7":434.78,"concentration_Cs-137":0.17,"concentration_Pb-210":144.28,"concentration_air-volume":99786.0,"from_timestamp":"2012-12-31T09:15:00Z","id":"103435","site":"Kajaani","to_timestamp":"2013-01-07T06:40:00Z","uncertainty_Be-7-uncertainty":5.0,"uncertainty_Cs-137-uncertainty":22.0,"uncertainty_Pb-210-uncertainty":5.0},"type":"Feature"}],"name":"stuk_open_data_air_radionuclides","type":"FeatureCollection"}