{"crs":{"properties":{"name":"urn:ogc:def:crs:OGC:1.3:CRS84"},"type":"name"},"features":[{"geometry":{"coordinates":[25.05385,60.20905],"type":"Point"},"properties":{"concentration_Be-7":2873.66,"concentration_Pb-210":250.28,"concentration_air-volume":15267.0,"from_timestamp":"2012-07-24T08:33:00Z","id":"103428","site":"Helsinki","to_timestamp":"2012-07-25T07:22:00Z","uncertainty_Be-7-uncertainty":5.0,"uncertainty_Pb-210-uncertainty":9.0},"type":"Feature"},{"geometry":{"coordinates":[25.05385,60.20905],"type":"Point"},"properties":{"concentration_Be-7":3129.93,"concentration_Pb-210":332.39,"concentration_air-volume":15992.0,"from_timestamp":"2012-07-25T07:23:00Z","id":"103428","site":"Helsinki","to_timestamp":"2012-07-26T07:53:00Z","uncertainty_Be-7-uncertainty":5.0,"uncertainty_Pb-210-uncertainty":6.0},"type":"Feature"},{"geometry":{"coordinates":[25.05385,60.20905],"type":"Point"},"properties":{"concentration_Be-7":3205.92,"concentration_Cs-137":1.22,"concentration_Pb-210":488.31,"concentration_air-volume":31704.0,"from_timestamp":"2012-07-26T07:54:00Z","id":"103428","site":"Helsinki","to_timestamp":"2012-07-28T07:53:00Z","uncertainty_Be-7-uncertainty":5.0,"uncertainty_Cs-137-uncertainty":18.0,"uncertainty_Pb-210-uncertainty":5.0},"type":"Feature"},{"geometry":{"coordinates":[25.05385,60.20905],"type":"Point"},"properties":{"concentration_Be-7":5141.0,"concentration_Pb-210":603.47,"concentration_air-volume":15763.0,"from_timestamp":"2012-07-28T07:54:00Z","id":"103428","site":"Helsinki","to_timestamp":"2012-07-29T07:53:00Z","uncertainty_Be-7-uncertainty":5.0,"uncertainty_Pb-210-uncertainty":6.0},"type":"Feature"},{"geometry":{"coordinates":[25.05385,60.20905],"type":"Point"},"properties":{"concentration_Be-7":5554.86,"concentration_Pb-210":859.52,"concentration_air-volume":15587.0,"from_timestamp":"2012-07-29T07:54:00Z","id":"103428","site":"Helsinki","to_timestamp":"2012-07-30T07:29:00Z","uncertainty_Be-7-uncertainty":5.0,"uncertainty_Pb-210-uncertainty":6.0},"type":"Feature"},{"geometry":{"coordinates":[25.05385,60.20905],"type":"Point"},"properties":{"concentration_Be-7":3397.45,"concentration_Pb-210":319.6,"concentration_air-volume":15934.0,"from_timestamp":"2012-07-30T07:30:00Z","id":"103428","site":"Helsinki","to_timestamp":"2012-07-31T07:53:00Z","uncertainty_Be-7-uncertainty":5.0,"uncertainty_Pb-210-uncertainty":7.0},"type":"Feature"},{"geometry":{"coordinates":[25.05385,60.20905],"type":"Point"},"properties":{"concentration_Be-7":3145.57,"concentration_Pb-210":236.35,"concentration_air-volume":16207.0,"from_timestamp":"2012-07-31T07:54:00Z","id":"103428","site":"Helsinki","to_timestamp":"2012-08-01T07:53:00Z","uncertainty_Be-7-uncertainty":5.0,"uncertainty_Pb-210-uncertainty":9.0},"type":"Feature"},{"geometry":{"coordinates":[25.05385,60.20905],"type":"Point"},"properties":{"concentration_Be-7":2510.41,"concentration_Pb-210":179.83,"concentration_air-volume":15823.0,"from_timestamp":"2012-08-01T07:54:00Z","id":"103428","site":"Helsinki","to_timestamp":"2012-08-02T07:22:00Z","uncertainty_Be-7-uncertainty":5.0,"uncertainty_Pb-210-uncertainty":7.0},"type":"Feature"},{"geometry":{"coordinates":[26.91808,60.48318],"type":"Point"},"properties":{"concentration_Be-7":1824.66,"concentration_Cs-137":1.44,"concentration_Na-22":0.25,"concentration_Pb-210":201.48,"concentration_air-volume":98648.0,"from_timestamp":"2012-07-16T05:15:00Z","id":"103429","site":"Kotka","to_timestamp":"2012-07-27T08:01:00Z","uncertainty_Be-7-uncertainty":5.0,"uncertainty_Cs-137-uncertainty":6.0,"uncertainty_Na-22-uncertainty":18.0,"uncertainty_Pb-210-uncertainty":5.0},"type":"Feature"},{"geometry":{"coordinates":[26.91808,60.48318],"type":"Point"},"properties":{"concentration_Be-7":3692.37,"concentration_Cs-137":1.18,"concentration_Na-22":0.55,"concentration_Pb-210":521.3,"concentration_air-volume":100218.0,"from_timestamp":"2012-07-27T08:03:00Z","id":"103429","site":"Kotka","to_timestamp":"2012-07-30T17:20:00Z","uncertainty_Be-7-uncertainty":5.0,"uncertainty_Cs-137-uncertainty":6.0,"uncertainty_Na-22-uncertainty":10.0,"uncertainty_Pb-210-uncertainty":5.0},"type":"Feature"},{"geometry":{"coordinates":[26.91808,60.48318],"type":"Point"},"properties":{"concentration_Be-7":3097.63,"concentration_Cs-137":0.79,"concentration_Na-22":0.46,"concentration_Pb-210":282.22,"concentration_air-volume":101424.0,"from_timestamp":"2012-07-30T17:20:00Z","id":"103429","site":"Kotka","to_timestamp":"2012-08-07T03:46:00Z","uncertainty_Be-7-uncertainty":5.0,"uncertainty_Cs-137-uncertainty":7.0,"uncertainty_Na-22-uncertainty":11.0,"uncertainty_Pb-210-uncertainty":5.0},"type":"Feature"},{"geometry":{"coordinates":[28.82663,61.13229],"type":"Point"},"properties":{"concentration_Be-7":3538.08,"concentration_Cs-137":0.83,"concentration_Pb-210":380.98,"concentration_air-volume":24531.0,"from_timestamp":"2012-07-23T08:00:00Z","id":"103430","site":"Imatra","to_timestamp":"2012-07-30T03:47:00Z","uncertainty_Be-7-uncertainty":6.0,"uncertainty_Cs-137-uncertainty":12.0,"uncertainty_Pb-210-uncertainty":20.0},"type":"Feature"},{"geometry":{"coordinates":[28.82663,61.13229],"type":"Point"},"properties":{"concentration_Be-7":3064.64,"concentration_Cs-137":0.43,"concentration_Pb-210":330.69,"concentration_air-volume":36887.0,"from_timestamp":"2012-07-30T03:47:00Z","id":"103430","site":"Imatra","to_timestamp":"2012-08-09T05:20:00Z","uncertainty_Be-7-uncertainty":6.0,"uncertainty_Cs-137-uncertainty":14.0,"uncertainty_Pb-210-uncertainty":20.0},"type":"Feature"},{"geometry":{"coordinates":[27.57,68.64],"type":"Point"},"properties":{"concentration_Be-7":1395.31,"concentration_Pb-210":68.47,"concentration_air-volume":21415.0,"from_timestamp":"2012-07-24T05:25:00Z","id":"103431","site":"Ivalo","to_timestamp":"2012-07-30T06:37:00Z","uncertainty_Be-7-uncertainty":5.0,"uncertainty_Pb-210-uncertainty":5.0},"type":"Feature"},{"geometry":{"coordinates":[27.57,68.64],"type":"Point"},"properties":{"concentration_Be-7":1585.6,"concentration_Na-22":0.57,"concentration_Pb-210":83.26,"concentration_air-volume":24972.0,"from_timestamp":"2012-07-30T06:40:00Z","id":"103431","site":"Ivalo","to_timestamp":"2012-08-06T07:33:00Z","uncertainty_Be-7-uncertainty":5.0,"uncertainty_Na-22-uncertainty":15.0,"uncertainty_Pb-210-uncertainty":5.0},"type":"Feature"},{"geometry":{"coordinates":[27.63414,62.89195],"type":"Point"},"properties":{"concentration_Be-7":2225.52,"concentration_air-volume":10353.0,"from_timestamp":"2012-07-23T10:05:00Z","id":"103432","site":"Kuopio","to_timestamp":"2012-07-26T06:03:00Z","uncertainty_Be-7-uncertainty":6.0},"type":"Feature"},{"geometry":{"coordinates":[27.63414,62.89195],"type":"Point"},"properties":{"concentration_Be-7":3559.2,"concentration_air-volume":14484.0,"from_timestamp":"2012-07-26T06:04:00Z","id":"103432","site":"Kuopio","to_timestamp":"2012-07-30T05:26:00Z","uncertainty_Be-7-uncertainty":6.0},"type":"Feature"},{"geometry":{"coordinates":[27.63414,62.89195],"type":"Point"},"properties":{"concentration_Be-7":3845.22,"concentration_air-volume":11138.0,"from_timestamp":"2012-07-30T05:27:00Z","id":"103432","site":"Kuopio","to_timestamp":"2012-08-02T07:19:00Z","uncertainty_Be-7-uncertainty":6.0},"type":"Feature"},{"geometry":{"coordinates":[25.67774,66.51285],"type":"Point"},"properties":{"concentration_Be-7":2574.79,"concentration_Cs-137":0.48,"concentration_Na-22":0.41,"concentration_Pb-210":131.17,"concentration_air-volume":85521.0,"from_timestamp":"2012-07-23T07:37:00Z","id":"103433","site":"Rovaniemi","to_timestamp":"2012-07-30T08:18:00Z","uncertainty_Be-7-uncertainty":5.0,"uncertainty_Cs-137-uncertainty":8.0,"uncertainty_Na-22-uncertainty":10.0,"uncertainty_Pb-210-uncertainty":15.0},"type":"Feature"},{"geometry":{"coordinates":[25.67774,66.51285],"type":"Point"},"properties":{"concentration_Be-7":2760.15,"concentration_Cs-137":0.55,"concentration_Na-22":0.28,"concentration_Pb-210":160.63,"concentration_air-volume":87727.0,"from_timestamp":"2012-07-30T08:23:00Z","id":"103433","site":"Rovaniemi","to_timestamp":"2012-08-06T07:57:00Z","uncertainty_Be-7-uncertainty":5.0,"uncertainty_Cs-137-uncertainty":7.0,"uncertainty_Na-22-uncertainty":19.0,"uncertainty_Pb-210-uncertainty":5.0},"type":"Feature"},{"geometry":{"coordinates":[26.62807,67.36505],"type":"Point"},"properties":{"concentration_Be-7":2430.97,"concentration_Pb-210":215.22,"concentration_air-volume":24652.0,"from_timestamp":"2012-07-23T05:55:00Z","id":"103434","site":"Sodankylä","to_timestamp":"2012-07-30T05:51:00Z","uncertainty_Be-7-uncertainty":4.0,"uncertainty_Pb-210-uncertainty":14.0},"type":"Feature"},{"geometry":{"coordinates":[26.62807,67.36505],"type":"Point"},"properties":{"concentration_Be-7":2525.8,"concentration_Pb-210":247.4,"concentration_air-volume":24735.0,"from_timestamp":"2012-07-30T05:52:00Z","id":"103434","site":"Sodankylä","to_timestamp":"2012-08-06T06:02:00Z","uncertainty_Be-7-uncertainty":4.0,"uncertainty_Pb-210-uncertainty":13.0},"type":"Feature"},{"geometry":{"coordinates":[27.70835,64.08474],"type":"Point"},"properties":{"concentration_Be-7":1799.73,"concentration_Cs-137":0.58,"concentration_Na-22":0.2,"concentration_air-volume":111429.0,"from_timestamp":"2012-07-16T08:08:00Z","id":"103435","site":"Kajaani","to_timestamp":"2012-07-26T04:12:00Z","uncertainty_Be-7-uncertainty":7.0,"uncertainty_Cs-137-uncertainty":9.0,"uncertainty_Na-22-uncertainty":22.0},"type":"Feature"},{"geometry":{"coordinates":[27.70835,64.08474],"type":"Point"},"properties":{"concentration_Be-7":2703.07,"concentration_Cs-137":0.87,"concentration_Pb-210":352.59,"concentration_air-volume":52954.0,"from_timestamp":"2012-07-26T04:14:00Z","id":"103435","site":"Kajaani","to_timestamp":"2012-07-30T18:33:00Z","uncertainty_Be-7-uncertainty":5.0,"uncertainty_Cs-137-uncertainty":10.0,"uncertainty_Pb-210-uncertainty":5.0},"type":"Feature"},{"geometry":{"coordinates":[27.70835,64.08474],"type":"Point"},"properties":{"concentration_Be-7":2511.13,"concentration_Cs-137":0.88,"concentration_air-volume":73920.0,"from_timestamp":"2012-07-30T18:36:00Z","id":"103435","site":"Kajaani","to_timestamp":"2012-08-06T05:44:00Z","uncertainty_Be-7-uncertainty":7.0,"uncertainty_Cs-137-uncertainty":9.0},"type":"Feature"}],"name":"stuk_open_data_air_radionuclides","type":"FeatureCollection"}