{"crs":{"properties":{"name":"urn:ogc:def:crs:OGC:1.3:CRS84"},"type":"name"},"features":[{"geometry":{"coordinates":[25.05385,60.20905],"type":"Point"},"properties":{"concentration_Be-7":3081.94,"concentration_Pb-210":340.35,"concentration_air-volume":31897.0,"from_timestamp":"2012-04-10T07:54:00Z","id":"103428","site":"Helsinki","to_timestamp":"2012-04-12T07:53:00Z","uncertainty_Be-7-uncertainty":5.0,"uncertainty_Pb-210-uncertainty":5.0},"type":"Feature"},{"geometry":{"coordinates":[25.05385,60.20905],"type":"Point"},"properties":{"concentration_Be-7":1911.06,"concentration_Cs-137":0.99,"concentration_air-volume":31615.0,"from_timestamp":"2012-04-12T07:54:00Z","id":"103428","site":"Helsinki","to_timestamp":"2012-04-14T07:54:00Z","uncertainty_Be-7-uncertainty":7.0,"uncertainty_Cs-137-uncertainty":21.0},"type":"Feature"},{"geometry":{"coordinates":[25.05385,60.20905],"type":"Point"},"properties":{"concentration_Be-7":287.39,"concentration_Pb-210":96.17,"concentration_air-volume":16139.0,"from_timestamp":"2012-04-14T07:54:00Z","id":"103428","site":"Helsinki","to_timestamp":"2012-04-15T07:53:00Z","uncertainty_Be-7-uncertainty":5.0,"uncertainty_Pb-210-uncertainty":6.0},"type":"Feature"},{"geometry":{"coordinates":[25.05385,60.20905],"type":"Point"},"properties":{"concentration_Be-7":1040.19,"concentration_Pb-210":193.36,"concentration_air-volume":32279.0,"from_timestamp":"2012-04-15T07:54:00Z","id":"103428","site":"Helsinki","to_timestamp":"2012-04-17T07:53:00Z","uncertainty_Be-7-uncertainty":5.0,"uncertainty_Pb-210-uncertainty":5.0},"type":"Feature"},{"geometry":{"coordinates":[25.05385,60.20905],"type":"Point"},"properties":{"concentration_Be-7":1030.85,"concentration_Cs-137":0.46,"concentration_Pb-210":209.55,"concentration_air-volume":32354.0,"from_timestamp":"2012-04-17T07:54:00Z","id":"103428","site":"Helsinki","to_timestamp":"2012-04-19T07:53:00Z","uncertainty_Be-7-uncertainty":5.0,"uncertainty_Cs-137-uncertainty":26.0,"uncertainty_Pb-210-uncertainty":5.0},"type":"Feature"},{"geometry":{"coordinates":[25.05385,60.20905],"type":"Point"},"properties":{"concentration_Be-7":2396.52,"concentration_Pb-210":305.88,"concentration_air-volume":32142.0,"from_timestamp":"2012-04-19T07:53:00Z","id":"103428","site":"Helsinki","to_timestamp":"2012-04-21T07:55:00Z","uncertainty_Be-7-uncertainty":5.0,"uncertainty_Pb-210-uncertainty":5.0},"type":"Feature"},{"geometry":{"coordinates":[26.91808,60.48318],"type":"Point"},"properties":{"concentration_Be-7":1459.74,"concentration_Co-60":0.23,"concentration_Cs-137":1.61,"concentration_Mn-54":0.22,"concentration_Pb-210":274.42,"concentration_air-volume":104194.0,"from_timestamp":"2012-04-09T18:30:00Z","id":"103429","site":"Kotka","to_timestamp":"2012-04-17T04:43:00Z","uncertainty_Be-7-uncertainty":5.0,"uncertainty_Co-60-uncertainty":24.0,"uncertainty_Cs-137-uncertainty":7.0,"uncertainty_Mn-54-uncertainty":19.0,"uncertainty_Pb-210-uncertainty":5.0},"type":"Feature"},{"geometry":{"coordinates":[26.91808,60.48318],"type":"Point"},"properties":{"concentration_Be-7":889.96,"concentration_Cs-137":2.61,"concentration_Na-22":0.22,"concentration_Pb-210":265.69,"concentration_air-volume":88257.0,"from_timestamp":"2012-04-17T04:45:00Z","id":"103429","site":"Kotka","to_timestamp":"2012-04-23T08:10:00Z","uncertainty_Be-7-uncertainty":5.0,"uncertainty_Cs-137-uncertainty":6.0,"uncertainty_Na-22-uncertainty":27.0,"uncertainty_Pb-210-uncertainty":5.0},"type":"Feature"},{"geometry":{"coordinates":[28.82663,61.13229],"type":"Point"},"properties":{"concentration_Be-7":1127.54,"concentration_Cs-137":0.61,"concentration_air-volume":22897.0,"from_timestamp":"2012-04-10T07:50:00Z","id":"103430","site":"Imatra","to_timestamp":"2012-04-16T04:30:00Z","uncertainty_Be-7-uncertainty":6.0,"uncertainty_Cs-137-uncertainty":18.0},"type":"Feature"},{"geometry":{"coordinates":[28.82663,61.13229],"type":"Point"},"properties":{"concentration_Be-7":1423.87,"concentration_Cs-137":0.54,"concentration_air-volume":27593.0,"from_timestamp":"2012-04-16T04:30:00Z","id":"103430","site":"Imatra","to_timestamp":"2012-04-23T06:25:00Z","uncertainty_Be-7-uncertainty":6.0,"uncertainty_Cs-137-uncertainty":18.0},"type":"Feature"},{"geometry":{"coordinates":[27.57,68.64],"type":"Point"},"properties":{"concentration_Be-7":1562.7,"concentration_Cs-137":0.37,"concentration_Pb-210":131.04,"concentration_air-volume":22118.0,"from_timestamp":"2012-04-10T05:18:00Z","id":"103431","site":"Ivalo","to_timestamp":"2012-04-16T04:56:00Z","uncertainty_Be-7-uncertainty":5.0,"uncertainty_Cs-137-uncertainty":12.0,"uncertainty_Pb-210-uncertainty":16.0},"type":"Feature"},{"geometry":{"coordinates":[27.57,68.64],"type":"Point"},"properties":{"concentration_Be-7":2443.1,"concentration_Pb-210":165.54,"concentration_air-volume":26555.0,"from_timestamp":"2012-04-16T04:59:00Z","id":"103431","site":"Ivalo","to_timestamp":"2012-04-23T07:39:00Z","uncertainty_Be-7-uncertainty":5.0,"uncertainty_Pb-210-uncertainty":13.0},"type":"Feature"},{"geometry":{"coordinates":[27.63414,62.89195],"type":"Point"},"properties":{"concentration_Be-7":2759.99,"concentration_air-volume":8070.0,"from_timestamp":"2012-04-10T05:25:00Z","id":"103432","site":"Kuopio","to_timestamp":"2012-04-12T05:19:00Z","uncertainty_Be-7-uncertainty":6.0},"type":"Feature"},{"geometry":{"coordinates":[27.63414,62.89195],"type":"Point"},"properties":{"concentration_Be-7":1679.22,"concentration_air-volume":15228.0,"from_timestamp":"2012-04-12T05:20:00Z","id":"103432","site":"Kuopio","to_timestamp":"2012-04-16T05:11:00Z","uncertainty_Be-7-uncertainty":6.0},"type":"Feature"},{"geometry":{"coordinates":[27.63414,62.89195],"type":"Point"},"properties":{"concentration_Be-7":724.55,"concentration_air-volume":11939.0,"from_timestamp":"2012-04-16T05:13:00Z","id":"103432","site":"Kuopio","to_timestamp":"2012-04-19T06:31:00Z","uncertainty_Be-7-uncertainty":6.0},"type":"Feature"},{"geometry":{"coordinates":[27.63414,62.89195],"type":"Point"},"properties":{"concentration_Be-7":1263.76,"concentration_Cs-137":1.5,"concentration_air-volume":14452.0,"from_timestamp":"2012-04-19T06:35:00Z","id":"103432","site":"Kuopio","to_timestamp":"2012-04-23T05:10:00Z","uncertainty_Be-7-uncertainty":6.0,"uncertainty_Cs-137-uncertainty":25.0},"type":"Feature"},{"geometry":{"coordinates":[25.67774,66.51285],"type":"Point"},"properties":{"concentration_Be-7":2106.46,"concentration_Cs-137":0.4,"concentration_Na-22":0.29,"concentration_Pb-210":109.99,"concentration_air-volume":79806.0,"from_timestamp":"2012-04-10T06:16:00Z","id":"103433","site":"Rovaniemi","to_timestamp":"2012-04-16T06:56:00Z","uncertainty_Be-7-uncertainty":5.0,"uncertainty_Cs-137-uncertainty":11.0,"uncertainty_Na-22-uncertainty":17.0,"uncertainty_Pb-210-uncertainty":6.0},"type":"Feature"},{"geometry":{"coordinates":[25.67774,66.51285],"type":"Point"},"properties":{"concentration_Be-7":2104.56,"concentration_Cs-137":0.13,"concentration_Na-22":0.39,"concentration_Pb-210":93.39,"concentration_air-volume":94377.0,"from_timestamp":"2012-04-16T06:58:00Z","id":"103433","site":"Rovaniemi","to_timestamp":"2012-04-23T09:25:00Z","uncertainty_Be-7-uncertainty":5.0,"uncertainty_Cs-137-uncertainty":18.0,"uncertainty_Na-22-uncertainty":8.0,"uncertainty_Pb-210-uncertainty":6.0},"type":"Feature"},{"geometry":{"coordinates":[26.62807,67.36505],"type":"Point"},"properties":{"concentration_Be-7":1673.73,"concentration_Cs-137":0.38,"concentration_air-volume":21965.0,"from_timestamp":"2012-04-10T05:53:00Z","id":"103434","site":"Sodankylä","to_timestamp":"2012-04-16T05:55:00Z","uncertainty_Be-7-uncertainty":5.0,"uncertainty_Cs-137-uncertainty":8.0},"type":"Feature"},{"geometry":{"coordinates":[26.62807,67.36505],"type":"Point"},"properties":{"concentration_Be-7":2119.47,"concentration_Na-22":0.34,"concentration_air-volume":25923.0,"from_timestamp":"2012-04-16T05:55:00Z","id":"103434","site":"Sodankylä","to_timestamp":"2012-04-23T06:03:00Z","uncertainty_Be-7-uncertainty":5.0,"uncertainty_Na-22-uncertainty":15.0},"type":"Feature"},{"geometry":{"coordinates":[27.70835,64.08474],"type":"Point"},"properties":{"concentration_Be-7":1224.96,"concentration_Cs-137":0.3,"concentration_Na-22":0.2,"concentration_Pb-210":210.63,"concentration_air-volume":172913.0,"from_timestamp":"2012-04-09T04:50:00Z","id":"103435","site":"Kajaani","to_timestamp":"2012-04-23T05:10:00Z","uncertainty_Be-7-uncertainty":5.0,"uncertainty_Cs-137-uncertainty":9.0,"uncertainty_Na-22-uncertainty":14.0,"uncertainty_Pb-210-uncertainty":5.0},"type":"Feature"},{"geometry":{"coordinates":[25.05385,60.20905],"type":"Point"},"properties":{"concentration_Be-7":3081.94,"concentration_Pb-210":340.35,"concentration_air-volume":31897.0,"from_timestamp":"2012-04-10T07:54:00Z","id":"103428","site":"Helsinki","to_timestamp":"2012-04-12T07:53:00Z","uncertainty_Be-7-uncertainty":5.0,"uncertainty_Pb-210-uncertainty":5.0},"type":"Feature"},{"geometry":{"coordinates":[25.05385,60.20905],"type":"Point"},"properties":{"concentration_Be-7":1911.06,"concentration_Cs-137":0.99,"concentration_air-volume":31615.0,"from_timestamp":"2012-04-12T07:54:00Z","id":"103428","site":"Helsinki","to_timestamp":"2012-04-14T07:54:00Z","uncertainty_Be-7-uncertainty":7.0,"uncertainty_Cs-137-uncertainty":21.0},"type":"Feature"},{"geometry":{"coordinates":[25.05385,60.20905],"type":"Point"},"properties":{"concentration_Be-7":287.39,"concentration_Pb-210":96.17,"concentration_air-volume":16139.0,"from_timestamp":"2012-04-14T07:54:00Z","id":"103428","site":"Helsinki","to_timestamp":"2012-04-15T07:53:00Z","uncertainty_Be-7-uncertainty":5.0,"uncertainty_Pb-210-uncertainty":6.0},"type":"Feature"},{"geometry":{"coordinates":[25.05385,60.20905],"type":"Point"},"properties":{"concentration_Be-7":1040.19,"concentration_Pb-210":193.36,"concentration_air-volume":32279.0,"from_timestamp":"2012-04-15T07:54:00Z","id":"103428","site":"Helsinki","to_timestamp":"2012-04-17T07:53:00Z","uncertainty_Be-7-uncertainty":5.0,"uncertainty_Pb-210-uncertainty":5.0},"type":"Feature"},{"geometry":{"coordinates":[25.05385,60.20905],"type":"Point"},"properties":{"concentration_Be-7":1030.85,"concentration_Cs-137":0.46,"concentration_Pb-210":209.55,"concentration_air-volume":32354.0,"from_timestamp":"2012-04-17T07:54:00Z","id":"103428","site":"Helsinki","to_timestamp":"2012-04-19T07:53:00Z","uncertainty_Be-7-uncertainty":5.0,"uncertainty_Cs-137-uncertainty":26.0,"uncertainty_Pb-210-uncertainty":5.0},"type":"Feature"},{"geometry":{"coordinates":[25.05385,60.20905],"type":"Point"},"properties":{"concentration_Be-7":2396.52,"concentration_Pb-210":305.88,"concentration_air-volume":32142.0,"from_timestamp":"2012-04-19T07:53:00Z","id":"103428","site":"Helsinki","to_timestamp":"2012-04-21T07:55:00Z","uncertainty_Be-7-uncertainty":5.0,"uncertainty_Pb-210-uncertainty":5.0},"type":"Feature"}],"name":"stuk_open_data_air_radionuclides","type":"FeatureCollection"}