{"crs":{"properties":{"name":"urn:ogc:def:crs:OGC:1.3:CRS84"},"type":"name"},"features":[{"geometry":{"coordinates":[25.05385,60.20905],"type":"Point"},"properties":{"concentration_Be-7":2728.76,"concentration_Pb-210":681.63,"concentration_air-volume":15677.0,"from_timestamp":"2012-10-04T07:53:00Z","id":"103428","site":"Helsinki","to_timestamp":"2012-10-05T07:52:00Z","uncertainty_Be-7-uncertainty":5.0,"uncertainty_Pb-210-uncertainty":6.0},"type":"Feature"},{"geometry":{"coordinates":[25.05385,60.20905],"type":"Point"},"properties":{"concentration_Be-7":1415.41,"concentration_Pb-210":253.22,"concentration_air-volume":15983.0,"from_timestamp":"2012-10-05T07:53:00Z","id":"103428","site":"Helsinki","to_timestamp":"2012-10-06T07:52:00Z","uncertainty_Be-7-uncertainty":5.0,"uncertainty_Pb-210-uncertainty":8.0},"type":"Feature"},{"geometry":{"coordinates":[25.05385,60.20905],"type":"Point"},"properties":{"concentration_Be-7":1030.08,"concentration_Pb-210":189.96,"concentration_air-volume":16611.0,"from_timestamp":"2012-10-06T07:53:00Z","id":"103428","site":"Helsinki","to_timestamp":"2012-10-07T07:52:00Z","uncertainty_Be-7-uncertainty":5.0,"uncertainty_Pb-210-uncertainty":9.0},"type":"Feature"},{"geometry":{"coordinates":[25.05385,60.20905],"type":"Point"},"properties":{"concentration_Be-7":1000.53,"concentration_Pb-210":180.78,"concentration_air-volume":16138.0,"from_timestamp":"2012-10-07T07:53:00Z","id":"103428","site":"Helsinki","to_timestamp":"2012-10-08T07:52:00Z","uncertainty_Be-7-uncertainty":5.0,"uncertainty_Pb-210-uncertainty":10.0},"type":"Feature"},{"geometry":{"coordinates":[25.05385,60.20905],"type":"Point"},"properties":{"concentration_Be-7":518.54,"concentration_Pb-210":151.62,"concentration_air-volume":16421.0,"from_timestamp":"2012-10-08T07:53:00Z","id":"103428","site":"Helsinki","to_timestamp":"2012-10-09T07:52:00Z","uncertainty_Be-7-uncertainty":5.0,"uncertainty_Pb-210-uncertainty":12.0},"type":"Feature"},{"geometry":{"coordinates":[25.05385,60.20905],"type":"Point"},"properties":{"concentration_Be-7":918.46,"concentration_Pb-210":157.14,"concentration_air-volume":15919.0,"from_timestamp":"2012-10-09T07:53:00Z","id":"103428","site":"Helsinki","to_timestamp":"2012-10-10T07:52:00Z","uncertainty_Be-7-uncertainty":5.0,"uncertainty_Pb-210-uncertainty":11.0},"type":"Feature"},{"geometry":{"coordinates":[25.05385,60.20905],"type":"Point"},"properties":{"concentration_Be-7":993.91,"concentration_Pb-210":198.52,"concentration_air-volume":16625.0,"from_timestamp":"2012-10-10T07:53:00Z","id":"103428","site":"Helsinki","to_timestamp":"2012-10-11T07:52:00Z","uncertainty_Be-7-uncertainty":5.0,"uncertainty_Pb-210-uncertainty":10.0},"type":"Feature"},{"geometry":{"coordinates":[25.05385,60.20905],"type":"Point"},"properties":{"concentration_Be-7":464.69,"concentration_Cs-137":1.78,"concentration_Pb-210":237.95,"concentration_air-volume":16629.0,"from_timestamp":"2012-10-11T07:53:00Z","id":"103428","site":"Helsinki","to_timestamp":"2012-10-12T07:52:00Z","uncertainty_Be-7-uncertainty":5.0,"uncertainty_Cs-137-uncertainty":25.0,"uncertainty_Pb-210-uncertainty":9.0},"type":"Feature"},{"geometry":{"coordinates":[25.05385,60.20905],"type":"Point"},"properties":{"concentration_Be-7":1108.34,"concentration_Pb-210":193.4,"concentration_air-volume":16298.0,"from_timestamp":"2012-10-12T07:53:00Z","id":"103428","site":"Helsinki","to_timestamp":"2012-10-13T07:52:00Z","uncertainty_Be-7-uncertainty":5.0,"uncertainty_Pb-210-uncertainty":11.0},"type":"Feature"},{"geometry":{"coordinates":[26.91808,60.48318],"type":"Point"},"properties":{"concentration_Be-7":3473.79,"concentration_Cs-137":1.78,"concentration_Na-22":0.43,"concentration_Pb-210":777.53,"concentration_air-volume":46693.0,"from_timestamp":"2012-10-02T04:28:00Z","id":"103429","site":"Kotka","to_timestamp":"2012-10-08T07:18:00Z","uncertainty_Be-7-uncertainty":5.0,"uncertainty_Cs-137-uncertainty":7.0,"uncertainty_Na-22-uncertainty":23.0,"uncertainty_Pb-210-uncertainty":5.0},"type":"Feature"},{"geometry":{"coordinates":[26.91808,60.48318],"type":"Point"},"properties":{"concentration_Be-7":701.43,"concentration_Cs-137":1.97,"concentration_Pb-210":166.15,"concentration_air-volume":141592.0,"from_timestamp":"2012-10-08T07:20:00Z","id":"103429","site":"Kotka","to_timestamp":"2012-10-15T13:15:00Z","uncertainty_Be-7-uncertainty":5.0,"uncertainty_Cs-137-uncertainty":5.0,"uncertainty_Pb-210-uncertainty":5.0},"type":"Feature"},{"geometry":{"coordinates":[28.82663,61.13229],"type":"Point"},"properties":{"concentration_Be-7":1935.37,"concentration_Cs-137":0.73,"concentration_Pb-210":333.9,"concentration_air-volume":26538.0,"from_timestamp":"2012-10-01T06:05:00Z","id":"103430","site":"Imatra","to_timestamp":"2012-10-08T05:20:00Z","uncertainty_Be-7-uncertainty":6.0,"uncertainty_Cs-137-uncertainty":12.0,"uncertainty_Pb-210-uncertainty":20.0},"type":"Feature"},{"geometry":{"coordinates":[28.82663,61.13229],"type":"Point"},"properties":{"concentration_Be-7":864.19,"concentration_Cs-137":0.38,"concentration_Pb-210":183.12,"concentration_air-volume":27048.0,"from_timestamp":"2012-10-08T05:25:00Z","id":"103430","site":"Imatra","to_timestamp":"2012-10-15T05:45:00Z","uncertainty_Be-7-uncertainty":6.0,"uncertainty_Cs-137-uncertainty":17.0,"uncertainty_Pb-210-uncertainty":20.0},"type":"Feature"},{"geometry":{"coordinates":[27.57,68.64],"type":"Point"},"properties":{"concentration_Be-7":1129.86,"concentration_Cs-137":0.24,"concentration_Pb-210":93.68,"concentration_air-volume":25300.0,"from_timestamp":"2012-10-01T04:37:00Z","id":"103431","site":"Ivalo","to_timestamp":"2012-10-08T05:34:00Z","uncertainty_Be-7-uncertainty":5.0,"uncertainty_Cs-137-uncertainty":23.0,"uncertainty_Pb-210-uncertainty":6.0},"type":"Feature"},{"geometry":{"coordinates":[27.57,68.64],"type":"Point"},"properties":{"concentration_Be-7":564.02,"concentration_Pb-210":228.79,"concentration_air-volume":26333.0,"from_timestamp":"2012-10-08T05:36:00Z","id":"103431","site":"Ivalo","to_timestamp":"2012-10-15T10:03:00Z","uncertainty_Be-7-uncertainty":6.0,"uncertainty_Pb-210-uncertainty":14.0},"type":"Feature"},{"geometry":{"coordinates":[27.63414,62.89195],"type":"Point"},"properties":{"concentration_Be-7":1939.06,"concentration_air-volume":15429.0,"from_timestamp":"2012-10-04T05:28:00Z","id":"103432","site":"Kuopio","to_timestamp":"2012-10-08T10:33:00Z","uncertainty_Be-7-uncertainty":6.0},"type":"Feature"},{"geometry":{"coordinates":[27.63414,62.89195],"type":"Point"},"properties":{"concentration_Be-7":856.68,"concentration_air-volume":10343.0,"from_timestamp":"2012-10-08T10:44:00Z","id":"103432","site":"Kuopio","to_timestamp":"2012-10-11T06:54:00Z","uncertainty_Be-7-uncertainty":6.0},"type":"Feature"},{"geometry":{"coordinates":[27.63414,62.89195],"type":"Point"},"properties":{"concentration_Be-7":657.38,"concentration_air-volume":14874.0,"from_timestamp":"2012-10-11T06:55:00Z","id":"103432","site":"Kuopio","to_timestamp":"2012-10-15T05:30:00Z","uncertainty_Be-7-uncertainty":6.0},"type":"Feature"},{"geometry":{"coordinates":[25.67774,66.51285],"type":"Point"},"properties":{"concentration_Be-7":1648.52,"concentration_Cs-137":0.42,"concentration_Na-22":0.18,"concentration_Pb-210":111.54,"concentration_air-volume":88697.0,"from_timestamp":"2012-10-01T08:40:00Z","id":"103433","site":"Rovaniemi","to_timestamp":"2012-10-08T08:23:00Z","uncertainty_Be-7-uncertainty":5.0,"uncertainty_Cs-137-uncertainty":8.0,"uncertainty_Na-22-uncertainty":13.0,"uncertainty_Pb-210-uncertainty":5.0},"type":"Feature"},{"geometry":{"coordinates":[25.67774,66.51285],"type":"Point"},"properties":{"concentration_Be-7":547.14,"concentration_Cs-137":0.15,"concentration_Pb-210":64.98,"concentration_air-volume":90249.0,"from_timestamp":"2012-10-08T08:26:00Z","id":"103433","site":"Rovaniemi","to_timestamp":"2012-10-15T08:32:00Z","uncertainty_Be-7-uncertainty":5.0,"uncertainty_Cs-137-uncertainty":16.0,"uncertainty_Pb-210-uncertainty":5.0},"type":"Feature"},{"geometry":{"coordinates":[26.62807,67.36505],"type":"Point"},"properties":{"concentration_Be-7":1321.18,"concentration_Cs-137":0.43,"concentration_Pb-210":82.2,"concentration_air-volume":25208.0,"from_timestamp":"2012-10-01T05:53:00Z","id":"103434","site":"Sodankylä","to_timestamp":"2012-10-08T06:01:00Z","uncertainty_Be-7-uncertainty":5.0,"uncertainty_Cs-137-uncertainty":16.0,"uncertainty_Pb-210-uncertainty":22.0},"type":"Feature"},{"geometry":{"coordinates":[26.62807,67.36505],"type":"Point"},"properties":{"concentration_Be-7":459.5,"concentration_Cs-137":0.34,"concentration_air-volume":25608.0,"from_timestamp":"2012-10-08T06:04:00Z","id":"103434","site":"Sodankylä","to_timestamp":"2012-10-15T05:52:00Z","uncertainty_Be-7-uncertainty":5.0,"uncertainty_Cs-137-uncertainty":13.0},"type":"Feature"},{"geometry":{"coordinates":[27.70835,64.08474],"type":"Point"},"properties":{"concentration_Be-7":1369.22,"concentration_Cs-137":0.63,"concentration_Pb-210":240.84,"concentration_air-volume":85004.0,"from_timestamp":"2012-10-01T04:10:00Z","id":"103435","site":"Kajaani","to_timestamp":"2012-10-08T11:00:00Z","uncertainty_Be-7-uncertainty":5.0,"uncertainty_Cs-137-uncertainty":8.0,"uncertainty_Pb-210-uncertainty":5.0},"type":"Feature"}],"name":"stuk_open_data_air_radionuclides","type":"FeatureCollection"}