{"crs":{"properties":{"name":"urn:ogc:def:crs:OGC:1.3:CRS84"},"type":"name"},"features":[{"geometry":{"coordinates":[25.05385,60.20905],"type":"Point"},"properties":{"concentration_Be-7":1356.64,"concentration_Cs-137":1.0,"concentration_air-volume":31811.0,"from_timestamp":"2012-06-06T07:54:00Z","id":"103428","site":"Helsinki","to_timestamp":"2012-06-08T07:53:00Z","uncertainty_Be-7-uncertainty":7.0,"uncertainty_Cs-137-uncertainty":20.0},"type":"Feature"},{"geometry":{"coordinates":[25.05385,60.20905],"type":"Point"},"properties":{"concentration_Be-7":2388.24,"concentration_Pb-210":321.18,"concentration_air-volume":31597.0,"from_timestamp":"2012-06-08T07:54:00Z","id":"103428","site":"Helsinki","to_timestamp":"2012-06-10T07:53:00Z","uncertainty_Be-7-uncertainty":5.0,"uncertainty_Pb-210-uncertainty":5.0},"type":"Feature"},{"geometry":{"coordinates":[25.05385,60.20905],"type":"Point"},"properties":{"concentration_Be-7":2107.97,"concentration_Pb-210":213.77,"concentration_air-volume":31406.0,"from_timestamp":"2012-06-10T07:54:00Z","id":"103428","site":"Helsinki","to_timestamp":"2012-06-12T07:53:00Z","uncertainty_Be-7-uncertainty":5.0,"uncertainty_Pb-210-uncertainty":6.0},"type":"Feature"},{"geometry":{"coordinates":[25.05385,60.20905],"type":"Point"},"properties":{"concentration_Be-7":3224.6,"concentration_Cs-137":1.22,"concentration_air-volume":14369.0,"from_timestamp":"2012-06-12T07:54:00Z","id":"103428","site":"Helsinki","to_timestamp":"2012-06-13T09:40:00Z","uncertainty_Be-7-uncertainty":7.0,"uncertainty_Cs-137-uncertainty":18.0},"type":"Feature"},{"geometry":{"coordinates":[26.91808,60.48318],"type":"Point"},"properties":{"concentration_Be-7":4448.37,"concentration_Cs-137":4.71,"concentration_Na-22":0.6,"concentration_air-volume":196291.0,"from_timestamp":"2012-06-04T10:35:00Z","id":"103429","site":"Kotka","to_timestamp":"2012-06-18T06:53:00Z","uncertainty_Be-7-uncertainty":6.0,"uncertainty_Cs-137-uncertainty":6.0,"uncertainty_Na-22-uncertainty":12.0},"type":"Feature"},{"geometry":{"coordinates":[28.82663,61.13229],"type":"Point"},"properties":{"concentration_Be-7":2652.54,"concentration_Cs-137":2.2,"concentration_Pb-210":101.36,"concentration_air-volume":26114.0,"from_timestamp":"2012-06-04T06:25:00Z","id":"103430","site":"Imatra","to_timestamp":"2012-06-11T06:50:00Z","uncertainty_Be-7-uncertainty":6.0,"uncertainty_Cs-137-uncertainty":8.0,"uncertainty_Pb-210-uncertainty":17.0},"type":"Feature"},{"geometry":{"coordinates":[28.82663,61.13229],"type":"Point"},"properties":{"concentration_Be-7":3233.98,"concentration_Cs-137":0.75,"concentration_Pb-210":227.4,"concentration_air-volume":25829.0,"from_timestamp":"2012-06-11T06:55:00Z","id":"103430","site":"Imatra","to_timestamp":"2012-06-18T05:50:00Z","uncertainty_Be-7-uncertainty":6.0,"uncertainty_Cs-137-uncertainty":17.0,"uncertainty_Pb-210-uncertainty":20.0},"type":"Feature"},{"geometry":{"coordinates":[27.57,68.64],"type":"Point"},"properties":{"concentration_Be-7":1946.34,"concentration_Pb-210":63.05,"concentration_air-volume":24734.0,"from_timestamp":"2012-06-04T09:49:00Z","id":"103431","site":"Ivalo","to_timestamp":"2012-06-11T05:46:00Z","uncertainty_Be-7-uncertainty":5.0,"uncertainty_Pb-210-uncertainty":5.0},"type":"Feature"},{"geometry":{"coordinates":[27.57,68.64],"type":"Point"},"properties":{"concentration_Be-7":1719.83,"concentration_Pb-210":137.48,"concentration_air-volume":24885.0,"from_timestamp":"2012-06-11T05:47:00Z","id":"103431","site":"Ivalo","to_timestamp":"2012-06-18T04:38:00Z","uncertainty_Be-7-uncertainty":5.0,"uncertainty_Pb-210-uncertainty":5.0},"type":"Feature"},{"geometry":{"coordinates":[27.63414,62.89195],"type":"Point"},"properties":{"concentration_Be-7":2667.29,"concentration_air-volume":11396.0,"from_timestamp":"2012-06-04T05:21:00Z","id":"103432","site":"Kuopio","to_timestamp":"2012-06-07T05:33:00Z","uncertainty_Be-7-uncertainty":6.0},"type":"Feature"},{"geometry":{"coordinates":[27.63414,62.89195],"type":"Point"},"properties":{"concentration_Be-7":2371.51,"concentration_Cs-137":1.73,"concentration_air-volume":15008.0,"from_timestamp":"2012-06-07T05:34:00Z","id":"103432","site":"Kuopio","to_timestamp":"2012-06-11T05:22:00Z","uncertainty_Be-7-uncertainty":6.0,"uncertainty_Cs-137-uncertainty":21.0},"type":"Feature"},{"geometry":{"coordinates":[27.63414,62.89195],"type":"Point"},"properties":{"concentration_Be-7":3260.91,"concentration_Cs-137":4.92,"concentration_air-volume":11374.0,"from_timestamp":"2012-06-11T05:23:00Z","id":"103432","site":"Kuopio","to_timestamp":"2012-06-14T07:12:00Z","uncertainty_Be-7-uncertainty":6.0,"uncertainty_Cs-137-uncertainty":12.0},"type":"Feature"},{"geometry":{"coordinates":[27.63414,62.89195],"type":"Point"},"properties":{"concentration_Be-7":4399.85,"concentration_air-volume":14875.0,"from_timestamp":"2012-06-14T07:13:00Z","id":"103432","site":"Kuopio","to_timestamp":"2012-06-18T06:48:00Z","uncertainty_Be-7-uncertainty":6.0},"type":"Feature"},{"geometry":{"coordinates":[25.67774,66.51285],"type":"Point"},"properties":{"concentration_Be-7":2275.42,"concentration_Cs-137":0.22,"concentration_Na-22":0.42,"concentration_Pb-210":80.05,"concentration_air-volume":88851.0,"from_timestamp":"2012-06-04T06:40:00Z","id":"103433","site":"Rovaniemi","to_timestamp":"2012-06-11T07:15:00Z","uncertainty_Be-7-uncertainty":5.0,"uncertainty_Cs-137-uncertainty":12.0,"uncertainty_Na-22-uncertainty":13.0,"uncertainty_Pb-210-uncertainty":5.0},"type":"Feature"},{"geometry":{"coordinates":[25.67774,66.51285],"type":"Point"},"properties":{"concentration_Be-7":2903.09,"concentration_Cs-137":0.57,"concentration_Na-22":0.52,"concentration_Pb-210":139.69,"concentration_air-volume":85102.0,"from_timestamp":"2012-06-11T07:19:00Z","id":"103433","site":"Rovaniemi","to_timestamp":"2012-06-18T06:36:00Z","uncertainty_Be-7-uncertainty":5.0,"uncertainty_Cs-137-uncertainty":6.0,"uncertainty_Na-22-uncertainty":10.0,"uncertainty_Pb-210-uncertainty":6.0},"type":"Feature"},{"geometry":{"coordinates":[26.62807,67.36505],"type":"Point"},"properties":{"concentration_Be-7":2385.49,"concentration_Cs-137":0.37,"concentration_Na-22":0.66,"concentration_Pb-210":182.05,"concentration_air-volume":25032.0,"from_timestamp":"2012-06-04T06:12:00Z","id":"103434","site":"Sodankylä","to_timestamp":"2012-06-11T05:58:00Z","uncertainty_Be-7-uncertainty":4.0,"uncertainty_Cs-137-uncertainty":30.0,"uncertainty_Na-22-uncertainty":21.0,"uncertainty_Pb-210-uncertainty":18.0},"type":"Feature"},{"geometry":{"coordinates":[26.62807,67.36505],"type":"Point"},"properties":{"concentration_Be-7":2975.88,"concentration_Cs-137":0.54,"concentration_Na-22":0.67,"concentration_Pb-210":388.13,"concentration_air-volume":24767.0,"from_timestamp":"2012-06-11T06:03:00Z","id":"103434","site":"Sodankylä","to_timestamp":"2012-06-18T05:40:00Z","uncertainty_Be-7-uncertainty":5.0,"uncertainty_Cs-137-uncertainty":20.0,"uncertainty_Na-22-uncertainty":24.0,"uncertainty_Pb-210-uncertainty":10.0},"type":"Feature"},{"geometry":{"coordinates":[27.70835,64.08474],"type":"Point"},"properties":{"concentration_Be-7":1418.67,"concentration_Cs-137":1.74,"concentration_Na-22":0.31,"concentration_Pb-210":149.02,"concentration_air-volume":79932.0,"from_timestamp":"2012-06-04T06:27:00Z","id":"103435","site":"Kajaani","to_timestamp":"2012-06-11T04:22:00Z","uncertainty_Be-7-uncertainty":5.0,"uncertainty_Cs-137-uncertainty":8.0,"uncertainty_Na-22-uncertainty":29.0,"uncertainty_Pb-210-uncertainty":5.0},"type":"Feature"},{"geometry":{"coordinates":[27.70835,64.08474],"type":"Point"},"properties":{"concentration_Be-7":2475.86,"concentration_Cs-137":1.4,"concentration_Na-22":0.49,"concentration_Pb-210":238.55,"concentration_air-volume":88846.0,"from_timestamp":"2012-06-11T04:26:00Z","id":"103435","site":"Kajaani","to_timestamp":"2012-06-18T15:29:00Z","uncertainty_Be-7-uncertainty":5.0,"uncertainty_Cs-137-uncertainty":8.0,"uncertainty_Na-22-uncertainty":18.0,"uncertainty_Pb-210-uncertainty":5.0},"type":"Feature"}],"name":"stuk_open_data_air_radionuclides","type":"FeatureCollection"}