{"crs":{"properties":{"name":"urn:ogc:def:crs:OGC:1.3:CRS84"},"type":"name"},"features":[{"geometry":{"coordinates":[25.05385,60.20905],"type":"Point"},"properties":{"concentration_Be-7":4259.11,"concentration_Cs-137":9.88,"concentration_Pb-210":341.34,"concentration_air-volume":31166.0,"from_timestamp":"2012-05-21T07:54:00Z","id":"103428","site":"Helsinki","to_timestamp":"2012-05-23T07:53:00Z","uncertainty_Be-7-uncertainty":5.0,"uncertainty_Cs-137-uncertainty":6.0,"uncertainty_Pb-210-uncertainty":5.0},"type":"Feature"},{"geometry":{"coordinates":[25.05385,60.20905],"type":"Point"},"properties":{"concentration_Be-7":2876.58,"concentration_Cs-137":6.79,"concentration_air-volume":32034.0,"from_timestamp":"2012-05-23T07:54:00Z","id":"103428","site":"Helsinki","to_timestamp":"2012-05-25T07:53:00Z","uncertainty_Be-7-uncertainty":7.0,"uncertainty_Cs-137-uncertainty":8.0},"type":"Feature"},{"geometry":{"coordinates":[25.05385,60.20905],"type":"Point"},"properties":{"concentration_Be-7":2952.36,"concentration_Cs-137":9.87,"concentration_Pb-210":238.42,"concentration_air-volume":31425.0,"from_timestamp":"2012-05-25T07:54:00Z","id":"103428","site":"Helsinki","to_timestamp":"2012-05-27T07:53:00Z","uncertainty_Be-7-uncertainty":5.0,"uncertainty_Cs-137-uncertainty":7.0,"uncertainty_Pb-210-uncertainty":5.0},"type":"Feature"},{"geometry":{"coordinates":[25.05385,60.20905],"type":"Point"},"properties":{"concentration_Be-7":2418.77,"concentration_Cs-137":3.13,"concentration_Pb-210":194.12,"concentration_air-volume":31683.0,"from_timestamp":"2012-05-27T07:54:00Z","id":"103428","site":"Helsinki","to_timestamp":"2012-05-29T07:53:00Z","uncertainty_Be-7-uncertainty":5.0,"uncertainty_Cs-137-uncertainty":9.0,"uncertainty_Pb-210-uncertainty":5.0},"type":"Feature"},{"geometry":{"coordinates":[25.05385,60.20905],"type":"Point"},"properties":{"concentration_Be-7":2117.92,"concentration_Cs-137":2.12,"concentration_air-volume":32178.0,"from_timestamp":"2012-05-29T07:54:00Z","id":"103428","site":"Helsinki","to_timestamp":"2012-05-31T07:53:00Z","uncertainty_Be-7-uncertainty":5.0,"uncertainty_Cs-137-uncertainty":8.0},"type":"Feature"},{"geometry":{"coordinates":[26.91808,60.48318],"type":"Point"},"properties":{"concentration_Be-7":5682.17,"concentration_Cs-137":10.02,"concentration_Na-22":0.84,"concentration_air-volume":99847.0,"from_timestamp":"2012-05-21T06:14:00Z","id":"103429","site":"Kotka","to_timestamp":"2012-05-28T07:12:00Z","uncertainty_Be-7-uncertainty":6.0,"uncertainty_Cs-137-uncertainty":6.0,"uncertainty_Na-22-uncertainty":10.0},"type":"Feature"},{"geometry":{"coordinates":[26.91808,60.48318],"type":"Point"},"properties":{"concentration_Be-7":2563.34,"concentration_Cs-137":4.04,"concentration_Na-22":0.31,"concentration_Pb-210":172.42,"concentration_air-volume":101334.0,"from_timestamp":"2012-05-28T07:12:00Z","id":"103429","site":"Kotka","to_timestamp":"2012-06-04T10:30:00Z","uncertainty_Be-7-uncertainty":5.0,"uncertainty_Cs-137-uncertainty":5.0,"uncertainty_Na-22-uncertainty":15.0,"uncertainty_Pb-210-uncertainty":5.0},"type":"Feature"},{"geometry":{"coordinates":[28.82663,61.13229],"type":"Point"},"properties":{"concentration_Be-7":3455.66,"concentration_Cs-137":0.97,"concentration_air-volume":26332.0,"from_timestamp":"2012-05-21T07:20:00Z","id":"103430","site":"Imatra","to_timestamp":"2012-05-28T07:05:00Z","uncertainty_Be-7-uncertainty":6.0,"uncertainty_Cs-137-uncertainty":12.0},"type":"Feature"},{"geometry":{"coordinates":[28.82663,61.13229],"type":"Point"},"properties":{"concentration_Be-7":3128.54,"concentration_Cs-137":1.2,"concentration_Pb-210":54.32,"concentration_air-volume":26451.0,"from_timestamp":"2012-05-28T07:10:00Z","id":"103430","site":"Imatra","to_timestamp":"2012-06-04T06:20:00Z","uncertainty_Be-7-uncertainty":6.0,"uncertainty_Cs-137-uncertainty":11.0,"uncertainty_Pb-210-uncertainty":28.0},"type":"Feature"},{"geometry":{"coordinates":[27.57,68.64],"type":"Point"},"properties":{"concentration_Be-7":2465.76,"concentration_Pb-210":96.88,"concentration_air-volume":25143.0,"from_timestamp":"2012-05-21T06:06:00Z","id":"103431","site":"Ivalo","to_timestamp":"2012-05-28T05:00:00Z","uncertainty_Be-7-uncertainty":5.0,"uncertainty_Pb-210-uncertainty":6.0},"type":"Feature"},{"geometry":{"coordinates":[27.57,68.64],"type":"Point"},"properties":{"concentration_Be-7":2163.0,"concentration_Pb-210":59.41,"concentration_air-volume":25984.0,"from_timestamp":"2012-05-28T05:02:00Z","id":"103431","site":"Ivalo","to_timestamp":"2012-06-04T09:45:00Z","uncertainty_Be-7-uncertainty":5.0,"uncertainty_Pb-210-uncertainty":5.0},"type":"Feature"},{"geometry":{"coordinates":[27.63414,62.89195],"type":"Point"},"properties":{"concentration_Be-7":4278.15,"concentration_Cs-137":2.63,"concentration_air-volume":11536.0,"from_timestamp":"2012-05-21T05:32:00Z","id":"103432","site":"Kuopio","to_timestamp":"2012-05-24T05:36:00Z","uncertainty_Be-7-uncertainty":6.0,"uncertainty_Cs-137-uncertainty":19.0},"type":"Feature"},{"geometry":{"coordinates":[27.63414,62.89195],"type":"Point"},"properties":{"concentration_Be-7":3027.33,"concentration_Cs-137":6.37,"concentration_air-volume":15277.0,"from_timestamp":"2012-05-24T05:37:00Z","id":"103432","site":"Kuopio","to_timestamp":"2012-05-28T05:25:00Z","uncertainty_Be-7-uncertainty":6.0,"uncertainty_Cs-137-uncertainty":9.0},"type":"Feature"},{"geometry":{"coordinates":[27.63414,62.89195],"type":"Point"},"properties":{"concentration_Be-7":2799.67,"concentration_Cs-137":3.51,"concentration_air-volume":11396.0,"from_timestamp":"2012-05-28T05:26:00Z","id":"103432","site":"Kuopio","to_timestamp":"2012-05-31T05:23:00Z","uncertainty_Be-7-uncertainty":6.0,"uncertainty_Cs-137-uncertainty":15.0},"type":"Feature"},{"geometry":{"coordinates":[25.67774,66.51285],"type":"Point"},"properties":{"concentration_Be-7":2697.54,"concentration_Cs-137":0.46,"concentration_Na-22":0.53,"concentration_Pb-210":98.5,"concentration_air-volume":86638.0,"from_timestamp":"2012-05-21T08:49:00Z","id":"103433","site":"Rovaniemi","to_timestamp":"2012-05-28T06:46:00Z","uncertainty_Be-7-uncertainty":5.0,"uncertainty_Cs-137-uncertainty":8.0,"uncertainty_Na-22-uncertainty":12.0,"uncertainty_Pb-210-uncertainty":11.0},"type":"Feature"},{"geometry":{"coordinates":[25.67774,66.51285],"type":"Point"},"properties":{"concentration_Be-7":2579.37,"concentration_Cs-137":0.21,"concentration_Na-22":0.43,"concentration_Pb-210":62.3,"concentration_air-volume":89033.0,"from_timestamp":"2012-05-28T06:49:00Z","id":"103433","site":"Rovaniemi","to_timestamp":"2012-06-04T06:28:00Z","uncertainty_Be-7-uncertainty":5.0,"uncertainty_Cs-137-uncertainty":13.0,"uncertainty_Na-22-uncertainty":13.0,"uncertainty_Pb-210-uncertainty":5.0},"type":"Feature"},{"geometry":{"coordinates":[26.62807,67.36505],"type":"Point"},"properties":{"concentration_Be-7":2732.9,"concentration_Pb-210":139.77,"concentration_air-volume":25219.0,"from_timestamp":"2012-05-21T05:56:00Z","id":"103434","site":"Sodankylä","to_timestamp":"2012-05-28T05:51:00Z","uncertainty_Be-7-uncertainty":5.0,"uncertainty_Pb-210-uncertainty":15.0},"type":"Feature"},{"geometry":{"coordinates":[26.62807,67.36505],"type":"Point"},"properties":{"concentration_Be-7":2351.55,"concentration_Na-22":0.6,"concentration_Pb-210":203.83,"concentration_air-volume":25233.0,"from_timestamp":"2012-05-28T05:52:00Z","id":"103434","site":"Sodankylä","to_timestamp":"2012-06-04T06:06:00Z","uncertainty_Be-7-uncertainty":4.0,"uncertainty_Na-22-uncertainty":29.0,"uncertainty_Pb-210-uncertainty":16.0},"type":"Feature"},{"geometry":{"coordinates":[27.70835,64.08474],"type":"Point"},"properties":{"concentration_Be-7":2492.28,"concentration_Cs-137":1.02,"concentration_Na-22":0.35,"concentration_Pb-210":195.42,"concentration_air-volume":83982.0,"from_timestamp":"2012-05-21T07:05:00Z","id":"103435","site":"Kajaani","to_timestamp":"2012-05-28T07:28:00Z","uncertainty_Be-7-uncertainty":5.0,"uncertainty_Cs-137-uncertainty":7.0,"uncertainty_Na-22-uncertainty":15.0,"uncertainty_Pb-210-uncertainty":5.0},"type":"Feature"},{"geometry":{"coordinates":[27.70835,64.08474],"type":"Point"},"properties":{"concentration_Be-7":2848.48,"concentration_Cs-137":0.72,"concentration_Na-22":0.44,"concentration_air-volume":81835.0,"from_timestamp":"2012-05-28T07:30:00Z","id":"103435","site":"Kajaani","to_timestamp":"2012-06-04T06:23:00Z","uncertainty_Be-7-uncertainty":7.0,"uncertainty_Cs-137-uncertainty":9.0,"uncertainty_Na-22-uncertainty":16.0},"type":"Feature"}],"name":"stuk_open_data_air_radionuclides","type":"FeatureCollection"}