{"crs":{"properties":{"name":"urn:ogc:def:crs:OGC:1.3:CRS84"},"type":"name"},"features":[{"geometry":{"coordinates":[25.05385,60.20905],"type":"Point"},"properties":{"concentration_Be-7":3770.38,"concentration_Pb-210":264.24,"concentration_air-volume":32421.0,"from_timestamp":"2012-04-27T07:54:00Z","id":"103428","site":"Helsinki","to_timestamp":"2012-04-29T07:53:00Z","uncertainty_Be-7-uncertainty":5.0,"uncertainty_Pb-210-uncertainty":5.0},"type":"Feature"},{"geometry":{"coordinates":[25.05385,60.20905],"type":"Point"},"properties":{"concentration_Be-7":1734.96,"concentration_Pb-210":199.73,"concentration_air-volume":32166.0,"from_timestamp":"2012-04-29T07:54:00Z","id":"103428","site":"Helsinki","to_timestamp":"2012-05-01T07:53:00Z","uncertainty_Be-7-uncertainty":5.0,"uncertainty_Pb-210-uncertainty":5.0},"type":"Feature"},{"geometry":{"coordinates":[25.05385,60.20905],"type":"Point"},"properties":{"concentration_Be-7":4205.43,"concentration_Cs-137":0.63,"concentration_Na-22":0.71,"concentration_Pb-210":88.56,"concentration_air-volume":32206.0,"from_timestamp":"2012-05-01T07:54:00Z","id":"103428","site":"Helsinki","to_timestamp":"2012-05-03T07:53:00Z","uncertainty_Be-7-uncertainty":5.0,"uncertainty_Cs-137-uncertainty":17.0,"uncertainty_Na-22-uncertainty":23.0,"uncertainty_Pb-210-uncertainty":20.0},"type":"Feature"},{"geometry":{"coordinates":[25.05385,60.20905],"type":"Point"},"properties":{"concentration_Be-7":2303.84,"concentration_Pb-210":121.41,"concentration_air-volume":31915.0,"from_timestamp":"2012-05-03T07:54:00Z","id":"103428","site":"Helsinki","to_timestamp":"2012-05-05T07:53:00Z","uncertainty_Be-7-uncertainty":5.0,"uncertainty_Pb-210-uncertainty":6.0},"type":"Feature"},{"geometry":{"coordinates":[25.05385,60.20905],"type":"Point"},"properties":{"concentration_Be-7":2598.76,"concentration_Pb-210":234.56,"concentration_air-volume":32254.0,"from_timestamp":"2012-05-05T07:54:00Z","id":"103428","site":"Helsinki","to_timestamp":"2012-05-07T07:53:00Z","uncertainty_Be-7-uncertainty":5.0,"uncertainty_Pb-210-uncertainty":5.0},"type":"Feature"},{"geometry":{"coordinates":[26.91808,60.48318],"type":"Point"},"properties":{"concentration_Be-7":2403.18,"concentration_Cs-137":1.63,"concentration_Na-22":0.44,"concentration_Pb-210":334.67,"concentration_air-volume":101032.0,"from_timestamp":"2012-04-23T08:10:00Z","id":"103429","site":"Kotka","to_timestamp":"2012-04-30T08:16:00Z","uncertainty_Be-7-uncertainty":5.0,"uncertainty_Cs-137-uncertainty":6.0,"uncertainty_Na-22-uncertainty":13.0,"uncertainty_Pb-210-uncertainty":5.0},"type":"Feature"},{"geometry":{"coordinates":[26.91808,60.48318],"type":"Point"},"properties":{"concentration_Be-7":2591.46,"concentration_Cs-137":1.6,"concentration_Na-22":0.55,"concentration_Pb-210":173.52,"concentration_air-volume":101791.0,"from_timestamp":"2012-04-30T08:16:00Z","id":"103429","site":"Kotka","to_timestamp":"2012-05-07T12:30:00Z","uncertainty_Be-7-uncertainty":5.0,"uncertainty_Cs-137-uncertainty":6.0,"uncertainty_Na-22-uncertainty":11.0,"uncertainty_Pb-210-uncertainty":5.0},"type":"Feature"},{"geometry":{"coordinates":[28.82663,61.13229],"type":"Point"},"properties":{"concentration_Be-7":1840.42,"concentration_Cs-137":0.39,"concentration_Na-22":0.55,"concentration_Pb-210":266.19,"concentration_air-volume":27552.0,"from_timestamp":"2012-04-23T06:30:00Z","id":"103430","site":"Imatra","to_timestamp":"2012-04-30T08:50:00Z","uncertainty_Be-7-uncertainty":5.0,"uncertainty_Cs-137-uncertainty":24.0,"uncertainty_Na-22-uncertainty":26.0,"uncertainty_Pb-210-uncertainty":5.0},"type":"Feature"},{"geometry":{"coordinates":[28.82663,61.13229],"type":"Point"},"properties":{"concentration_Be-7":3731.17,"concentration_Cs-137":0.68,"concentration_Na-22":0.63,"concentration_Pb-210":67.55,"concentration_air-volume":37563.0,"from_timestamp":"2012-04-30T08:50:00Z","id":"103430","site":"Imatra","to_timestamp":"2012-05-10T05:40:00Z","uncertainty_Be-7-uncertainty":6.0,"uncertainty_Cs-137-uncertainty":13.0,"uncertainty_Na-22-uncertainty":22.0,"uncertainty_Pb-210-uncertainty":19.0},"type":"Feature"},{"geometry":{"coordinates":[27.57,68.64],"type":"Point"},"properties":{"concentration_Be-7":985.35,"concentration_Pb-210":119.94,"concentration_air-volume":26154.0,"from_timestamp":"2012-04-23T07:43:00Z","id":"103431","site":"Ivalo","to_timestamp":"2012-04-30T09:32:00Z","uncertainty_Be-7-uncertainty":5.0,"uncertainty_Pb-210-uncertainty":15.0},"type":"Feature"},{"geometry":{"coordinates":[27.57,68.64],"type":"Point"},"properties":{"concentration_Be-7":2399.57,"concentration_Pb-210":138.59,"concentration_air-volume":25561.0,"from_timestamp":"2012-04-30T09:40:00Z","id":"103431","site":"Ivalo","to_timestamp":"2012-05-07T07:06:00Z","uncertainty_Be-7-uncertainty":5.0,"uncertainty_Pb-210-uncertainty":16.0},"type":"Feature"},{"geometry":{"coordinates":[27.63414,62.89195],"type":"Point"},"properties":{"concentration_Be-7":2246.07,"concentration_air-volume":15082.0,"from_timestamp":"2012-04-26T06:01:00Z","id":"103432","site":"Kuopio","to_timestamp":"2012-04-30T04:58:00Z","uncertainty_Be-7-uncertainty":6.0},"type":"Feature"},{"geometry":{"coordinates":[27.63414,62.89195],"type":"Point"},"properties":{"concentration_Be-7":3492.37,"concentration_air-volume":12079.0,"from_timestamp":"2012-04-30T05:01:00Z","id":"103432","site":"Kuopio","to_timestamp":"2012-05-03T07:02:00Z","uncertainty_Be-7-uncertainty":6.0},"type":"Feature"},{"geometry":{"coordinates":[27.63414,62.89195],"type":"Point"},"properties":{"concentration_Be-7":2064.11,"concentration_air-volume":15277.0,"from_timestamp":"2012-05-03T07:03:00Z","id":"103432","site":"Kuopio","to_timestamp":"2012-05-07T05:26:00Z","uncertainty_Be-7-uncertainty":6.0},"type":"Feature"},{"geometry":{"coordinates":[25.67774,66.51285],"type":"Point"},"properties":{"concentration_Be-7":1000.07,"concentration_Cs-137":0.17,"concentration_Pb-210":82.59,"concentration_air-volume":89057.0,"from_timestamp":"2012-04-23T09:27:00Z","id":"103433","site":"Rovaniemi","to_timestamp":"2012-04-30T07:36:00Z","uncertainty_Be-7-uncertainty":5.0,"uncertainty_Cs-137-uncertainty":15.0,"uncertainty_Pb-210-uncertainty":5.0},"type":"Feature"},{"geometry":{"coordinates":[25.67774,66.51285],"type":"Point"},"properties":{"concentration_Be-7":1822.26,"concentration_Cs-137":0.15,"concentration_Na-22":0.29,"concentration_Pb-210":72.03,"concentration_air-volume":88788.0,"from_timestamp":"2012-04-30T07:41:00Z","id":"103433","site":"Rovaniemi","to_timestamp":"2012-05-07T08:30:00Z","uncertainty_Be-7-uncertainty":5.0,"uncertainty_Cs-137-uncertainty":16.0,"uncertainty_Na-22-uncertainty":18.0,"uncertainty_Pb-210-uncertainty":5.0},"type":"Feature"},{"geometry":{"coordinates":[26.62807,67.36505],"type":"Point"},"properties":{"concentration_Be-7":767.75,"concentration_Pb-210":102.51,"concentration_air-volume":25646.0,"from_timestamp":"2012-04-23T06:07:00Z","id":"103434","site":"Sodankylä","to_timestamp":"2012-04-30T05:56:00Z","uncertainty_Be-7-uncertainty":5.0,"uncertainty_Pb-210-uncertainty":25.0},"type":"Feature"},{"geometry":{"coordinates":[26.62807,67.36505],"type":"Point"},"properties":{"concentration_Be-7":2330.93,"concentration_Pb-210":109.08,"concentration_air-volume":25662.0,"from_timestamp":"2012-04-30T05:57:00Z","id":"103434","site":"Sodankylä","to_timestamp":"2012-05-07T05:54:00Z","uncertainty_Be-7-uncertainty":5.0,"uncertainty_Pb-210-uncertainty":5.0},"type":"Feature"},{"geometry":{"coordinates":[27.70835,64.08474],"type":"Point"},"properties":{"concentration_Be-7":1503.36,"concentration_Cs-137":0.34,"concentration_Pb-210":188.46,"concentration_air-volume":109678.0,"from_timestamp":"2012-04-23T05:16:00Z","id":"103435","site":"Kajaani","to_timestamp":"2012-05-02T07:27:00Z","uncertainty_Be-7-uncertainty":5.0,"uncertainty_Cs-137-uncertainty":11.0,"uncertainty_Pb-210-uncertainty":5.0},"type":"Feature"},{"geometry":{"coordinates":[27.70835,64.08474],"type":"Point"},"properties":{"concentration_Be-7":1518.61,"concentration_Cs-137":0.26,"concentration_air-volume":58667.0,"from_timestamp":"2012-05-02T07:27:00Z","id":"103435","site":"Kajaani","to_timestamp":"2012-05-07T07:42:00Z","uncertainty_Be-7-uncertainty":7.0,"uncertainty_Cs-137-uncertainty":19.0},"type":"Feature"},{"geometry":{"coordinates":[25.05385,60.20905],"type":"Point"},"properties":{"concentration_Be-7":3770.38,"concentration_Pb-210":264.24,"concentration_air-volume":32421.0,"from_timestamp":"2012-04-27T07:54:00Z","id":"103428","site":"Helsinki","to_timestamp":"2012-04-29T07:53:00Z","uncertainty_Be-7-uncertainty":5.0,"uncertainty_Pb-210-uncertainty":5.0},"type":"Feature"},{"geometry":{"coordinates":[25.05385,60.20905],"type":"Point"},"properties":{"concentration_Be-7":1734.96,"concentration_Pb-210":199.73,"concentration_air-volume":32166.0,"from_timestamp":"2012-04-29T07:54:00Z","id":"103428","site":"Helsinki","to_timestamp":"2012-05-01T07:53:00Z","uncertainty_Be-7-uncertainty":5.0,"uncertainty_Pb-210-uncertainty":5.0},"type":"Feature"},{"geometry":{"coordinates":[25.05385,60.20905],"type":"Point"},"properties":{"concentration_Be-7":4205.43,"concentration_Cs-137":0.63,"concentration_Na-22":0.71,"concentration_Pb-210":88.56,"concentration_air-volume":32206.0,"from_timestamp":"2012-05-01T07:54:00Z","id":"103428","site":"Helsinki","to_timestamp":"2012-05-03T07:53:00Z","uncertainty_Be-7-uncertainty":5.0,"uncertainty_Cs-137-uncertainty":17.0,"uncertainty_Na-22-uncertainty":23.0,"uncertainty_Pb-210-uncertainty":20.0},"type":"Feature"},{"geometry":{"coordinates":[25.05385,60.20905],"type":"Point"},"properties":{"concentration_Be-7":2303.84,"concentration_Pb-210":121.41,"concentration_air-volume":31915.0,"from_timestamp":"2012-05-03T07:54:00Z","id":"103428","site":"Helsinki","to_timestamp":"2012-05-05T07:53:00Z","uncertainty_Be-7-uncertainty":5.0,"uncertainty_Pb-210-uncertainty":6.0},"type":"Feature"},{"geometry":{"coordinates":[25.05385,60.20905],"type":"Point"},"properties":{"concentration_Be-7":2598.76,"concentration_Pb-210":234.56,"concentration_air-volume":32254.0,"from_timestamp":"2012-05-05T07:54:00Z","id":"103428","site":"Helsinki","to_timestamp":"2012-05-07T07:53:00Z","uncertainty_Be-7-uncertainty":5.0,"uncertainty_Pb-210-uncertainty":5.0},"type":"Feature"}],"name":"stuk_open_data_air_radionuclides","type":"FeatureCollection"}