{"crs":{"properties":{"name":"urn:ogc:def:crs:OGC:1.3:CRS84"},"type":"name"},"features":[{"geometry":{"coordinates":[25.05385,60.20905],"type":"Point"},"properties":{"concentration_Be-7":2306.27,"concentration_Pb-210":158.52,"concentration_air-volume":33019.0,"from_timestamp":"2012-08-09T07:54:00Z","id":"103428","site":"Helsinki","to_timestamp":"2012-08-11T07:53:00Z","uncertainty_Be-7-uncertainty":5.0,"uncertainty_Pb-210-uncertainty":5.0},"type":"Feature"},{"geometry":{"coordinates":[25.05385,60.20905],"type":"Point"},"properties":{"concentration_Be-7":2010.06,"concentration_Pb-210":204.39,"concentration_air-volume":16380.0,"from_timestamp":"2012-08-11T07:54:00Z","id":"103428","site":"Helsinki","to_timestamp":"2012-08-12T07:53:00Z","uncertainty_Be-7-uncertainty":5.0,"uncertainty_Pb-210-uncertainty":14.0},"type":"Feature"},{"geometry":{"coordinates":[25.05385,60.20905],"type":"Point"},"properties":{"concentration_Be-7":2007.74,"concentration_Pb-210":333.4,"concentration_air-volume":16446.0,"from_timestamp":"2012-08-12T07:54:00Z","id":"103428","site":"Helsinki","to_timestamp":"2012-08-13T07:53:00Z","uncertainty_Be-7-uncertainty":5.0,"uncertainty_Pb-210-uncertainty":10.0},"type":"Feature"},{"geometry":{"coordinates":[25.05385,60.20905],"type":"Point"},"properties":{"concentration_Be-7":2552.74,"concentration_Pb-210":292.5,"concentration_air-volume":15914.0,"from_timestamp":"2012-08-13T07:54:00Z","id":"103428","site":"Helsinki","to_timestamp":"2012-08-14T07:39:00Z","uncertainty_Be-7-uncertainty":5.0,"uncertainty_Pb-210-uncertainty":10.0},"type":"Feature"},{"geometry":{"coordinates":[25.05385,60.20905],"type":"Point"},"properties":{"concentration_Be-7":2720.13,"concentration_Pb-210":263.76,"concentration_air-volume":14731.0,"from_timestamp":"2012-08-14T09:50:00Z","id":"103428","site":"Helsinki","to_timestamp":"2012-08-15T07:52:00Z","uncertainty_Be-7-uncertainty":5.0,"uncertainty_Pb-210-uncertainty":10.0},"type":"Feature"},{"geometry":{"coordinates":[25.05385,60.20905],"type":"Point"},"properties":{"concentration_Be-7":2300.57,"concentration_Pb-210":358.7,"concentration_air-volume":15703.0,"from_timestamp":"2012-08-15T07:53:00Z","id":"103428","site":"Helsinki","to_timestamp":"2012-08-16T07:52:00Z","uncertainty_Be-7-uncertainty":5.0,"uncertainty_Pb-210-uncertainty":6.0},"type":"Feature"},{"geometry":{"coordinates":[25.05385,60.20905],"type":"Point"},"properties":{"concentration_Be-7":2622.28,"concentration_Pb-210":480.8,"concentration_air-volume":31859.0,"from_timestamp":"2012-08-16T07:53:00Z","id":"103428","site":"Helsinki","to_timestamp":"2012-08-18T07:52:00Z","uncertainty_Be-7-uncertainty":5.0,"uncertainty_Pb-210-uncertainty":5.0},"type":"Feature"},{"geometry":{"coordinates":[26.91808,60.48318],"type":"Point"},"properties":{"concentration_Be-7":1590.64,"concentration_Cs-137":0.86,"concentration_Pb-210":168.06,"concentration_air-volume":86305.0,"from_timestamp":"2012-08-07T05:47:00Z","id":"103429","site":"Kotka","to_timestamp":"2012-08-13T07:38:00Z","uncertainty_Be-7-uncertainty":5.0,"uncertainty_Cs-137-uncertainty":8.0,"uncertainty_Pb-210-uncertainty":5.0},"type":"Feature"},{"geometry":{"coordinates":[26.91808,60.48318],"type":"Point"},"properties":{"concentration_Be-7":2574.94,"concentration_Cs-137":2.7,"concentration_Na-22":0.31,"concentration_Pb-210":382.79,"concentration_air-volume":102056.0,"from_timestamp":"2012-08-13T07:40:00Z","id":"103429","site":"Kotka","to_timestamp":"2012-08-20T10:25:00Z","uncertainty_Be-7-uncertainty":5.0,"uncertainty_Cs-137-uncertainty":6.0,"uncertainty_Na-22-uncertainty":14.0,"uncertainty_Pb-210-uncertainty":5.0},"type":"Feature"},{"geometry":{"coordinates":[28.82663,61.13229],"type":"Point"},"properties":{"concentration_Be-7":1229.9,"concentration_Pb-210":107.17,"concentration_air-volume":15140.0,"from_timestamp":"2012-08-09T05:25:00Z","id":"103430","site":"Imatra","to_timestamp":"2012-08-13T05:00:00Z","uncertainty_Be-7-uncertainty":6.0,"uncertainty_Pb-210-uncertainty":20.0},"type":"Feature"},{"geometry":{"coordinates":[28.82663,61.13229],"type":"Point"},"properties":{"concentration_Be-7":2717.71,"concentration_Cs-137":0.5,"concentration_Pb-210":362.98,"concentration_air-volume":26143.0,"from_timestamp":"2012-08-13T05:05:00Z","id":"103430","site":"Imatra","to_timestamp":"2012-08-20T05:40:00Z","uncertainty_Be-7-uncertainty":6.0,"uncertainty_Cs-137-uncertainty":16.0,"uncertainty_Pb-210-uncertainty":20.0},"type":"Feature"},{"geometry":{"coordinates":[27.57,68.64],"type":"Point"},"properties":{"concentration_Be-7":1192.86,"concentration_Cs-137":0.33,"concentration_Pb-210":110.58,"concentration_air-volume":24883.0,"from_timestamp":"2012-08-06T07:37:00Z","id":"103431","site":"Ivalo","to_timestamp":"2012-08-13T05:33:00Z","uncertainty_Be-7-uncertainty":5.0,"uncertainty_Cs-137-uncertainty":26.0,"uncertainty_Pb-210-uncertainty":5.0},"type":"Feature"},{"geometry":{"coordinates":[27.57,68.64],"type":"Point"},"properties":{"concentration_Be-7":1927.84,"concentration_Na-22":0.66,"concentration_Pb-210":138.84,"concentration_air-volume":24948.0,"from_timestamp":"2012-08-13T05:35:00Z","id":"103431","site":"Ivalo","to_timestamp":"2012-08-20T04:56:00Z","uncertainty_Be-7-uncertainty":5.0,"uncertainty_Na-22-uncertainty":27.0,"uncertainty_Pb-210-uncertainty":5.0},"type":"Feature"},{"geometry":{"coordinates":[27.63414,62.89195],"type":"Point"},"properties":{"concentration_Be-7":1842.1,"concentration_air-volume":14972.0,"from_timestamp":"2012-08-09T06:55:00Z","id":"103432","site":"Kuopio","to_timestamp":"2012-08-13T06:36:00Z","uncertainty_Be-7-uncertainty":6.0},"type":"Feature"},{"geometry":{"coordinates":[27.63414,62.89195],"type":"Point"},"properties":{"concentration_Be-7":2625.64,"concentration_air-volume":11045.0,"from_timestamp":"2012-08-13T06:37:00Z","id":"103432","site":"Kuopio","to_timestamp":"2012-08-16T06:53:00Z","uncertainty_Be-7-uncertainty":6.0},"type":"Feature"},{"geometry":{"coordinates":[27.63414,62.89195],"type":"Point"},"properties":{"concentration_Be-7":3548.19,"concentration_air-volume":14628.0,"from_timestamp":"2012-08-16T06:54:00Z","id":"103432","site":"Kuopio","to_timestamp":"2012-08-20T07:09:00Z","uncertainty_Be-7-uncertainty":6.0},"type":"Feature"},{"geometry":{"coordinates":[25.67774,66.51285],"type":"Point"},"properties":{"concentration_Be-7":1370.06,"concentration_Cs-137":0.45,"concentration_Na-22":0.2,"concentration_Pb-210":77.31,"concentration_air-volume":84716.0,"from_timestamp":"2012-08-06T08:01:00Z","id":"103433","site":"Rovaniemi","to_timestamp":"2012-08-13T06:52:00Z","uncertainty_Be-7-uncertainty":5.0,"uncertainty_Cs-137-uncertainty":8.0,"uncertainty_Na-22-uncertainty":16.0,"uncertainty_Pb-210-uncertainty":5.0},"type":"Feature"},{"geometry":{"coordinates":[25.67774,66.51285],"type":"Point"},"properties":{"concentration_Be-7":2549.29,"concentration_Cs-137":0.67,"concentration_Na-22":0.19,"concentration_Pb-210":154.44,"concentration_air-volume":70978.0,"from_timestamp":"2012-08-13T06:55:00Z","id":"103433","site":"Rovaniemi","to_timestamp":"2012-08-20T09:34:00Z","uncertainty_Be-7-uncertainty":6.0,"uncertainty_Cs-137-uncertainty":7.0,"uncertainty_Na-22-uncertainty":20.0,"uncertainty_Pb-210-uncertainty":6.0},"type":"Feature"},{"geometry":{"coordinates":[26.62807,67.36505],"type":"Point"},"properties":{"concentration_Be-7":1255.76,"concentration_Cs-137":0.6,"concentration_Pb-210":237.05,"concentration_air-volume":25044.0,"from_timestamp":"2012-08-06T06:08:00Z","id":"103434","site":"Sodankylä","to_timestamp":"2012-08-13T05:55:00Z","uncertainty_Be-7-uncertainty":4.0,"uncertainty_Cs-137-uncertainty":13.0,"uncertainty_Pb-210-uncertainty":13.0},"type":"Feature"},{"geometry":{"coordinates":[26.62807,67.36505],"type":"Point"},"properties":{"concentration_Be-7":2954.04,"concentration_Cs-137":0.59,"concentration_Pb-210":327.81,"concentration_air-volume":24785.0,"from_timestamp":"2012-08-13T05:58:00Z","id":"103434","site":"Sodankylä","to_timestamp":"2012-08-20T05:50:00Z","uncertainty_Be-7-uncertainty":4.0,"uncertainty_Cs-137-uncertainty":12.0,"uncertainty_Pb-210-uncertainty":12.0},"type":"Feature"},{"geometry":{"coordinates":[27.70835,64.08474],"type":"Point"},"properties":{"concentration_Be-7":1417.53,"concentration_Cs-137":0.65,"concentration_air-volume":80700.0,"from_timestamp":"2012-08-06T05:49:00Z","id":"103435","site":"Kajaani","to_timestamp":"2012-08-13T04:01:00Z","uncertainty_Be-7-uncertainty":7.0,"uncertainty_Cs-137-uncertainty":10.0},"type":"Feature"},{"geometry":{"coordinates":[27.70835,64.08474],"type":"Point"},"properties":{"concentration_Be-7":2616.59,"concentration_Cs-137":0.73,"concentration_Na-22":0.3,"concentration_air-volume":84077.0,"from_timestamp":"2012-08-13T04:04:00Z","id":"103435","site":"Kajaani","to_timestamp":"2012-08-20T08:50:00Z","uncertainty_Be-7-uncertainty":7.0,"uncertainty_Cs-137-uncertainty":9.0,"uncertainty_Na-22-uncertainty":19.0},"type":"Feature"}],"name":"stuk_open_data_air_radionuclides","type":"FeatureCollection"}