{"crs":{"properties":{"name":"urn:ogc:def:crs:OGC:1.3:CRS84"},"type":"name"},"features":[{"geometry":{"coordinates":[25.05385,60.20905],"type":"Point"},"properties":{"concentration_Be-7":1688.38,"concentration_Cs-137":0.66,"concentration_Pb-210":148.91,"concentration_air-volume":33815.0,"from_timestamp":"2012-03-02T06:54:00Z","id":"103428","site":"Helsinki","to_timestamp":"2012-03-04T06:53:00Z","uncertainty_Be-7-uncertainty":5.0,"uncertainty_Cs-137-uncertainty":26.0,"uncertainty_Pb-210-uncertainty":5.0},"type":"Feature"},{"geometry":{"coordinates":[25.05385,60.20905],"type":"Point"},"properties":{"concentration_Be-7":2713.51,"concentration_Cs-137":1.09,"concentration_Pb-210":451.07,"concentration_air-volume":33993.0,"from_timestamp":"2012-03-04T06:54:00Z","id":"103428","site":"Helsinki","to_timestamp":"2012-03-06T06:53:00Z","uncertainty_Be-7-uncertainty":5.0,"uncertainty_Cs-137-uncertainty":17.0,"uncertainty_Pb-210-uncertainty":5.0},"type":"Feature"},{"geometry":{"coordinates":[25.05385,60.20905],"type":"Point"},"properties":{"concentration_Be-7":2288.56,"concentration_Cs-137":3.65,"concentration_Pb-210":1068.73,"concentration_air-volume":15190.0,"from_timestamp":"2012-03-06T06:54:00Z","id":"103428","site":"Helsinki","to_timestamp":"2012-03-07T06:53:00Z","uncertainty_Be-7-uncertainty":5.0,"uncertainty_Cs-137-uncertainty":14.0,"uncertainty_Pb-210-uncertainty":5.0},"type":"Feature"},{"geometry":{"coordinates":[26.91808,60.48318],"type":"Point"},"properties":{"concentration_Be-7":2293.05,"concentration_Cs-137":1.75,"concentration_Na-22":0.28,"concentration_Pb-210":579.43,"concentration_air-volume":161335.0,"from_timestamp":"2012-03-01T07:45:00Z","id":"103429","site":"Kotka","to_timestamp":"2012-03-13T18:00:00Z","uncertainty_Be-7-uncertainty":5.0,"uncertainty_Cs-137-uncertainty":6.0,"uncertainty_Na-22-uncertainty":15.0,"uncertainty_Pb-210-uncertainty":5.0},"type":"Feature"},{"geometry":{"coordinates":[28.82663,61.13229],"type":"Point"},"properties":{"concentration_Be-7":1987.98,"concentration_Cs-137":0.64,"concentration_Pb-210":149.76,"concentration_air-volume":28310.0,"from_timestamp":"2012-02-27T06:05:00Z","id":"103430","site":"Imatra","to_timestamp":"2012-03-05T13:00:00Z","uncertainty_Be-7-uncertainty":6.0,"uncertainty_Cs-137-uncertainty":16.0,"uncertainty_Pb-210-uncertainty":11.0},"type":"Feature"},{"geometry":{"coordinates":[28.82663,61.13229],"type":"Point"},"properties":{"concentration_Be-7":2143.86,"concentration_Cs-137":0.72,"concentration_Pb-210":217.68,"concentration_air-volume":26240.0,"from_timestamp":"2012-03-05T13:00:00Z","id":"103430","site":"Imatra","to_timestamp":"2012-03-12T05:00:00Z","uncertainty_Be-7-uncertainty":6.0,"uncertainty_Cs-137-uncertainty":28.0,"uncertainty_Pb-210-uncertainty":15.0},"type":"Feature"},{"geometry":{"coordinates":[27.57,68.64],"type":"Point"},"properties":{"concentration_Be-7":1880.43,"concentration_Na-22":0.54,"concentration_Pb-210":130.58,"concentration_air-volume":26484.0,"from_timestamp":"2012-02-27T05:25:00Z","id":"103431","site":"Ivalo","to_timestamp":"2012-03-05T05:14:00Z","uncertainty_Be-7-uncertainty":5.0,"uncertainty_Na-22-uncertainty":19.0,"uncertainty_Pb-210-uncertainty":5.0},"type":"Feature"},{"geometry":{"coordinates":[27.57,68.64],"type":"Point"},"properties":{"concentration_Be-7":2735.87,"concentration_Cs-137":0.55,"concentration_Pb-210":191.47,"concentration_air-volume":26385.0,"from_timestamp":"2012-03-05T05:17:00Z","id":"103431","site":"Ivalo","to_timestamp":"2012-03-12T05:48:00Z","uncertainty_Be-7-uncertainty":5.0,"uncertainty_Cs-137-uncertainty":17.0,"uncertainty_Pb-210-uncertainty":5.0},"type":"Feature"},{"geometry":{"coordinates":[27.63414,62.89195],"type":"Point"},"properties":{"concentration_Be-7":2499.8,"concentration_air-volume":16163.0,"from_timestamp":"2012-03-01T05:25:00Z","id":"103432","site":"Kuopio","to_timestamp":"2012-03-05T05:30:00Z","uncertainty_Be-7-uncertainty":6.0},"type":"Feature"},{"geometry":{"coordinates":[27.63414,62.89195],"type":"Point"},"properties":{"concentration_Be-7":2504.78,"concentration_air-volume":12357.0,"from_timestamp":"2012-03-05T05:31:00Z","id":"103432","site":"Kuopio","to_timestamp":"2012-03-08T05:27:00Z","uncertainty_Be-7-uncertainty":6.0},"type":"Feature"},{"geometry":{"coordinates":[27.63414,62.89195],"type":"Point"},"properties":{"concentration_Be-7":2806.32,"concentration_Cs-137":1.2,"concentration_air-volume":15816.0,"from_timestamp":"2012-03-08T05:28:00Z","id":"103432","site":"Kuopio","to_timestamp":"2012-03-12T05:30:00Z","uncertainty_Be-7-uncertainty":6.0,"uncertainty_Cs-137-uncertainty":27.0},"type":"Feature"},{"geometry":{"coordinates":[25.67774,66.51285],"type":"Point"},"properties":{"concentration_Be-7":1829.3,"concentration_Cs-137":0.64,"concentration_Pb-210":144.36,"concentration_air-volume":93705.0,"from_timestamp":"2012-02-27T09:58:00Z","id":"103433","site":"Rovaniemi","to_timestamp":"2012-03-05T08:41:00Z","uncertainty_Be-7-uncertainty":5.0,"uncertainty_Cs-137-uncertainty":6.0,"uncertainty_Pb-210-uncertainty":5.0},"type":"Feature"},{"geometry":{"coordinates":[25.67774,66.51285],"type":"Point"},"properties":{"concentration_Be-7":2733.95,"concentration_Cs-137":0.69,"concentration_Na-22":0.35,"concentration_Pb-210":186.41,"concentration_air-volume":95250.0,"from_timestamp":"2012-03-05T08:44:00Z","id":"103433","site":"Rovaniemi","to_timestamp":"2012-03-12T09:56:00Z","uncertainty_Be-7-uncertainty":5.0,"uncertainty_Cs-137-uncertainty":7.0,"uncertainty_Na-22-uncertainty":6.0,"uncertainty_Pb-210-uncertainty":5.0},"type":"Feature"},{"geometry":{"coordinates":[26.62807,67.36505],"type":"Point"},"properties":{"concentration_Be-7":1672.07,"concentration_Cs-137":0.3,"concentration_Pb-210":100.99,"concentration_air-volume":26512.0,"from_timestamp":"2012-02-27T04:57:00Z","id":"103434","site":"Sodankylä","to_timestamp":"2012-03-05T05:21:00Z","uncertainty_Be-7-uncertainty":5.0,"uncertainty_Cs-137-uncertainty":6.0,"uncertainty_Pb-210-uncertainty":17.0},"type":"Feature"},{"geometry":{"coordinates":[26.62807,67.36505],"type":"Point"},"properties":{"concentration_Be-7":2491.14,"concentration_Cs-137":0.42,"concentration_Pb-210":145.87,"concentration_air-volume":26166.0,"from_timestamp":"2012-03-05T05:31:00Z","id":"103434","site":"Sodankylä","to_timestamp":"2012-03-12T05:00:00Z","uncertainty_Be-7-uncertainty":5.0,"uncertainty_Cs-137-uncertainty":24.0,"uncertainty_Pb-210-uncertainty":15.0},"type":"Feature"},{"geometry":{"coordinates":[27.70835,64.08474],"type":"Point"},"properties":{"concentration_Be-7":1573.99,"concentration_Cs-137":0.33,"concentration_Na-22":0.18,"concentration_Pb-210":269.97,"concentration_air-volume":90565.0,"from_timestamp":"2012-02-27T07:29:00Z","id":"103435","site":"Kajaani","to_timestamp":"2012-03-05T11:49:00Z","uncertainty_Be-7-uncertainty":5.0,"uncertainty_Cs-137-uncertainty":12.0,"uncertainty_Na-22-uncertainty":25.0,"uncertainty_Pb-210-uncertainty":5.0},"type":"Feature"},{"geometry":{"coordinates":[27.70835,64.08474],"type":"Point"},"properties":{"concentration_Be-7":2130.26,"concentration_Cs-137":0.57,"concentration_Pb-210":538.92,"concentration_air-volume":84653.0,"from_timestamp":"2012-03-05T11:54:00Z","id":"103435","site":"Kajaani","to_timestamp":"2012-03-12T08:54:00Z","uncertainty_Be-7-uncertainty":5.0,"uncertainty_Cs-137-uncertainty":9.0,"uncertainty_Pb-210-uncertainty":5.0},"type":"Feature"}],"name":"stuk_open_data_air_radionuclides","type":"FeatureCollection"}