{"crs":{"properties":{"name":"urn:ogc:def:crs:OGC:1.3:CRS84"},"type":"name"},"features":[{"geometry":{"coordinates":[25.05385,60.20905],"type":"Point"},"properties":{"concentration_Be-7":2117.92,"concentration_Cs-137":2.12,"concentration_air-volume":32178.0,"from_timestamp":"2012-05-29T07:54:00Z","id":"103428","site":"Helsinki","to_timestamp":"2012-05-31T07:53:00Z","uncertainty_Be-7-uncertainty":5.0,"uncertainty_Cs-137-uncertainty":8.0},"type":"Feature"},{"geometry":{"coordinates":[25.05385,60.20905],"type":"Point"},"properties":{"concentration_Be-7":2720.46,"concentration_Cs-137":0.83,"concentration_Pb-210":221.83,"concentration_air-volume":31965.0,"from_timestamp":"2012-05-31T07:54:00Z","id":"103428","site":"Helsinki","to_timestamp":"2012-06-02T07:53:00Z","uncertainty_Be-7-uncertainty":5.0,"uncertainty_Cs-137-uncertainty":22.0,"uncertainty_Pb-210-uncertainty":5.0},"type":"Feature"},{"geometry":{"coordinates":[25.05385,60.20905],"type":"Point"},"properties":{"concentration_Be-7":1746.27,"concentration_Pb-210":131.74,"concentration_air-volume":32378.0,"from_timestamp":"2012-06-02T07:54:00Z","id":"103428","site":"Helsinki","to_timestamp":"2012-06-04T07:53:00Z","uncertainty_Be-7-uncertainty":5.0,"uncertainty_Pb-210-uncertainty":6.0},"type":"Feature"},{"geometry":{"coordinates":[25.05385,60.20905],"type":"Point"},"properties":{"concentration_Be-7":1862.44,"concentration_Pb-210":163.57,"concentration_air-volume":30631.0,"from_timestamp":"2012-06-04T07:53:00Z","id":"103428","site":"Helsinki","to_timestamp":"2012-06-06T07:53:00Z","uncertainty_Be-7-uncertainty":5.0,"uncertainty_Pb-210-uncertainty":6.0},"type":"Feature"},{"geometry":{"coordinates":[25.05385,60.20905],"type":"Point"},"properties":{"concentration_Be-7":1356.64,"concentration_Cs-137":1.0,"concentration_air-volume":31811.0,"from_timestamp":"2012-06-06T07:54:00Z","id":"103428","site":"Helsinki","to_timestamp":"2012-06-08T07:53:00Z","uncertainty_Be-7-uncertainty":7.0,"uncertainty_Cs-137-uncertainty":20.0},"type":"Feature"},{"geometry":{"coordinates":[26.91808,60.48318],"type":"Point"},"properties":{"concentration_Be-7":2563.34,"concentration_Cs-137":4.04,"concentration_Na-22":0.31,"concentration_Pb-210":172.42,"concentration_air-volume":101334.0,"from_timestamp":"2012-05-28T07:12:00Z","id":"103429","site":"Kotka","to_timestamp":"2012-06-04T10:30:00Z","uncertainty_Be-7-uncertainty":5.0,"uncertainty_Cs-137-uncertainty":5.0,"uncertainty_Na-22-uncertainty":15.0,"uncertainty_Pb-210-uncertainty":5.0},"type":"Feature"},{"geometry":{"coordinates":[26.91808,60.48318],"type":"Point"},"properties":{"concentration_Be-7":4448.37,"concentration_Cs-137":4.71,"concentration_Na-22":0.6,"concentration_air-volume":196291.0,"from_timestamp":"2012-06-04T10:35:00Z","id":"103429","site":"Kotka","to_timestamp":"2012-06-18T06:53:00Z","uncertainty_Be-7-uncertainty":6.0,"uncertainty_Cs-137-uncertainty":6.0,"uncertainty_Na-22-uncertainty":12.0},"type":"Feature"},{"geometry":{"coordinates":[28.82663,61.13229],"type":"Point"},"properties":{"concentration_Be-7":3128.54,"concentration_Cs-137":1.2,"concentration_Pb-210":54.32,"concentration_air-volume":26451.0,"from_timestamp":"2012-05-28T07:10:00Z","id":"103430","site":"Imatra","to_timestamp":"2012-06-04T06:20:00Z","uncertainty_Be-7-uncertainty":6.0,"uncertainty_Cs-137-uncertainty":11.0,"uncertainty_Pb-210-uncertainty":28.0},"type":"Feature"},{"geometry":{"coordinates":[28.82663,61.13229],"type":"Point"},"properties":{"concentration_Be-7":2652.54,"concentration_Cs-137":2.2,"concentration_Pb-210":101.36,"concentration_air-volume":26114.0,"from_timestamp":"2012-06-04T06:25:00Z","id":"103430","site":"Imatra","to_timestamp":"2012-06-11T06:50:00Z","uncertainty_Be-7-uncertainty":6.0,"uncertainty_Cs-137-uncertainty":8.0,"uncertainty_Pb-210-uncertainty":17.0},"type":"Feature"},{"geometry":{"coordinates":[27.57,68.64],"type":"Point"},"properties":{"concentration_Be-7":2163.0,"concentration_Pb-210":59.41,"concentration_air-volume":25984.0,"from_timestamp":"2012-05-28T05:02:00Z","id":"103431","site":"Ivalo","to_timestamp":"2012-06-04T09:45:00Z","uncertainty_Be-7-uncertainty":5.0,"uncertainty_Pb-210-uncertainty":5.0},"type":"Feature"},{"geometry":{"coordinates":[27.57,68.64],"type":"Point"},"properties":{"concentration_Be-7":1946.34,"concentration_Pb-210":63.05,"concentration_air-volume":24734.0,"from_timestamp":"2012-06-04T09:49:00Z","id":"103431","site":"Ivalo","to_timestamp":"2012-06-11T05:46:00Z","uncertainty_Be-7-uncertainty":5.0,"uncertainty_Pb-210-uncertainty":5.0},"type":"Feature"},{"geometry":{"coordinates":[27.63414,62.89195],"type":"Point"},"properties":{"concentration_Be-7":2799.67,"concentration_Cs-137":3.51,"concentration_air-volume":11396.0,"from_timestamp":"2012-05-28T05:26:00Z","id":"103432","site":"Kuopio","to_timestamp":"2012-05-31T05:23:00Z","uncertainty_Be-7-uncertainty":6.0,"uncertainty_Cs-137-uncertainty":15.0},"type":"Feature"},{"geometry":{"coordinates":[27.63414,62.89195],"type":"Point"},"properties":{"concentration_Be-7":4150.94,"concentration_air-volume":15180.0,"from_timestamp":"2012-05-31T05:24:00Z","id":"103432","site":"Kuopio","to_timestamp":"2012-06-04T05:20:00Z","uncertainty_Be-7-uncertainty":6.0},"type":"Feature"},{"geometry":{"coordinates":[27.63414,62.89195],"type":"Point"},"properties":{"concentration_Be-7":2667.29,"concentration_air-volume":11396.0,"from_timestamp":"2012-06-04T05:21:00Z","id":"103432","site":"Kuopio","to_timestamp":"2012-06-07T05:33:00Z","uncertainty_Be-7-uncertainty":6.0},"type":"Feature"},{"geometry":{"coordinates":[25.67774,66.51285],"type":"Point"},"properties":{"concentration_Be-7":2579.37,"concentration_Cs-137":0.21,"concentration_Na-22":0.43,"concentration_Pb-210":62.3,"concentration_air-volume":89033.0,"from_timestamp":"2012-05-28T06:49:00Z","id":"103433","site":"Rovaniemi","to_timestamp":"2012-06-04T06:28:00Z","uncertainty_Be-7-uncertainty":5.0,"uncertainty_Cs-137-uncertainty":13.0,"uncertainty_Na-22-uncertainty":13.0,"uncertainty_Pb-210-uncertainty":5.0},"type":"Feature"},{"geometry":{"coordinates":[25.67774,66.51285],"type":"Point"},"properties":{"concentration_Be-7":2275.42,"concentration_Cs-137":0.22,"concentration_Na-22":0.42,"concentration_Pb-210":80.05,"concentration_air-volume":88851.0,"from_timestamp":"2012-06-04T06:40:00Z","id":"103433","site":"Rovaniemi","to_timestamp":"2012-06-11T07:15:00Z","uncertainty_Be-7-uncertainty":5.0,"uncertainty_Cs-137-uncertainty":12.0,"uncertainty_Na-22-uncertainty":13.0,"uncertainty_Pb-210-uncertainty":5.0},"type":"Feature"},{"geometry":{"coordinates":[26.62807,67.36505],"type":"Point"},"properties":{"concentration_Be-7":2351.55,"concentration_Na-22":0.6,"concentration_Pb-210":203.83,"concentration_air-volume":25233.0,"from_timestamp":"2012-05-28T05:52:00Z","id":"103434","site":"Sodankylä","to_timestamp":"2012-06-04T06:06:00Z","uncertainty_Be-7-uncertainty":4.0,"uncertainty_Na-22-uncertainty":29.0,"uncertainty_Pb-210-uncertainty":16.0},"type":"Feature"},{"geometry":{"coordinates":[26.62807,67.36505],"type":"Point"},"properties":{"concentration_Be-7":2385.49,"concentration_Cs-137":0.37,"concentration_Na-22":0.66,"concentration_Pb-210":182.05,"concentration_air-volume":25032.0,"from_timestamp":"2012-06-04T06:12:00Z","id":"103434","site":"Sodankylä","to_timestamp":"2012-06-11T05:58:00Z","uncertainty_Be-7-uncertainty":4.0,"uncertainty_Cs-137-uncertainty":30.0,"uncertainty_Na-22-uncertainty":21.0,"uncertainty_Pb-210-uncertainty":18.0},"type":"Feature"},{"geometry":{"coordinates":[27.70835,64.08474],"type":"Point"},"properties":{"concentration_Be-7":2848.48,"concentration_Cs-137":0.72,"concentration_Na-22":0.44,"concentration_air-volume":81835.0,"from_timestamp":"2012-05-28T07:30:00Z","id":"103435","site":"Kajaani","to_timestamp":"2012-06-04T06:23:00Z","uncertainty_Be-7-uncertainty":7.0,"uncertainty_Cs-137-uncertainty":9.0,"uncertainty_Na-22-uncertainty":16.0},"type":"Feature"},{"geometry":{"coordinates":[27.70835,64.08474],"type":"Point"},"properties":{"concentration_Be-7":1418.67,"concentration_Cs-137":1.74,"concentration_Na-22":0.31,"concentration_Pb-210":149.02,"concentration_air-volume":79932.0,"from_timestamp":"2012-06-04T06:27:00Z","id":"103435","site":"Kajaani","to_timestamp":"2012-06-11T04:22:00Z","uncertainty_Be-7-uncertainty":5.0,"uncertainty_Cs-137-uncertainty":8.0,"uncertainty_Na-22-uncertainty":29.0,"uncertainty_Pb-210-uncertainty":5.0},"type":"Feature"},{"geometry":{"coordinates":[25.05385,60.20905],"type":"Point"},"properties":{"concentration_Be-7":2117.92,"concentration_Cs-137":2.12,"concentration_air-volume":32178.0,"from_timestamp":"2012-05-29T07:54:00Z","id":"103428","site":"Helsinki","to_timestamp":"2012-05-31T07:53:00Z","uncertainty_Be-7-uncertainty":5.0,"uncertainty_Cs-137-uncertainty":8.0},"type":"Feature"},{"geometry":{"coordinates":[25.05385,60.20905],"type":"Point"},"properties":{"concentration_Be-7":2720.46,"concentration_Cs-137":0.83,"concentration_Pb-210":221.83,"concentration_air-volume":31965.0,"from_timestamp":"2012-05-31T07:54:00Z","id":"103428","site":"Helsinki","to_timestamp":"2012-06-02T07:53:00Z","uncertainty_Be-7-uncertainty":5.0,"uncertainty_Cs-137-uncertainty":22.0,"uncertainty_Pb-210-uncertainty":5.0},"type":"Feature"},{"geometry":{"coordinates":[25.05385,60.20905],"type":"Point"},"properties":{"concentration_Be-7":1746.27,"concentration_Pb-210":131.74,"concentration_air-volume":32378.0,"from_timestamp":"2012-06-02T07:54:00Z","id":"103428","site":"Helsinki","to_timestamp":"2012-06-04T07:53:00Z","uncertainty_Be-7-uncertainty":5.0,"uncertainty_Pb-210-uncertainty":6.0},"type":"Feature"},{"geometry":{"coordinates":[25.05385,60.20905],"type":"Point"},"properties":{"concentration_Be-7":1862.44,"concentration_Pb-210":163.57,"concentration_air-volume":30631.0,"from_timestamp":"2012-06-04T07:53:00Z","id":"103428","site":"Helsinki","to_timestamp":"2012-06-06T07:53:00Z","uncertainty_Be-7-uncertainty":5.0,"uncertainty_Pb-210-uncertainty":6.0},"type":"Feature"},{"geometry":{"coordinates":[25.05385,60.20905],"type":"Point"},"properties":{"concentration_Be-7":1356.64,"concentration_Cs-137":1.0,"concentration_air-volume":31811.0,"from_timestamp":"2012-06-06T07:54:00Z","id":"103428","site":"Helsinki","to_timestamp":"2012-06-08T07:53:00Z","uncertainty_Be-7-uncertainty":7.0,"uncertainty_Cs-137-uncertainty":20.0},"type":"Feature"}],"name":"stuk_open_data_air_radionuclides","type":"FeatureCollection"}