{"crs":{"properties":{"name":"urn:ogc:def:crs:OGC:1.3:CRS84"},"type":"name"},"features":[{"geometry":{"coordinates":[25.05385,60.20905],"type":"Point"},"properties":{"concentration_Be-7":1080.43,"concentration_Pb-210":233.65,"concentration_air-volume":16714.0,"from_timestamp":"2013-01-08T06:53:00Z","id":"103428","site":"Helsinki","to_timestamp":"2013-01-09T06:52:00Z","uncertainty_Be-7-uncertainty":5.0,"uncertainty_Pb-210-uncertainty":8.0},"type":"Feature"},{"geometry":{"coordinates":[25.05385,60.20905],"type":"Point"},"properties":{"concentration_Be-7":930.53,"concentration_Pb-210":171.7,"concentration_air-volume":16865.0,"from_timestamp":"2013-01-09T06:53:00Z","id":"103428","site":"Helsinki","to_timestamp":"2013-01-10T06:52:00Z","uncertainty_Be-7-uncertainty":5.0,"uncertainty_Pb-210-uncertainty":9.0},"type":"Feature"},{"geometry":{"coordinates":[25.05385,60.20905],"type":"Point"},"properties":{"concentration_Be-7":734.97,"concentration_Pb-210":245.47,"concentration_air-volume":16965.0,"from_timestamp":"2013-01-10T06:53:00Z","id":"103428","site":"Helsinki","to_timestamp":"2013-01-11T06:52:00Z","uncertainty_Be-7-uncertainty":5.0,"uncertainty_Pb-210-uncertainty":7.0},"type":"Feature"},{"geometry":{"coordinates":[25.05385,60.20905],"type":"Point"},"properties":{"concentration_Be-7":953.85,"concentration_Pb-210":297.46,"concentration_air-volume":17404.0,"from_timestamp":"2013-01-11T06:53:00Z","id":"103428","site":"Helsinki","to_timestamp":"2013-01-12T06:52:00Z","uncertainty_Be-7-uncertainty":5.0,"uncertainty_Pb-210-uncertainty":7.0},"type":"Feature"},{"geometry":{"coordinates":[25.05385,60.20905],"type":"Point"},"properties":{"concentration_Be-7":1140.23,"concentration_Cs-137":2.96,"concentration_Pb-210":369.59,"concentration_air-volume":17342.0,"from_timestamp":"2013-01-12T06:53:00Z","id":"103428","site":"Helsinki","to_timestamp":"2013-01-13T06:52:00Z","uncertainty_Be-7-uncertainty":5.0,"uncertainty_Cs-137-uncertainty":14.0,"uncertainty_Pb-210-uncertainty":7.0},"type":"Feature"},{"geometry":{"coordinates":[25.05385,60.20905],"type":"Point"},"properties":{"concentration_Be-7":3016.76,"concentration_Pb-210":243.52,"concentration_air-volume":17160.0,"from_timestamp":"2013-01-13T06:53:00Z","id":"103428","site":"Helsinki","to_timestamp":"2013-01-14T06:52:00Z","uncertainty_Be-7-uncertainty":5.0,"uncertainty_Pb-210-uncertainty":7.0},"type":"Feature"},{"geometry":{"coordinates":[25.05385,60.20905],"type":"Point"},"properties":{"concentration_Be-7":2664.54,"concentration_Pb-210":315.84,"concentration_air-volume":17050.0,"from_timestamp":"2013-01-14T06:53:00Z","id":"103428","site":"Helsinki","to_timestamp":"2013-01-15T06:51:00Z","uncertainty_Be-7-uncertainty":5.0,"uncertainty_Pb-210-uncertainty":8.0},"type":"Feature"},{"geometry":{"coordinates":[25.05385,60.20905],"type":"Point"},"properties":{"concentration_Be-7":2091.29,"concentration_Pb-210":309.0,"concentration_air-volume":16825.0,"from_timestamp":"2013-01-15T06:52:00Z","id":"103428","site":"Helsinki","to_timestamp":"2013-01-16T06:52:00Z","uncertainty_Be-7-uncertainty":5.0,"uncertainty_Pb-210-uncertainty":7.0},"type":"Feature"},{"geometry":{"coordinates":[25.05385,60.20905],"type":"Point"},"properties":{"concentration_Be-7":883.88,"concentration_Pb-210":252.65,"concentration_air-volume":17215.0,"from_timestamp":"2013-01-16T06:53:00Z","id":"103428","site":"Helsinki","to_timestamp":"2013-01-17T06:52:00Z","uncertainty_Be-7-uncertainty":5.0,"uncertainty_Pb-210-uncertainty":7.0},"type":"Feature"},{"geometry":{"coordinates":[26.91808,60.48318],"type":"Point"},"properties":{"concentration_Be-7":1464.69,"concentration_Cs-137":1.86,"concentration_Pb-210":323.35,"concentration_air-volume":117693.0,"from_timestamp":"2013-01-07T08:57:00Z","id":"103429","site":"Kotka","to_timestamp":"2013-01-15T05:10:00Z","uncertainty_Be-7-uncertainty":5.0,"uncertainty_Cs-137-uncertainty":6.0,"uncertainty_Pb-210-uncertainty":5.0},"type":"Feature"},{"geometry":{"coordinates":[26.91808,60.48318],"type":"Point"},"properties":{"concentration_Be-7":1378.97,"concentration_Cs-137":3.18,"concentration_I-131":0.61,"concentration_Na-22":0.18,"concentration_Pb-210":581.81,"concentration_air-volume":137373.0,"from_timestamp":"2013-01-15T05:10:00Z","id":"103429","site":"Kotka","to_timestamp":"2013-01-22T05:14:00Z","uncertainty_Be-7-uncertainty":5.0,"uncertainty_Cs-137-uncertainty":5.0,"uncertainty_I-131-uncertainty":8.0,"uncertainty_Na-22-uncertainty":20.0,"uncertainty_Pb-210-uncertainty":5.0},"type":"Feature"},{"geometry":{"coordinates":[28.82663,61.13229],"type":"Point"},"properties":{"concentration_Be-7":975.2,"concentration_Cs-137":0.78,"concentration_Pb-210":328.09,"concentration_air-volume":27250.0,"from_timestamp":"2013-01-07T07:50:00Z","id":"103430","site":"Imatra","to_timestamp":"2013-01-14T06:40:00Z","uncertainty_Be-7-uncertainty":6.0,"uncertainty_Cs-137-uncertainty":11.0,"uncertainty_Pb-210-uncertainty":20.0},"type":"Feature"},{"geometry":{"coordinates":[28.82663,61.13229],"type":"Point"},"properties":{"concentration_Be-7":1903.16,"concentration_Cs-137":1.13,"concentration_Pb-210":173.37,"concentration_air-volume":28051.0,"from_timestamp":"2013-01-14T06:45:00Z","id":"103430","site":"Imatra","to_timestamp":"2013-01-21T06:55:00Z","uncertainty_Be-7-uncertainty":6.0,"uncertainty_Cs-137-uncertainty":12.0,"uncertainty_Pb-210-uncertainty":10.0},"type":"Feature"},{"geometry":{"coordinates":[27.57,68.64],"type":"Point"},"properties":{"concentration_Be-7":786.41,"concentration_Cs-137":0.34,"concentration_Pb-210":112.76,"concentration_air-volume":27359.0,"from_timestamp":"2013-01-07T08:22:00Z","id":"103431","site":"Ivalo","to_timestamp":"2013-01-14T08:00:00Z","uncertainty_Be-7-uncertainty":5.0,"uncertainty_Cs-137-uncertainty":6.0,"uncertainty_Pb-210-uncertainty":5.0},"type":"Feature"},{"geometry":{"coordinates":[27.57,68.64],"type":"Point"},"properties":{"concentration_Be-7":1762.73,"concentration_Cs-137":0.3,"concentration_Pb-210":131.66,"concentration_air-volume":27972.0,"from_timestamp":"2013-01-14T08:02:00Z","id":"103431","site":"Ivalo","to_timestamp":"2013-01-21T07:09:00Z","uncertainty_Be-7-uncertainty":5.0,"uncertainty_Cs-137-uncertainty":26.0,"uncertainty_Pb-210-uncertainty":5.0},"type":"Feature"},{"geometry":{"coordinates":[27.63414,62.89195],"type":"Point"},"properties":{"concentration_Be-7":745.11,"concentration_air-volume":11779.0,"from_timestamp":"2013-01-07T06:57:00Z","id":"103432","site":"Kuopio","to_timestamp":"2013-01-10T06:51:00Z","uncertainty_Be-7-uncertainty":6.0},"type":"Feature"},{"geometry":{"coordinates":[27.63414,62.89195],"type":"Point"},"properties":{"concentration_Be-7":1510.53,"concentration_Cs-137":1.08,"concentration_air-volume":15841.0,"from_timestamp":"2013-01-10T06:52:00Z","id":"103432","site":"Kuopio","to_timestamp":"2013-01-14T07:22:00Z","uncertainty_Be-7-uncertainty":6.0,"uncertainty_Cs-137-uncertainty":30.0},"type":"Feature"},{"geometry":{"coordinates":[27.63414,62.89195],"type":"Point"},"properties":{"concentration_Be-7":941.39,"concentration_air-volume":12051.0,"from_timestamp":"2013-01-14T07:23:00Z","id":"103432","site":"Kuopio","to_timestamp":"2013-01-17T06:50:00Z","uncertainty_Be-7-uncertainty":7.0},"type":"Feature"},{"geometry":{"coordinates":[25.67774,66.51285],"type":"Point"},"properties":{"concentration_Be-7":432.67,"concentration_Cs-137":0.61,"concentration_Pb-210":164.11,"concentration_air-volume":147408.0,"from_timestamp":"2013-01-07T11:53:00Z","id":"103433","site":"Rovaniemi","to_timestamp":"2013-01-15T10:09:00Z","uncertainty_Be-7-uncertainty":5.0,"uncertainty_Cs-137-uncertainty":6.0,"uncertainty_Pb-210-uncertainty":5.0},"type":"Feature"},{"geometry":{"coordinates":[25.67774,66.51285],"type":"Point"},"properties":{"concentration_Be-7":1129.93,"concentration_Cs-137":0.51,"concentration_Na-22":0.1,"concentration_Pb-210":209.17,"concentration_air-volume":111799.0,"from_timestamp":"2013-01-15T10:14:00Z","id":"103433","site":"Rovaniemi","to_timestamp":"2013-01-21T13:14:00Z","uncertainty_Be-7-uncertainty":5.0,"uncertainty_Cs-137-uncertainty":7.0,"uncertainty_Na-22-uncertainty":23.0,"uncertainty_Pb-210-uncertainty":6.0},"type":"Feature"},{"geometry":{"coordinates":[26.62807,67.36505],"type":"Point"},"properties":{"concentration_Be-7":539.96,"concentration_Pb-210":241.83,"concentration_air-volume":27322.0,"from_timestamp":"2013-01-07T08:37:00Z","id":"103434","site":"Sodankylä","to_timestamp":"2013-01-14T08:27:00Z","uncertainty_Be-7-uncertainty":4.0,"uncertainty_Pb-210-uncertainty":11.0},"type":"Feature"},{"geometry":{"coordinates":[26.62807,67.36505],"type":"Point"},"properties":{"concentration_Be-7":1629.93,"concentration_Cs-137":0.33,"concentration_Na-22":0.66,"concentration_Pb-210":303.5,"concentration_air-volume":27475.0,"from_timestamp":"2013-01-14T08:29:00Z","id":"103434","site":"Sodankylä","to_timestamp":"2013-01-21T08:34:00Z","uncertainty_Be-7-uncertainty":4.0,"uncertainty_Cs-137-uncertainty":23.0,"uncertainty_Na-22-uncertainty":16.0,"uncertainty_Pb-210-uncertainty":10.0},"type":"Feature"},{"geometry":{"coordinates":[27.70835,64.08474],"type":"Point"},"properties":{"concentration_Be-7":767.32,"concentration_Cs-137":0.62,"concentration_Pb-210":53.43,"concentration_air-volume":102728.0,"from_timestamp":"2013-01-07T06:45:00Z","id":"103435","site":"Kajaani","to_timestamp":"2013-01-14T06:53:00Z","uncertainty_Be-7-uncertainty":5.0,"uncertainty_Cs-137-uncertainty":8.0,"uncertainty_Pb-210-uncertainty":9.0},"type":"Feature"},{"geometry":{"coordinates":[27.70835,64.08474],"type":"Point"},"properties":{"concentration_Be-7":961.11,"concentration_Cs-137":0.29,"concentration_Pb-210":197.33,"concentration_air-volume":119900.0,"from_timestamp":"2013-01-14T06:57:00Z","id":"103435","site":"Kajaani","to_timestamp":"2013-01-22T11:39:00Z","uncertainty_Be-7-uncertainty":6.0,"uncertainty_Cs-137-uncertainty":9.0,"uncertainty_Pb-210-uncertainty":20.0},"type":"Feature"}],"name":"stuk_open_data_air_radionuclides","type":"FeatureCollection"}