{"crs":{"properties":{"name":"urn:ogc:def:crs:OGC:1.3:CRS84"},"type":"name"},"features":[{"geometry":{"coordinates":[25.05385,60.20905],"type":"Point"},"properties":{"concentration_Be-7":376.97,"concentration_Pb-210":327.37,"concentration_air-volume":16849.0,"from_timestamp":"2013-02-09T06:52:00Z","id":"103428","site":"Helsinki","to_timestamp":"2013-02-10T06:52:00Z","uncertainty_Be-7-uncertainty":5.0,"uncertainty_Pb-210-uncertainty":5.0},"type":"Feature"},{"geometry":{"coordinates":[25.05385,60.20905],"type":"Point"},"properties":{"concentration_Be-7":289.36,"concentration_Pb-210":329.07,"concentration_air-volume":17149.0,"from_timestamp":"2013-02-10T06:53:00Z","id":"103428","site":"Helsinki","to_timestamp":"2013-02-11T06:51:00Z","uncertainty_Be-7-uncertainty":5.0,"uncertainty_Pb-210-uncertainty":6.0},"type":"Feature"},{"geometry":{"coordinates":[25.05385,60.20905],"type":"Point"},"properties":{"concentration_Be-7":260.06,"concentration_Pb-210":421.08,"concentration_air-volume":16349.0,"from_timestamp":"2013-02-11T06:52:00Z","id":"103428","site":"Helsinki","to_timestamp":"2013-02-12T06:51:00Z","uncertainty_Be-7-uncertainty":5.0,"uncertainty_Pb-210-uncertainty":6.0},"type":"Feature"},{"geometry":{"coordinates":[25.05385,60.20905],"type":"Point"},"properties":{"concentration_Be-7":1798.19,"concentration_Pb-210":425.39,"concentration_air-volume":17145.0,"from_timestamp":"2013-02-12T06:52:00Z","id":"103428","site":"Helsinki","to_timestamp":"2013-02-13T06:51:00Z","uncertainty_Be-7-uncertainty":5.0,"uncertainty_Pb-210-uncertainty":6.0},"type":"Feature"},{"geometry":{"coordinates":[25.05385,60.20905],"type":"Point"},"properties":{"concentration_Be-7":1688.52,"concentration_Pb-210":787.23,"concentration_air-volume":16860.0,"from_timestamp":"2013-02-13T06:52:00Z","id":"103428","site":"Helsinki","to_timestamp":"2013-02-14T06:51:00Z","uncertainty_Be-7-uncertainty":5.0,"uncertainty_Pb-210-uncertainty":6.0},"type":"Feature"},{"geometry":{"coordinates":[25.05385,60.20905],"type":"Point"},"properties":{"concentration_Be-7":2646.7,"concentration_Pb-210":582.26,"concentration_air-volume":16888.0,"from_timestamp":"2013-02-14T06:52:00Z","id":"103428","site":"Helsinki","to_timestamp":"2013-02-15T06:51:00Z","uncertainty_Be-7-uncertainty":5.0,"uncertainty_Pb-210-uncertainty":6.0},"type":"Feature"},{"geometry":{"coordinates":[25.05385,60.20905],"type":"Point"},"properties":{"concentration_Be-7":2900.31,"concentration_Pb-210":750.83,"concentration_air-volume":17270.0,"from_timestamp":"2013-02-15T06:52:00Z","id":"103428","site":"Helsinki","to_timestamp":"2013-02-16T06:51:00Z","uncertainty_Be-7-uncertainty":6.0,"uncertainty_Pb-210-uncertainty":6.0},"type":"Feature"},{"geometry":{"coordinates":[25.05385,60.20905],"type":"Point"},"properties":{"concentration_Be-7":2433.75,"concentration_Pb-210":692.18,"concentration_air-volume":16543.0,"from_timestamp":"2013-02-16T06:52:00Z","id":"103428","site":"Helsinki","to_timestamp":"2013-02-17T06:51:00Z","uncertainty_Be-7-uncertainty":5.0,"uncertainty_Pb-210-uncertainty":6.0},"type":"Feature"},{"geometry":{"coordinates":[25.05385,60.20905],"type":"Point"},"properties":{"concentration_Be-7":2043.12,"concentration_Pb-210":580.85,"concentration_air-volume":16464.0,"from_timestamp":"2013-02-17T06:52:00Z","id":"103428","site":"Helsinki","to_timestamp":"2013-02-18T06:51:00Z","uncertainty_Be-7-uncertainty":5.0,"uncertainty_Pb-210-uncertainty":6.0},"type":"Feature"},{"geometry":{"coordinates":[26.91808,60.48318],"type":"Point"},"properties":{"concentration_Be-7":650.08,"concentration_Cs-137":3.45,"concentration_Pb-210":344.28,"concentration_air-volume":116954.0,"from_timestamp":"2013-02-04T08:43:00Z","id":"103429","site":"Kotka","to_timestamp":"2013-02-12T05:35:00Z","uncertainty_Be-7-uncertainty":5.0,"uncertainty_Cs-137-uncertainty":5.0,"uncertainty_Pb-210-uncertainty":5.0},"type":"Feature"},{"geometry":{"coordinates":[26.91808,60.48318],"type":"Point"},"properties":{"concentration_Be-7":1802.69,"concentration_Co-60":0.18,"concentration_Cs-137":2.11,"concentration_Pb-210":769.52,"concentration_air-volume":102364.0,"from_timestamp":"2013-02-12T05:35:00Z","id":"103429","site":"Kotka","to_timestamp":"2013-02-19T04:57:00Z","uncertainty_Be-7-uncertainty":5.0,"uncertainty_Co-60-uncertainty":5.0,"uncertainty_Cs-137-uncertainty":5.0,"uncertainty_Pb-210-uncertainty":5.0},"type":"Feature"},{"geometry":{"coordinates":[28.82663,61.13229],"type":"Point"},"properties":{"concentration_Be-7":1297.31,"concentration_Cs-137":0.5,"concentration_Pb-210":363.8,"concentration_air-volume":27051.0,"from_timestamp":"2013-02-04T06:55:00Z","id":"103430","site":"Imatra","to_timestamp":"2013-02-11T06:25:00Z","uncertainty_Be-7-uncertainty":6.0,"uncertainty_Cs-137-uncertainty":15.0,"uncertainty_Pb-210-uncertainty":20.0},"type":"Feature"},{"geometry":{"coordinates":[28.82663,61.13229],"type":"Point"},"properties":{"concentration_Be-7":2108.95,"concentration_Cs-137":0.5,"concentration_Pb-210":606.55,"concentration_air-volume":27137.0,"from_timestamp":"2013-02-11T06:30:00Z","id":"103430","site":"Imatra","to_timestamp":"2013-02-18T06:10:00Z","uncertainty_Be-7-uncertainty":6.0,"uncertainty_Cs-137-uncertainty":15.0,"uncertainty_Pb-210-uncertainty":20.0},"type":"Feature"},{"geometry":{"coordinates":[27.57,68.64],"type":"Point"},"properties":{"concentration_Be-7":938.35,"concentration_Cs-137":0.37,"concentration_air-volume":27578.0,"from_timestamp":"2013-02-04T07:29:00Z","id":"103431","site":"Ivalo","to_timestamp":"2013-02-11T07:54:00Z","uncertainty_Be-7-uncertainty":5.0,"uncertainty_Cs-137-uncertainty":21.0},"type":"Feature"},{"geometry":{"coordinates":[27.57,68.64],"type":"Point"},"properties":{"concentration_Be-7":1454.26,"concentration_Cs-137":0.42,"concentration_Pb-210":279.65,"concentration_air-volume":26342.0,"from_timestamp":"2013-02-11T07:56:00Z","id":"103431","site":"Ivalo","to_timestamp":"2013-02-18T08:09:00Z","uncertainty_Be-7-uncertainty":5.0,"uncertainty_Cs-137-uncertainty":22.0,"uncertainty_Pb-210-uncertainty":5.0},"type":"Feature"},{"geometry":{"coordinates":[27.63414,62.89195],"type":"Point"},"properties":{"concentration_Be-7":946.94,"concentration_Cs-137":1.5,"concentration_air-volume":15572.0,"from_timestamp":"2013-02-07T05:31:00Z","id":"103432","site":"Kuopio","to_timestamp":"2013-02-11T05:31:00Z","uncertainty_Be-7-uncertainty":6.0,"uncertainty_Cs-137-uncertainty":22.0},"type":"Feature"},{"geometry":{"coordinates":[27.63414,62.89195],"type":"Point"},"properties":{"concentration_Be-7":1625.68,"concentration_air-volume":11708.0,"from_timestamp":"2013-02-11T05:32:00Z","id":"103432","site":"Kuopio","to_timestamp":"2013-02-14T05:35:00Z","uncertainty_Be-7-uncertainty":6.0},"type":"Feature"},{"geometry":{"coordinates":[27.63414,62.89195],"type":"Point"},"properties":{"concentration_Be-7":2596.23,"concentration_Cs-137":1.34,"concentration_air-volume":15403.0,"from_timestamp":"2013-02-14T05:36:00Z","id":"103432","site":"Kuopio","to_timestamp":"2013-02-18T05:25:00Z","uncertainty_Be-7-uncertainty":6.0,"uncertainty_Cs-137-uncertainty":26.0},"type":"Feature"},{"geometry":{"coordinates":[25.67774,66.51285],"type":"Point"},"properties":{"concentration_Be-7":681.97,"concentration_Cs-137":0.38,"concentration_Na-22":0.11,"concentration_Pb-210":179.99,"concentration_air-volume":132375.0,"from_timestamp":"2013-02-04T11:19:00Z","id":"103433","site":"Rovaniemi","to_timestamp":"2013-02-11T11:49:00Z","uncertainty_Be-7-uncertainty":5.0,"uncertainty_Cs-137-uncertainty":7.0,"uncertainty_Na-22-uncertainty":20.0,"uncertainty_Pb-210-uncertainty":5.0},"type":"Feature"},{"geometry":{"coordinates":[25.67774,66.51285],"type":"Point"},"properties":{"concentration_Be-7":1082.59,"concentration_Cs-137":0.49,"concentration_Na-22":0.14,"concentration_Pb-210":232.39,"concentration_air-volume":131750.0,"from_timestamp":"2013-02-11T11:52:00Z","id":"103433","site":"Rovaniemi","to_timestamp":"2013-02-18T11:22:00Z","uncertainty_Be-7-uncertainty":5.0,"uncertainty_Cs-137-uncertainty":7.0,"uncertainty_Na-22-uncertainty":11.0,"uncertainty_Pb-210-uncertainty":6.0},"type":"Feature"},{"geometry":{"coordinates":[26.62807,67.36505],"type":"Point"},"properties":{"concentration_Be-7":1038.76,"concentration_Cs-137":0.4,"concentration_Pb-210":203.99,"concentration_air-volume":27899.0,"from_timestamp":"2013-02-04T08:24:00Z","id":"103434","site":"Sodankylä","to_timestamp":"2013-02-11T08:23:00Z","uncertainty_Be-7-uncertainty":5.0,"uncertainty_Cs-137-uncertainty":24.0,"uncertainty_Pb-210-uncertainty":12.0},"type":"Feature"},{"geometry":{"coordinates":[26.62807,67.36505],"type":"Point"},"properties":{"concentration_Be-7":1464.32,"concentration_Cs-137":0.53,"concentration_Na-22":0.24,"concentration_Pb-210":192.68,"concentration_air-volume":27208.0,"from_timestamp":"2013-02-11T08:27:00Z","id":"103434","site":"Sodankylä","to_timestamp":"2013-02-18T08:35:00Z","uncertainty_Be-7-uncertainty":6.0,"uncertainty_Cs-137-uncertainty":21.0,"uncertainty_Na-22-uncertainty":13.0,"uncertainty_Pb-210-uncertainty":13.0},"type":"Feature"},{"geometry":{"coordinates":[27.70835,64.08474],"type":"Point"},"properties":{"concentration_Be-7":1105.78,"concentration_Cs-137":0.36,"concentration_Pb-210":763.19,"concentration_air-volume":100535.0,"from_timestamp":"2013-02-04T09:05:00Z","id":"103435","site":"Kajaani","to_timestamp":"2013-02-11T06:54:00Z","uncertainty_Be-7-uncertainty":7.0,"uncertainty_Cs-137-uncertainty":11.0,"uncertainty_Pb-210-uncertainty":20.0},"type":"Feature"},{"geometry":{"coordinates":[27.70835,64.08474],"type":"Point"},"properties":{"concentration_Be-7":1005.91,"concentration_Cs-137":0.5,"concentration_Na-22":0.09,"concentration_Pb-210":439.97,"concentration_air-volume":201638.0,"from_timestamp":"2013-02-11T06:57:00Z","id":"103435","site":"Kajaani","to_timestamp":"2013-02-25T07:58:00Z","uncertainty_Be-7-uncertainty":5.0,"uncertainty_Cs-137-uncertainty":6.0,"uncertainty_Na-22-uncertainty":26.0,"uncertainty_Pb-210-uncertainty":5.0},"type":"Feature"}],"name":"stuk_open_data_air_radionuclides","type":"FeatureCollection"}