{"crs":{"properties":{"name":"urn:ogc:def:crs:OGC:1.3:CRS84"},"type":"name"},"features":[{"geometry":{"coordinates":[25.05385,60.20905],"type":"Point"},"properties":{"concentration_Be-7":2420.13,"concentration_Pb-210":208.29,"concentration_air-volume":16464.0,"from_timestamp":"2013-08-20T07:51:00Z","id":"103428","site":"Helsinki","to_timestamp":"2013-08-21T07:50:00Z","uncertainty_Be-7-uncertainty":5.0,"uncertainty_Pb-210-uncertainty":18.0},"type":"Feature"},{"geometry":{"coordinates":[25.05385,60.20905],"type":"Point"},"properties":{"concentration_Be-7":1863.78,"concentration_Pb-210":275.33,"concentration_air-volume":29985.0,"from_timestamp":"2013-08-21T12:56:00Z","id":"103428","site":"Helsinki","to_timestamp":"2013-08-23T07:50:00Z","uncertainty_Be-7-uncertainty":5.0,"uncertainty_Pb-210-uncertainty":5.0},"type":"Feature"},{"geometry":{"coordinates":[25.05385,60.20905],"type":"Point"},"properties":{"concentration_Be-7":1018.56,"concentration_Cs-137":0.9,"concentration_Pb-210":145.42,"concentration_air-volume":32948.0,"from_timestamp":"2013-08-23T07:51:00Z","id":"103428","site":"Helsinki","to_timestamp":"2013-08-25T07:50:00Z","uncertainty_Be-7-uncertainty":6.0,"uncertainty_Cs-137-uncertainty":26.0,"uncertainty_Pb-210-uncertainty":20.0},"type":"Feature"},{"geometry":{"coordinates":[25.05385,60.20905],"type":"Point"},"properties":{"concentration_Be-7":1193.78,"concentration_Cs-137":2.37,"concentration_Pb-210":323.16,"concentration_air-volume":16685.0,"from_timestamp":"2013-08-25T07:51:00Z","id":"103428","site":"Helsinki","to_timestamp":"2013-08-26T07:50:00Z","uncertainty_Be-7-uncertainty":5.0,"uncertainty_Cs-137-uncertainty":13.0,"uncertainty_Pb-210-uncertainty":6.0},"type":"Feature"},{"geometry":{"coordinates":[25.05385,60.20905],"type":"Point"},"properties":{"concentration_Be-7":1664.54,"concentration_Pb-210":301.46,"concentration_air-volume":16161.0,"from_timestamp":"2013-08-26T07:51:00Z","id":"103428","site":"Helsinki","to_timestamp":"2013-08-27T07:24:00Z","uncertainty_Be-7-uncertainty":5.0,"uncertainty_Pb-210-uncertainty":11.0},"type":"Feature"},{"geometry":{"coordinates":[25.05385,60.20905],"type":"Point"},"properties":{"concentration_Be-7":1657.26,"concentration_Pb-210":340.09,"concentration_air-volume":16229.0,"from_timestamp":"2013-08-27T07:25:00Z","id":"103428","site":"Helsinki","to_timestamp":"2013-08-28T07:50:00Z","uncertainty_Be-7-uncertainty":5.0,"uncertainty_Pb-210-uncertainty":9.0},"type":"Feature"},{"geometry":{"coordinates":[25.05385,60.20905],"type":"Point"},"properties":{"concentration_Be-7":2235.34,"concentration_Pb-210":442.48,"concentration_air-volume":15839.0,"from_timestamp":"2013-08-28T07:51:00Z","id":"103428","site":"Helsinki","to_timestamp":"2013-08-29T07:50:00Z","uncertainty_Be-7-uncertainty":5.0,"uncertainty_Pb-210-uncertainty":8.0},"type":"Feature"},{"geometry":{"coordinates":[26.91808,60.48318],"type":"Point"},"properties":{"concentration_Be-7":1921.0,"concentration_Cs-137":1.99,"concentration_Pb-210":310.36,"concentration_air-volume":25430.0,"from_timestamp":"2013-08-20T08:43:00Z","id":"103429","site":"Kotka","to_timestamp":"2013-08-26T13:00:00Z","uncertainty_Be-7-uncertainty":5.0,"uncertainty_Cs-137-uncertainty":8.0,"uncertainty_Pb-210-uncertainty":5.0},"type":"Feature"},{"geometry":{"coordinates":[26.91808,60.48318],"type":"Point"},"properties":{"concentration_Be-7":2653.63,"concentration_Cs-137":2.11,"concentration_Pb-210":425.61,"concentration_air-volume":24215.0,"from_timestamp":"2013-08-26T13:05:00Z","id":"103429","site":"Kotka","to_timestamp":"2013-09-02T10:10:00Z","uncertainty_Be-7-uncertainty":5.0,"uncertainty_Cs-137-uncertainty":8.0,"uncertainty_Pb-210-uncertainty":5.0},"type":"Feature"},{"geometry":{"coordinates":[28.82663,61.13229],"type":"Point"},"properties":{"concentration_Be-7":2196.6,"concentration_Cs-137":0.65,"concentration_Pb-210":302.74,"concentration_air-volume":25327.0,"from_timestamp":"2013-08-19T06:20:00Z","id":"103430","site":"Imatra","to_timestamp":"2013-08-26T04:55:00Z","uncertainty_Be-7-uncertainty":6.0,"uncertainty_Cs-137-uncertainty":13.0,"uncertainty_Pb-210-uncertainty":20.0},"type":"Feature"},{"geometry":{"coordinates":[28.82663,61.13229],"type":"Point"},"properties":{"concentration_Be-7":2685.04,"concentration_Cs-137":0.52,"concentration_Pb-210":320.91,"concentration_air-volume":25752.0,"from_timestamp":"2013-08-26T04:55:00Z","id":"103430","site":"Imatra","to_timestamp":"2013-09-02T07:00:00Z","uncertainty_Be-7-uncertainty":9.0,"uncertainty_Cs-137-uncertainty":18.0,"uncertainty_Pb-210-uncertainty":20.0},"type":"Feature"},{"geometry":{"coordinates":[27.57,68.64],"type":"Point"},"properties":{"concentration_Be-7":1857.23,"concentration_Cs-137":0.31,"concentration_Na-22":0.3,"concentration_Pb-210":145.6,"concentration_air-volume":25576.0,"from_timestamp":"2013-08-19T07:58:00Z","id":"103431","site":"Ivalo","to_timestamp":"2013-08-26T08:03:00Z","uncertainty_Be-7-uncertainty":5.0,"uncertainty_Cs-137-uncertainty":22.0,"uncertainty_Na-22-uncertainty":19.0,"uncertainty_Pb-210-uncertainty":15.0},"type":"Feature"},{"geometry":{"coordinates":[27.57,68.64],"type":"Point"},"properties":{"concentration_Be-7":2274.1,"concentration_Cs-137":0.44,"concentration_Pb-210":257.93,"concentration_air-volume":25505.0,"from_timestamp":"2013-08-26T08:04:00Z","id":"103431","site":"Ivalo","to_timestamp":"2013-09-02T07:42:00Z","uncertainty_Be-7-uncertainty":4.0,"uncertainty_Cs-137-uncertainty":17.0,"uncertainty_Pb-210-uncertainty":12.0},"type":"Feature"},{"geometry":{"coordinates":[27.63414,62.89195],"type":"Point"},"properties":{"concentration_Be-7":3239.77,"concentration_Cs-137":1.94,"concentration_air-volume":11224.0,"from_timestamp":"2013-08-19T05:25:00Z","id":"103432","site":"Kuopio","to_timestamp":"2013-08-22T05:25:00Z","uncertainty_Be-7-uncertainty":6.0,"uncertainty_Cs-137-uncertainty":25.0},"type":"Feature"},{"geometry":{"coordinates":[27.63414,62.89195],"type":"Point"},"properties":{"concentration_Be-7":1463.71,"concentration_Cs-137":1.32,"concentration_air-volume":14984.0,"from_timestamp":"2013-08-22T05:26:00Z","id":"103432","site":"Kuopio","to_timestamp":"2013-08-26T05:20:00Z","uncertainty_Be-7-uncertainty":6.0,"uncertainty_Cs-137-uncertainty":27.0},"type":"Feature"},{"geometry":{"coordinates":[27.63414,62.89195],"type":"Point"},"properties":{"concentration_Be-7":2861.0,"concentration_Cs-137":2.63,"concentration_air-volume":11284.0,"from_timestamp":"2013-08-26T05:21:00Z","id":"103432","site":"Kuopio","to_timestamp":"2013-08-29T05:22:00Z","uncertainty_Be-7-uncertainty":6.0,"uncertainty_Cs-137-uncertainty":19.0},"type":"Feature"},{"geometry":{"coordinates":[25.67774,66.51285],"type":"Point"},"properties":{"concentration_Be-7":1340.65,"concentration_Cs-137":0.31,"concentration_Na-22":0.25,"concentration_Pb-210":88.0,"concentration_air-volume":126556.0,"from_timestamp":"2013-08-19T09:50:00Z","id":"103433","site":"Rovaniemi","to_timestamp":"2013-08-26T09:59:00Z","uncertainty_Be-7-uncertainty":5.0,"uncertainty_Cs-137-uncertainty":8.0,"uncertainty_Na-22-uncertainty":17.0,"uncertainty_Pb-210-uncertainty":5.0},"type":"Feature"},{"geometry":{"coordinates":[25.67774,66.51285],"type":"Point"},"properties":{"concentration_Be-7":2113.01,"concentration_Cs-137":0.33,"concentration_Na-22":0.31,"concentration_Pb-210":125.71,"concentration_air-volume":124673.0,"from_timestamp":"2013-08-26T10:05:00Z","id":"103433","site":"Rovaniemi","to_timestamp":"2013-09-02T09:38:00Z","uncertainty_Be-7-uncertainty":6.0,"uncertainty_Cs-137-uncertainty":8.0,"uncertainty_Na-22-uncertainty":7.0,"uncertainty_Pb-210-uncertainty":5.0},"type":"Feature"},{"geometry":{"coordinates":[26.62807,67.36505],"type":"Point"},"properties":{"concentration_Be-7":1786.4,"concentration_Cs-137":0.38,"concentration_Na-22":0.58,"concentration_Pb-210":144.04,"concentration_air-volume":25270.0,"from_timestamp":"2013-08-19T08:45:00Z","id":"103434","site":"Sodankylä","to_timestamp":"2013-08-26T08:42:00Z","uncertainty_Be-7-uncertainty":5.0,"uncertainty_Cs-137-uncertainty":25.0,"uncertainty_Na-22-uncertainty":12.0,"uncertainty_Pb-210-uncertainty":27.0},"type":"Feature"},{"geometry":{"coordinates":[26.62807,67.36505],"type":"Point"},"properties":{"concentration_Be-7":2398.59,"concentration_Cs-137":0.56,"concentration_Na-22":0.58,"concentration_Pb-210":205.76,"concentration_air-volume":25351.0,"from_timestamp":"2013-08-26T08:45:00Z","id":"103434","site":"Sodankylä","to_timestamp":"2013-09-02T08:46:00Z","uncertainty_Be-7-uncertainty":5.0,"uncertainty_Cs-137-uncertainty":21.0,"uncertainty_Na-22-uncertainty":30.0,"uncertainty_Pb-210-uncertainty":17.0},"type":"Feature"},{"geometry":{"coordinates":[27.70835,64.08474],"type":"Point"},"properties":{"concentration_Be-7":1437.29,"concentration_Cs-137":0.78,"concentration_Na-22":0.24,"concentration_Pb-210":165.13,"concentration_air-volume":93212.0,"from_timestamp":"2013-08-19T10:33:00Z","id":"103435","site":"Kajaani","to_timestamp":"2013-08-26T04:40:00Z","uncertainty_Be-7-uncertainty":5.0,"uncertainty_Cs-137-uncertainty":8.0,"uncertainty_Na-22-uncertainty":22.0,"uncertainty_Pb-210-uncertainty":5.0},"type":"Feature"},{"geometry":{"coordinates":[27.70835,64.08474],"type":"Point"},"properties":{"concentration_Be-7":2723.86,"concentration_Cs-137":0.71,"concentration_Na-22":0.43,"concentration_Pb-210":330.45,"concentration_air-volume":96745.0,"from_timestamp":"2013-08-26T04:42:00Z","id":"103435","site":"Kajaani","to_timestamp":"2013-09-02T06:25:00Z","uncertainty_Be-7-uncertainty":5.0,"uncertainty_Cs-137-uncertainty":7.0,"uncertainty_Na-22-uncertainty":13.0,"uncertainty_Pb-210-uncertainty":5.0},"type":"Feature"}],"name":"stuk_open_data_air_radionuclides","type":"FeatureCollection"}