{"crs":{"properties":{"name":"urn:ogc:def:crs:OGC:1.3:CRS84"},"type":"name"},"features":[{"geometry":{"coordinates":[25.05385,60.20905],"type":"Point"},"properties":{"concentration_Be-7":1941.34,"concentration_Cs-137":1.52,"concentration_Pb-210":271.19,"concentration_air-volume":17226.0,"from_timestamp":"2013-03-21T06:52:00Z","id":"103428","site":"Helsinki","to_timestamp":"2013-03-22T06:51:00Z","uncertainty_Be-7-uncertainty":5.0,"uncertainty_Cs-137-uncertainty":26.0,"uncertainty_Pb-210-uncertainty":7.0},"type":"Feature"},{"geometry":{"coordinates":[25.05385,60.20905],"type":"Point"},"properties":{"concentration_Be-7":1777.95,"concentration_Cs-137":1.41,"concentration_Pb-210":364.29,"concentration_air-volume":17100.0,"from_timestamp":"2013-03-22T06:52:00Z","id":"103428","site":"Helsinki","to_timestamp":"2013-03-23T06:51:00Z","uncertainty_Be-7-uncertainty":5.0,"uncertainty_Cs-137-uncertainty":27.0,"uncertainty_Pb-210-uncertainty":7.0},"type":"Feature"},{"geometry":{"coordinates":[25.05385,60.20905],"type":"Point"},"properties":{"concentration_Be-7":3245.05,"concentration_Pb-210":389.83,"concentration_air-volume":16950.0,"from_timestamp":"2013-03-23T06:52:00Z","id":"103428","site":"Helsinki","to_timestamp":"2013-03-24T06:51:00Z","uncertainty_Be-7-uncertainty":5.0,"uncertainty_Pb-210-uncertainty":7.0},"type":"Feature"},{"geometry":{"coordinates":[25.05385,60.20905],"type":"Point"},"properties":{"concentration_Be-7":1233.78,"concentration_Cs-137":1.81,"concentration_Pb-210":169.1,"concentration_air-volume":16962.0,"from_timestamp":"2013-03-24T06:52:00Z","id":"103428","site":"Helsinki","to_timestamp":"2013-03-25T06:51:00Z","uncertainty_Be-7-uncertainty":5.0,"uncertainty_Cs-137-uncertainty":21.0,"uncertainty_Pb-210-uncertainty":10.0},"type":"Feature"},{"geometry":{"coordinates":[25.05385,60.20905],"type":"Point"},"properties":{"concentration_Be-7":973.61,"concentration_Cs-137":1.36,"concentration_Pb-210":173.48,"concentration_air-volume":16437.0,"from_timestamp":"2013-03-25T06:52:00Z","id":"103428","site":"Helsinki","to_timestamp":"2013-03-26T06:51:00Z","uncertainty_Be-7-uncertainty":5.0,"uncertainty_Cs-137-uncertainty":27.0,"uncertainty_Pb-210-uncertainty":10.0},"type":"Feature"},{"geometry":{"coordinates":[25.05385,60.20905],"type":"Point"},"properties":{"concentration_Be-7":1136.03,"concentration_Cs-137":2.78,"concentration_Pb-210":184.69,"concentration_air-volume":16204.0,"from_timestamp":"2013-03-26T06:52:00Z","id":"103428","site":"Helsinki","to_timestamp":"2013-03-27T06:51:00Z","uncertainty_Be-7-uncertainty":5.0,"uncertainty_Cs-137-uncertainty":16.0,"uncertainty_Pb-210-uncertainty":10.0},"type":"Feature"},{"geometry":{"coordinates":[25.05385,60.20905],"type":"Point"},"properties":{"concentration_Be-7":1043.88,"concentration_Pb-210":166.74,"concentration_air-volume":16352.0,"from_timestamp":"2013-03-27T06:52:00Z","id":"103428","site":"Helsinki","to_timestamp":"2013-03-28T06:51:00Z","uncertainty_Be-7-uncertainty":5.0,"uncertainty_Pb-210-uncertainty":10.0},"type":"Feature"},{"geometry":{"coordinates":[25.05385,60.20905],"type":"Point"},"properties":{"concentration_Be-7":1787.89,"concentration_Pb-210":289.09,"concentration_air-volume":16568.0,"from_timestamp":"2013-03-28T06:52:00Z","id":"103428","site":"Helsinki","to_timestamp":"2013-03-29T06:51:00Z","uncertainty_Be-7-uncertainty":5.0,"uncertainty_Pb-210-uncertainty":8.0},"type":"Feature"},{"geometry":{"coordinates":[25.05385,60.20905],"type":"Point"},"properties":{"concentration_Be-7":2268.91,"concentration_Pb-210":332.79,"concentration_air-volume":16767.0,"from_timestamp":"2013-03-29T06:52:00Z","id":"103428","site":"Helsinki","to_timestamp":"2013-03-30T06:51:00Z","uncertainty_Be-7-uncertainty":5.0,"uncertainty_Pb-210-uncertainty":7.0},"type":"Feature"},{"geometry":{"coordinates":[26.91808,60.48318],"type":"Point"},"properties":{"concentration_Be-7":2806.15,"concentration_Cs-137":1.8,"concentration_Na-22":0.4,"concentration_Pb-210":434.6,"concentration_air-volume":92241.0,"from_timestamp":"2013-03-19T05:38:00Z","id":"103429","site":"Kotka","to_timestamp":"2013-03-25T11:36:00Z","uncertainty_Be-7-uncertainty":5.0,"uncertainty_Cs-137-uncertainty":5.0,"uncertainty_Na-22-uncertainty":15.0,"uncertainty_Pb-210-uncertainty":5.0},"type":"Feature"},{"geometry":{"coordinates":[26.91808,60.48318],"type":"Point"},"properties":{"concentration_Be-7":2337.97,"concentration_Co-60":0.13,"concentration_Cs-137":3.64,"concentration_Na-22":0.36,"concentration_Pb-210":54.37,"concentration_air-volume":193641.0,"from_timestamp":"2013-03-25T11:38:00Z","id":"103429","site":"Kotka","to_timestamp":"2013-04-11T13:52:00Z","uncertainty_Be-7-uncertainty":5.0,"uncertainty_Co-60-uncertainty":11.0,"uncertainty_Cs-137-uncertainty":5.0,"uncertainty_Na-22-uncertainty":9.0,"uncertainty_Pb-210-uncertainty":7.0},"type":"Feature"},{"geometry":{"coordinates":[28.82663,61.13229],"type":"Point"},"properties":{"concentration_Be-7":2902.52,"concentration_Cs-137":0.33,"concentration_Pb-210":435.71,"concentration_air-volume":28268.0,"from_timestamp":"2013-03-18T06:50:00Z","id":"103430","site":"Imatra","to_timestamp":"2013-03-25T06:50:00Z","uncertainty_Be-7-uncertainty":6.0,"uncertainty_Cs-137-uncertainty":24.0,"uncertainty_Pb-210-uncertainty":20.0},"type":"Feature"},{"geometry":{"coordinates":[28.82663,61.13229],"type":"Point"},"properties":{"concentration_Be-7":1769.05,"concentration_Cs-137":0.83,"concentration_Na-22":0.45,"concentration_Pb-210":248.68,"concentration_air-volume":30875.0,"from_timestamp":"2013-03-25T06:55:00Z","id":"103430","site":"Imatra","to_timestamp":"2013-04-02T06:55:00Z","uncertainty_Be-7-uncertainty":6.0,"uncertainty_Cs-137-uncertainty":10.0,"uncertainty_Na-22-uncertainty":23.0,"uncertainty_Pb-210-uncertainty":20.0},"type":"Feature"},{"geometry":{"coordinates":[27.57,68.64],"type":"Point"},"properties":{"concentration_Be-7":2340.57,"concentration_Pb-210":172.31,"concentration_air-volume":27124.0,"from_timestamp":"2013-03-18T08:48:00Z","id":"103431","site":"Ivalo","to_timestamp":"2013-03-25T10:00:00Z","uncertainty_Be-7-uncertainty":5.0,"uncertainty_Pb-210-uncertainty":5.0},"type":"Feature"},{"geometry":{"coordinates":[27.57,68.64],"type":"Point"},"properties":{"concentration_Be-7":1771.28,"concentration_Pb-210":86.83,"concentration_air-volume":29902.0,"from_timestamp":"2013-03-25T10:02:00Z","id":"103431","site":"Ivalo","to_timestamp":"2013-04-02T07:48:00Z","uncertainty_Be-7-uncertainty":5.0,"uncertainty_Pb-210-uncertainty":5.0},"type":"Feature"},{"geometry":{"coordinates":[27.63414,62.89195],"type":"Point"},"properties":{"concentration_Be-7":2254.88,"concentration_air-volume":16315.0,"from_timestamp":"2013-03-21T05:29:00Z","id":"103432","site":"Kuopio","to_timestamp":"2013-03-25T05:26:00Z","uncertainty_Be-7-uncertainty":6.0},"type":"Feature"},{"geometry":{"coordinates":[27.63414,62.89195],"type":"Point"},"properties":{"concentration_Be-7":1520.19,"concentration_Cs-137":1.45,"concentration_air-volume":12397.0,"from_timestamp":"2013-03-25T05:27:00Z","id":"103432","site":"Kuopio","to_timestamp":"2013-03-28T07:13:00Z","uncertainty_Be-7-uncertainty":6.0,"uncertainty_Cs-137-uncertainty":30.0},"type":"Feature"},{"geometry":{"coordinates":[27.63414,62.89195],"type":"Point"},"properties":{"concentration_Be-7":2707.48,"concentration_Cs-137":1.71,"concentration_air-volume":18887.0,"from_timestamp":"2013-03-28T07:15:00Z","id":"103432","site":"Kuopio","to_timestamp":"2013-04-02T05:44:00Z","uncertainty_Be-7-uncertainty":6.0,"uncertainty_Cs-137-uncertainty":18.0},"type":"Feature"},{"geometry":{"coordinates":[25.67774,66.51285],"type":"Point"},"properties":{"concentration_Be-7":1838.92,"concentration_Cs-137":0.16,"concentration_Na-22":0.21,"concentration_Pb-210":139.82,"concentration_air-volume":133325.0,"from_timestamp":"2013-03-18T12:04:00Z","id":"103433","site":"Rovaniemi","to_timestamp":"2013-03-25T10:55:00Z","uncertainty_Be-7-uncertainty":5.0,"uncertainty_Cs-137-uncertainty":10.0,"uncertainty_Na-22-uncertainty":12.0,"uncertainty_Pb-210-uncertainty":5.0},"type":"Feature"},{"geometry":{"coordinates":[25.67774,66.51285],"type":"Point"},"properties":{"concentration_Be-7":1314.2,"concentration_Cs-137":0.48,"concentration_Na-22":0.2,"concentration_Pb-210":58.86,"concentration_air-volume":145635.0,"from_timestamp":"2013-03-25T10:58:00Z","id":"103433","site":"Rovaniemi","to_timestamp":"2013-04-02T09:02:00Z","uncertainty_Be-7-uncertainty":5.0,"uncertainty_Cs-137-uncertainty":7.0,"uncertainty_Na-22-uncertainty":8.0,"uncertainty_Pb-210-uncertainty":7.0},"type":"Feature"},{"geometry":{"coordinates":[26.62807,67.36505],"type":"Point"},"properties":{"concentration_Be-7":2441.35,"concentration_Pb-210":112.02,"concentration_air-volume":27101.0,"from_timestamp":"2013-03-18T08:22:00Z","id":"103434","site":"Sodankylä","to_timestamp":"2013-03-25T08:22:00Z","uncertainty_Be-7-uncertainty":6.0,"uncertainty_Pb-210-uncertainty":15.0},"type":"Feature"},{"geometry":{"coordinates":[26.62807,67.36505],"type":"Point"},"properties":{"concentration_Be-7":1704.05,"concentration_Pb-210":71.31,"concentration_air-volume":30453.0,"from_timestamp":"2013-03-25T08:26:00Z","id":"103434","site":"Sodankylä","to_timestamp":"2013-04-02T08:24:00Z","uncertainty_Be-7-uncertainty":5.0,"uncertainty_Pb-210-uncertainty":21.0},"type":"Feature"},{"geometry":{"coordinates":[27.70835,64.08474],"type":"Point"},"properties":{"concentration_Be-7":2076.53,"concentration_Cs-137":0.23,"concentration_Na-22":0.28,"concentration_Pb-210":65.96,"concentration_air-volume":102702.0,"from_timestamp":"2013-03-18T05:33:00Z","id":"103435","site":"Kajaani","to_timestamp":"2013-03-25T05:15:00Z","uncertainty_Be-7-uncertainty":5.0,"uncertainty_Cs-137-uncertainty":16.0,"uncertainty_Na-22-uncertainty":19.0,"uncertainty_Pb-210-uncertainty":9.0},"type":"Feature"},{"geometry":{"coordinates":[27.70835,64.08474],"type":"Point"},"properties":{"concentration_Be-7":1618.2,"concentration_Cs-137":0.33,"concentration_Na-22":0.2,"concentration_Pb-210":165.78,"concentration_air-volume":99568.0,"from_timestamp":"2013-03-25T05:17:00Z","id":"103435","site":"Kajaani","to_timestamp":"2013-04-01T04:20:00Z","uncertainty_Be-7-uncertainty":5.0,"uncertainty_Cs-137-uncertainty":11.0,"uncertainty_Na-22-uncertainty":19.0,"uncertainty_Pb-210-uncertainty":5.0},"type":"Feature"}],"name":"stuk_open_data_air_radionuclides","type":"FeatureCollection"}