{"crs":{"properties":{"name":"urn:ogc:def:crs:OGC:1.3:CRS84"},"type":"name"},"features":[{"geometry":{"coordinates":[25.05385,60.20905],"type":"Point"},"properties":{"concentration_Be-7":3778.45,"concentration_Pb-210":710.09,"concentration_air-volume":15780.0,"from_timestamp":"2013-09-13T07:51:00Z","id":"103428","site":"Helsinki","to_timestamp":"2013-09-14T07:50:00Z","uncertainty_Be-7-uncertainty":5.0,"uncertainty_Pb-210-uncertainty":7.0},"type":"Feature"},{"geometry":{"coordinates":[25.05385,60.20905],"type":"Point"},"properties":{"concentration_Be-7":3690.11,"concentration_Pb-210":598.88,"concentration_air-volume":15922.0,"from_timestamp":"2013-09-14T07:51:00Z","id":"103428","site":"Helsinki","to_timestamp":"2013-09-15T07:50:00Z","uncertainty_Be-7-uncertainty":5.0,"uncertainty_Pb-210-uncertainty":6.0},"type":"Feature"},{"geometry":{"coordinates":[25.05385,60.20905],"type":"Point"},"properties":{"concentration_Be-7":2844.59,"concentration_Pb-210":586.46,"concentration_air-volume":16132.0,"from_timestamp":"2013-09-15T07:51:00Z","id":"103428","site":"Helsinki","to_timestamp":"2013-09-16T07:50:00Z","uncertainty_Be-7-uncertainty":5.0,"uncertainty_Pb-210-uncertainty":5.0},"type":"Feature"},{"geometry":{"coordinates":[25.05385,60.20905],"type":"Point"},"properties":{"concentration_Be-7":2787.21,"concentration_Pb-210":651.19,"concentration_air-volume":15825.0,"from_timestamp":"2013-09-16T07:51:00Z","id":"103428","site":"Helsinki","to_timestamp":"2013-09-17T07:50:00Z","uncertainty_Be-7-uncertainty":5.0,"uncertainty_Pb-210-uncertainty":6.0},"type":"Feature"},{"geometry":{"coordinates":[25.05385,60.20905],"type":"Point"},"properties":{"concentration_Be-7":1704.98,"concentration_Pb-210":589.34,"concentration_air-volume":15102.0,"from_timestamp":"2013-09-17T07:51:00Z","id":"103428","site":"Helsinki","to_timestamp":"2013-09-18T07:50:00Z","uncertainty_Be-7-uncertainty":5.0,"uncertainty_Pb-210-uncertainty":6.0},"type":"Feature"},{"geometry":{"coordinates":[25.05385,60.20905],"type":"Point"},"properties":{"concentration_Be-7":1957.02,"concentration_Pb-210":732.19,"concentration_air-volume":15896.0,"from_timestamp":"2013-09-18T07:51:00Z","id":"103428","site":"Helsinki","to_timestamp":"2013-09-19T07:50:00Z","uncertainty_Be-7-uncertainty":5.0,"uncertainty_Pb-210-uncertainty":6.0},"type":"Feature"},{"geometry":{"coordinates":[25.05385,60.20905],"type":"Point"},"properties":{"concentration_Be-7":1722.5,"concentration_Pb-210":784.71,"concentration_air-volume":15816.0,"from_timestamp":"2013-09-19T07:51:00Z","id":"103428","site":"Helsinki","to_timestamp":"2013-09-20T07:50:00Z","uncertainty_Be-7-uncertainty":5.0,"uncertainty_Pb-210-uncertainty":6.0},"type":"Feature"},{"geometry":{"coordinates":[25.05385,60.20905],"type":"Point"},"properties":{"concentration_Be-7":1023.77,"concentration_Pb-210":742.79,"concentration_air-volume":15721.0,"from_timestamp":"2013-09-20T07:51:00Z","id":"103428","site":"Helsinki","to_timestamp":"2013-09-21T07:50:00Z","uncertainty_Be-7-uncertainty":5.0,"uncertainty_Pb-210-uncertainty":6.0},"type":"Feature"},{"geometry":{"coordinates":[25.05385,60.20905],"type":"Point"},"properties":{"concentration_Be-7":1720.51,"concentration_Pb-210":478.2,"concentration_air-volume":16019.0,"from_timestamp":"2013-09-21T07:51:00Z","id":"103428","site":"Helsinki","to_timestamp":"2013-09-22T07:50:00Z","uncertainty_Be-7-uncertainty":5.0,"uncertainty_Pb-210-uncertainty":7.0},"type":"Feature"},{"geometry":{"coordinates":[26.91808,60.48318],"type":"Point"},"properties":{"concentration_Be-7":4636.58,"concentration_Cs-137":4.22,"concentration_Pb-210":962.59,"concentration_air-volume":21289.0,"from_timestamp":"2013-09-10T03:55:00Z","id":"103429","site":"Kotka","to_timestamp":"2013-09-19T11:48:00Z","uncertainty_Be-7-uncertainty":5.0,"uncertainty_Cs-137-uncertainty":6.0,"uncertainty_Pb-210-uncertainty":5.0},"type":"Feature"},{"geometry":{"coordinates":[26.91808,60.48318],"type":"Point"},"properties":{"concentration_Be-7":2047.75,"concentration_Cs-137":3.31,"concentration_air-volume":25893.0,"from_timestamp":"2013-09-16T11:56:00Z","id":"103429","site":"Kotka","to_timestamp":"2013-09-23T16:00:00Z","uncertainty_Be-7-uncertainty":10.0,"uncertainty_Cs-137-uncertainty":11.0},"type":"Feature"},{"geometry":{"coordinates":[28.82663,61.13229],"type":"Point"},"properties":{"concentration_Be-7":3239.26,"concentration_Pb-210":100.64,"concentration_air-volume":25616.0,"from_timestamp":"2013-09-09T06:45:00Z","id":"103430","site":"Imatra","to_timestamp":"2013-09-16T06:40:00Z","uncertainty_Be-7-uncertainty":6.0,"uncertainty_Pb-210-uncertainty":20.0},"type":"Feature"},{"geometry":{"coordinates":[28.82663,61.13229],"type":"Point"},"properties":{"concentration_Be-7":1896.78,"concentration_Cs-137":0.3,"concentration_Pb-210":651.76,"concentration_air-volume":26242.0,"from_timestamp":"2013-09-16T06:45:00Z","id":"103430","site":"Imatra","to_timestamp":"2013-09-23T11:00:00Z","uncertainty_Be-7-uncertainty":6.0,"uncertainty_Cs-137-uncertainty":23.0,"uncertainty_Pb-210-uncertainty":20.0},"type":"Feature"},{"geometry":{"coordinates":[27.57,68.64],"type":"Point"},"properties":{"concentration_Be-7":3333.35,"concentration_Cs-137":0.6,"concentration_Pb-210":289.06,"concentration_air-volume":25465.0,"from_timestamp":"2013-09-09T09:54:00Z","id":"103431","site":"Ivalo","to_timestamp":"2013-09-16T08:05:00Z","uncertainty_Be-7-uncertainty":5.0,"uncertainty_Cs-137-uncertainty":17.0,"uncertainty_Pb-210-uncertainty":9.0},"type":"Feature"},{"geometry":{"coordinates":[27.57,68.64],"type":"Point"},"properties":{"concentration_Be-7":2445.13,"concentration_Pb-210":270.89,"concentration_air-volume":30422.0,"from_timestamp":"2013-09-16T08:05:00Z","id":"103431","site":"Ivalo","to_timestamp":"2013-09-23T07:54:00Z","uncertainty_Be-7-uncertainty":5.0,"uncertainty_Pb-210-uncertainty":8.0},"type":"Feature"},{"geometry":{"coordinates":[27.63414,62.89195],"type":"Point"},"properties":{"concentration_Be-7":4578.03,"concentration_Cs-137":1.56,"concentration_air-volume":14810.0,"from_timestamp":"2013-09-12T05:01:00Z","id":"103432","site":"Kuopio","to_timestamp":"2013-09-16T05:34:00Z","uncertainty_Be-7-uncertainty":6.0,"uncertainty_Cs-137-uncertainty":24.0},"type":"Feature"},{"geometry":{"coordinates":[27.63414,62.89195],"type":"Point"},"properties":{"concentration_Be-7":2163.08,"concentration_air-volume":11302.0,"from_timestamp":"2013-09-16T05:35:00Z","id":"103432","site":"Kuopio","to_timestamp":"2013-09-19T05:23:00Z","uncertainty_Be-7-uncertainty":6.0},"type":"Feature"},{"geometry":{"coordinates":[27.63414,62.89195],"type":"Point"},"properties":{"concentration_Be-7":2256.15,"concentration_air-volume":14871.0,"from_timestamp":"2013-09-19T05:24:00Z","id":"103432","site":"Kuopio","to_timestamp":"2013-09-23T05:37:00Z","uncertainty_Be-7-uncertainty":6.0},"type":"Feature"},{"geometry":{"coordinates":[25.67774,66.51285],"type":"Point"},"properties":{"concentration_Be-7":2652.91,"concentration_Cs-137":0.54,"concentration_Na-22":0.22,"concentration_Pb-210":249.77,"concentration_air-volume":126790.0,"from_timestamp":"2013-09-09T10:40:00Z","id":"103433","site":"Rovaniemi","to_timestamp":"2013-09-16T11:11:00Z","uncertainty_Be-7-uncertainty":5.0,"uncertainty_Cs-137-uncertainty":7.0,"uncertainty_Na-22-uncertainty":9.0,"uncertainty_Pb-210-uncertainty":5.0},"type":"Feature"},{"geometry":{"coordinates":[25.67774,66.51285],"type":"Point"},"properties":{"concentration_Be-7":1751.07,"concentration_Cs-137":0.17,"concentration_Na-22":0.19,"concentration_Pb-210":310.05,"concentration_air-volume":125555.0,"from_timestamp":"2013-09-16T11:15:00Z","id":"103433","site":"Rovaniemi","to_timestamp":"2013-09-23T12:51:00Z","uncertainty_Be-7-uncertainty":5.0,"uncertainty_Cs-137-uncertainty":11.0,"uncertainty_Na-22-uncertainty":12.0,"uncertainty_Pb-210-uncertainty":6.0},"type":"Feature"},{"geometry":{"coordinates":[26.62807,67.36505],"type":"Point"},"properties":{"concentration_Be-7":3161.43,"concentration_Cs-137":0.92,"concentration_Na-22":0.68,"concentration_air-volume":25548.0,"from_timestamp":"2013-09-09T08:46:00Z","id":"103434","site":"Sodankylä","to_timestamp":"2013-09-16T08:35:00Z","uncertainty_Be-7-uncertainty":5.0,"uncertainty_Cs-137-uncertainty":26.0,"uncertainty_Na-22-uncertainty":13.0},"type":"Feature"},{"geometry":{"coordinates":[26.62807,67.36505],"type":"Point"},"properties":{"concentration_Be-7":2283.99,"concentration_Cs-137":0.32,"concentration_Pb-210":444.03,"concentration_air-volume":30163.0,"from_timestamp":"2013-09-16T08:37:00Z","id":"103434","site":"Sodankylä","to_timestamp":"2013-09-23T08:36:00Z","uncertainty_Be-7-uncertainty":4.0,"uncertainty_Cs-137-uncertainty":22.0,"uncertainty_Pb-210-uncertainty":8.0},"type":"Feature"},{"geometry":{"coordinates":[27.70835,64.08474],"type":"Point"},"properties":{"concentration_Be-7":2605.83,"concentration_Cs-137":0.72,"concentration_Na-22":0.23,"concentration_Pb-210":554.44,"concentration_air-volume":108039.0,"from_timestamp":"2013-09-09T06:08:00Z","id":"103435","site":"Kajaani","to_timestamp":"2013-09-16T05:20:00Z","uncertainty_Be-7-uncertainty":5.0,"uncertainty_Cs-137-uncertainty":7.0,"uncertainty_Na-22-uncertainty":17.0,"uncertainty_Pb-210-uncertainty":5.0},"type":"Feature"},{"geometry":{"coordinates":[27.70835,64.08474],"type":"Point"},"properties":{"concentration_Be-7":1571.39,"concentration_Cs-137":0.38,"concentration_Na-22":0.13,"concentration_Pb-210":685.43,"concentration_air-volume":107755.0,"from_timestamp":"2013-09-16T05:22:00Z","id":"103435","site":"Kajaani","to_timestamp":"2013-09-23T05:22:00Z","uncertainty_Be-7-uncertainty":5.0,"uncertainty_Cs-137-uncertainty":10.0,"uncertainty_Na-22-uncertainty":27.0,"uncertainty_Pb-210-uncertainty":5.0},"type":"Feature"}],"name":"stuk_open_data_air_radionuclides","type":"FeatureCollection"}