{"crs":{"properties":{"name":"urn:ogc:def:crs:OGC:1.3:CRS84"},"type":"name"},"features":[{"geometry":{"coordinates":[25.05385,60.20905],"type":"Point"},"properties":{"concentration_Be-7":4520.91,"concentration_Cs-137":1.75,"concentration_Pb-210":466.29,"concentration_air-volume":15633.0,"from_timestamp":"2013-06-01T07:52:00Z","id":"103428","site":"Helsinki","to_timestamp":"2013-06-02T07:51:00Z","uncertainty_Be-7-uncertainty":5.0,"uncertainty_Cs-137-uncertainty":26.0,"uncertainty_Pb-210-uncertainty":7.0},"type":"Feature"},{"geometry":{"coordinates":[25.05385,60.20905],"type":"Point"},"properties":{"concentration_Be-7":5005.39,"concentration_Pb-210":505.01,"concentration_air-volume":15206.0,"from_timestamp":"2013-06-02T07:52:00Z","id":"103428","site":"Helsinki","to_timestamp":"2013-06-03T07:40:00Z","uncertainty_Be-7-uncertainty":5.0,"uncertainty_Pb-210-uncertainty":7.0},"type":"Feature"},{"geometry":{"coordinates":[25.05385,60.20905],"type":"Point"},"properties":{"concentration_Be-7":5643.16,"concentration_Pb-210":495.96,"concentration_air-volume":15503.0,"from_timestamp":"2013-06-03T07:41:00Z","id":"103428","site":"Helsinki","to_timestamp":"2013-06-04T07:51:00Z","uncertainty_Be-7-uncertainty":5.0,"uncertainty_Pb-210-uncertainty":8.0},"type":"Feature"},{"geometry":{"coordinates":[25.05385,60.20905],"type":"Point"},"properties":{"concentration_Be-7":5947.09,"concentration_Pb-210":466.74,"concentration_air-volume":15611.0,"from_timestamp":"2013-06-04T07:52:00Z","id":"103428","site":"Helsinki","to_timestamp":"2013-06-05T07:51:00Z","uncertainty_Be-7-uncertainty":5.0,"uncertainty_Pb-210-uncertainty":9.0},"type":"Feature"},{"geometry":{"coordinates":[25.05385,60.20905],"type":"Point"},"properties":{"concentration_Be-7":6515.44,"concentration_Pb-210":404.32,"concentration_air-volume":15340.0,"from_timestamp":"2013-06-05T07:52:00Z","id":"103428","site":"Helsinki","to_timestamp":"2013-06-06T07:51:00Z","uncertainty_Be-7-uncertainty":5.0,"uncertainty_Pb-210-uncertainty":8.0},"type":"Feature"},{"geometry":{"coordinates":[25.05385,60.20905],"type":"Point"},"properties":{"concentration_Be-7":6773.61,"concentration_Pb-210":339.6,"concentration_air-volume":15769.0,"from_timestamp":"2013-06-06T07:52:00Z","id":"103428","site":"Helsinki","to_timestamp":"2013-06-07T07:51:00Z","uncertainty_Be-7-uncertainty":5.0,"uncertainty_Pb-210-uncertainty":10.0},"type":"Feature"},{"geometry":{"coordinates":[25.05385,60.20905],"type":"Point"},"properties":{"concentration_Be-7":5533.27,"concentration_Pb-210":406.68,"concentration_air-volume":15921.0,"from_timestamp":"2013-06-07T07:52:00Z","id":"103428","site":"Helsinki","to_timestamp":"2013-06-08T07:51:00Z","uncertainty_Be-7-uncertainty":5.0,"uncertainty_Pb-210-uncertainty":8.0},"type":"Feature"},{"geometry":{"coordinates":[25.05385,60.20905],"type":"Point"},"properties":{"concentration_Be-7":3600.1,"concentration_Pb-210":434.46,"concentration_air-volume":15669.0,"from_timestamp":"2013-06-08T07:52:00Z","id":"103428","site":"Helsinki","to_timestamp":"2013-06-09T07:51:00Z","uncertainty_Be-7-uncertainty":5.0,"uncertainty_Pb-210-uncertainty":8.0},"type":"Feature"},{"geometry":{"coordinates":[25.05385,60.20905],"type":"Point"},"properties":{"concentration_Be-7":3024.51,"concentration_Pb-210":346.02,"concentration_air-volume":15642.0,"from_timestamp":"2013-06-09T07:52:00Z","id":"103428","site":"Helsinki","to_timestamp":"2013-06-10T07:51:00Z","uncertainty_Be-7-uncertainty":5.0,"uncertainty_Pb-210-uncertainty":9.0},"type":"Feature"},{"geometry":{"coordinates":[26.91808,60.48318],"type":"Point"},"properties":{"concentration_Be-7":5523.85,"concentration_Cs-137":7.97,"concentration_Na-22":0.9,"concentration_Pb-210":458.35,"concentration_air-volume":104233.0,"from_timestamp":"2013-05-27T07:53:00Z","id":"103429","site":"Kotka","to_timestamp":"2013-06-03T16:10:00Z","uncertainty_Be-7-uncertainty":5.0,"uncertainty_Cs-137-uncertainty":5.0,"uncertainty_Na-22-uncertainty":9.0,"uncertainty_Pb-210-uncertainty":5.0},"type":"Feature"},{"geometry":{"coordinates":[26.91808,60.48318],"type":"Point"},"properties":{"concentration_Be-7":6767.9,"concentration_Cs-137":3.43,"concentration_Na-22":0.97,"concentration_Pb-210":495.75,"concentration_air-volume":95415.0,"from_timestamp":"2013-06-03T16:20:00Z","id":"103429","site":"Kotka","to_timestamp":"2013-06-10T12:17:00Z","uncertainty_Be-7-uncertainty":5.0,"uncertainty_Cs-137-uncertainty":5.0,"uncertainty_Na-22-uncertainty":9.0,"uncertainty_Pb-210-uncertainty":5.0},"type":"Feature"},{"geometry":{"coordinates":[28.82663,61.13229],"type":"Point"},"properties":{"concentration_Be-7":5274.8,"concentration_Cs-137":0.66,"concentration_Na-22":0.86,"concentration_Pb-210":355.24,"concentration_air-volume":25118.0,"from_timestamp":"2013-05-27T06:40:00Z","id":"103430","site":"Imatra","to_timestamp":"2013-06-03T06:25:00Z","uncertainty_Be-7-uncertainty":6.0,"uncertainty_Cs-137-uncertainty":13.0,"uncertainty_Na-22-uncertainty":17.0,"uncertainty_Pb-210-uncertainty":20.0},"type":"Feature"},{"geometry":{"coordinates":[28.82663,61.13229],"type":"Point"},"properties":{"concentration_Be-7":5935.43,"concentration_Cs-137":0.6,"concentration_Pb-210":403.74,"concentration_air-volume":25174.0,"from_timestamp":"2013-06-03T07:00:00Z","id":"103430","site":"Imatra","to_timestamp":"2013-06-10T06:25:00Z","uncertainty_Be-7-uncertainty":6.0,"uncertainty_Cs-137-uncertainty":19.0,"uncertainty_Pb-210-uncertainty":20.0},"type":"Feature"},{"geometry":{"coordinates":[27.57,68.64],"type":"Point"},"properties":{"concentration_Be-7":6440.18,"concentration_Cs-137":0.6,"concentration_Na-22":1.14,"concentration_Pb-210":405.04,"concentration_air-volume":23039.0,"from_timestamp":"2013-05-27T13:01:00Z","id":"103431","site":"Ivalo","to_timestamp":"2013-06-03T07:52:00Z","uncertainty_Be-7-uncertainty":5.0,"uncertainty_Cs-137-uncertainty":17.0,"uncertainty_Na-22-uncertainty":7.0,"uncertainty_Pb-210-uncertainty":5.0},"type":"Feature"},{"geometry":{"coordinates":[27.57,68.64],"type":"Point"},"properties":{"concentration_Be-7":4154.76,"concentration_Cs-137":0.63,"concentration_Na-22":0.64,"concentration_Pb-210":144.97,"concentration_air-volume":24799.0,"from_timestamp":"2013-06-03T07:55:00Z","id":"103431","site":"Ivalo","to_timestamp":"2013-06-10T11:49:00Z","uncertainty_Be-7-uncertainty":5.0,"uncertainty_Cs-137-uncertainty":11.0,"uncertainty_Na-22-uncertainty":19.0,"uncertainty_Pb-210-uncertainty":5.0},"type":"Feature"},{"geometry":{"coordinates":[27.63414,62.89195],"type":"Point"},"properties":{"concentration_Be-7":6240.42,"concentration_Cs-137":4.1,"concentration_Pb-210":462.97,"concentration_air-volume":14292.0,"from_timestamp":"2013-05-30T06:24:00Z","id":"103432","site":"Kuopio","to_timestamp":"2013-06-03T06:00:00Z","uncertainty_Be-7-uncertainty":5.0,"uncertainty_Cs-137-uncertainty":8.0,"uncertainty_Pb-210-uncertainty":5.0},"type":"Feature"},{"geometry":{"coordinates":[27.63414,62.89195],"type":"Point"},"properties":{"concentration_Be-7":7268.97,"concentration_Cs-137":1.64,"concentration_Na-22":1.45,"concentration_Pb-210":467.5,"concentration_air-volume":10958.0,"from_timestamp":"2013-06-03T06:01:00Z","id":"103432","site":"Kuopio","to_timestamp":"2013-06-06T06:23:00Z","uncertainty_Be-7-uncertainty":6.0,"uncertainty_Cs-137-uncertainty":13.0,"uncertainty_Na-22-uncertainty":20.0,"uncertainty_Pb-210-uncertainty":20.0},"type":"Feature"},{"geometry":{"coordinates":[27.63414,62.89195],"type":"Point"},"properties":{"concentration_Be-7":4484.04,"concentration_Cs-137":0.91,"concentration_Na-22":0.71,"concentration_Pb-210":315.97,"concentration_air-volume":25913.0,"from_timestamp":"2013-06-06T06:24:00Z","id":"103432","site":"Kuopio","to_timestamp":"2013-06-13T06:25:00Z","uncertainty_Be-7-uncertainty":6.0,"uncertainty_Cs-137-uncertainty":12.0,"uncertainty_Na-22-uncertainty":23.0,"uncertainty_Pb-210-uncertainty":20.0},"type":"Feature"},{"geometry":{"coordinates":[25.67774,66.51285],"type":"Point"},"properties":{"concentration_Be-7":4633.78,"concentration_Cs-137":0.8,"concentration_Na-22":0.66,"concentration_Pb-210":155.25,"concentration_air-volume":117554.0,"from_timestamp":"2013-05-27T11:02:00Z","id":"103433","site":"Rovaniemi","to_timestamp":"2013-06-03T10:42:00Z","uncertainty_Be-7-uncertainty":5.0,"uncertainty_Cs-137-uncertainty":6.0,"uncertainty_Na-22-uncertainty":7.0,"uncertainty_Pb-210-uncertainty":5.0},"type":"Feature"},{"geometry":{"coordinates":[25.67774,66.51285],"type":"Point"},"properties":{"concentration_Be-7":2955.88,"concentration_Cs-137":0.33,"concentration_Na-22":0.45,"concentration_Pb-210":103.12,"concentration_air-volume":124715.0,"from_timestamp":"2013-06-03T10:59:00Z","id":"103433","site":"Rovaniemi","to_timestamp":"2013-06-10T11:09:00Z","uncertainty_Be-7-uncertainty":5.0,"uncertainty_Cs-137-uncertainty":8.0,"uncertainty_Na-22-uncertainty":8.0,"uncertainty_Pb-210-uncertainty":5.0},"type":"Feature"},{"geometry":{"coordinates":[26.62807,67.36505],"type":"Point"},"properties":{"concentration_Be-7":6965.97,"concentration_Cs-137":0.77,"concentration_Na-22":0.71,"concentration_Pb-210":372.51,"concentration_air-volume":24481.0,"from_timestamp":"2013-05-27T08:59:00Z","id":"103434","site":"Sodankylä","to_timestamp":"2013-06-03T08:37:00Z","uncertainty_Be-7-uncertainty":4.0,"uncertainty_Cs-137-uncertainty":11.0,"uncertainty_Na-22-uncertainty":15.0,"uncertainty_Pb-210-uncertainty":13.0},"type":"Feature"},{"geometry":{"coordinates":[26.62807,67.36505],"type":"Point"},"properties":{"concentration_Be-7":4234.02,"concentration_Cs-137":0.92,"concentration_Na-22":0.83,"concentration_Pb-210":326.01,"concentration_air-volume":25008.0,"from_timestamp":"2013-06-03T08:42:00Z","id":"103434","site":"Sodankylä","to_timestamp":"2013-06-10T08:07:00Z","uncertainty_Be-7-uncertainty":4.0,"uncertainty_Cs-137-uncertainty":15.0,"uncertainty_Na-22-uncertainty":16.0,"uncertainty_Pb-210-uncertainty":13.0},"type":"Feature"},{"geometry":{"coordinates":[27.70835,64.08474],"type":"Point"},"properties":{"concentration_Be-7":5289.25,"concentration_Cs-137":2.0,"concentration_Na-22":0.92,"concentration_Pb-210":71.01,"concentration_air-volume":98865.0,"from_timestamp":"2013-05-27T05:52:00Z","id":"103435","site":"Kajaani","to_timestamp":"2013-06-03T10:03:00Z","uncertainty_Be-7-uncertainty":5.0,"uncertainty_Cs-137-uncertainty":6.0,"uncertainty_Na-22-uncertainty":7.0,"uncertainty_Pb-210-uncertainty":10.0},"type":"Feature"},{"geometry":{"coordinates":[27.70835,64.08474],"type":"Point"},"properties":{"concentration_Be-7":4446.99,"concentration_Cs-137":1.04,"concentration_Na-22":0.57,"concentration_Pb-210":55.18,"concentration_air-volume":80713.0,"from_timestamp":"2013-06-03T10:05:00Z","id":"103435","site":"Kajaani","to_timestamp":"2013-06-10T04:34:00Z","uncertainty_Be-7-uncertainty":5.0,"uncertainty_Cs-137-uncertainty":7.0,"uncertainty_Na-22-uncertainty":12.0,"uncertainty_Pb-210-uncertainty":12.0},"type":"Feature"}],"name":"stuk_open_data_air_radionuclides","type":"FeatureCollection"}