{"crs":{"properties":{"name":"urn:ogc:def:crs:OGC:1.3:CRS84"},"type":"name"},"features":[{"geometry":{"coordinates":[25.05385,60.20905],"type":"Point"},"properties":{"concentration_Be-7":691.42,"concentration_Pb-210":123.56,"concentration_air-volume":16550.0,"from_timestamp":"2013-12-10T06:51:00Z","id":"103428","site":"Helsinki","to_timestamp":"2013-12-11T06:50:00Z","uncertainty_Be-7-uncertainty":5.0,"uncertainty_Pb-210-uncertainty":14.0},"type":"Feature"},{"geometry":{"coordinates":[25.05385,60.20905],"type":"Point"},"properties":{"concentration_Be-7":1567.4,"concentration_Pb-210":186.21,"concentration_air-volume":16356.0,"from_timestamp":"2013-12-11T06:51:00Z","id":"103428","site":"Helsinki","to_timestamp":"2013-12-12T06:50:00Z","uncertainty_Be-7-uncertainty":5.0,"uncertainty_Pb-210-uncertainty":11.0},"type":"Feature"},{"geometry":{"coordinates":[25.05385,60.20905],"type":"Point"},"properties":{"concentration_Be-7":2223.45,"concentration_Pb-210":261.26,"concentration_air-volume":16331.0,"from_timestamp":"2013-12-12T06:51:00Z","id":"103428","site":"Helsinki","to_timestamp":"2013-12-13T06:50:00Z","uncertainty_Be-7-uncertainty":5.0,"uncertainty_Pb-210-uncertainty":8.0},"type":"Feature"},{"geometry":{"coordinates":[25.05385,60.20905],"type":"Point"},"properties":{"concentration_Be-7":1691.36,"concentration_Pb-210":120.71,"concentration_air-volume":16974.0,"from_timestamp":"2013-12-13T06:51:00Z","id":"103428","site":"Helsinki","to_timestamp":"2013-12-14T06:50:00Z","uncertainty_Be-7-uncertainty":5.0,"uncertainty_Pb-210-uncertainty":15.0},"type":"Feature"},{"geometry":{"coordinates":[25.05385,60.20905],"type":"Point"},"properties":{"concentration_Be-7":1457.64,"concentration_Cs-137":1.8,"concentration_Pb-210":123.09,"concentration_air-volume":16725.0,"from_timestamp":"2013-12-14T06:51:00Z","id":"103428","site":"Helsinki","to_timestamp":"2013-12-15T06:50:00Z","uncertainty_Be-7-uncertainty":5.0,"uncertainty_Cs-137-uncertainty":24.0,"uncertainty_Pb-210-uncertainty":16.0},"type":"Feature"},{"geometry":{"coordinates":[25.05385,60.20905],"type":"Point"},"properties":{"concentration_Be-7":1236.55,"concentration_Pb-210":202.88,"concentration_air-volume":16388.0,"from_timestamp":"2013-12-15T06:51:00Z","id":"103428","site":"Helsinki","to_timestamp":"2013-12-16T06:50:00Z","uncertainty_Be-7-uncertainty":5.0,"uncertainty_Pb-210-uncertainty":10.0},"type":"Feature"},{"geometry":{"coordinates":[25.05385,60.20905],"type":"Point"},"properties":{"concentration_Be-7":2163.04,"concentration_Pb-210":214.03,"concentration_air-volume":16181.0,"from_timestamp":"2013-12-16T06:51:00Z","id":"103428","site":"Helsinki","to_timestamp":"2013-12-17T06:50:00Z","uncertainty_Be-7-uncertainty":5.0,"uncertainty_Pb-210-uncertainty":10.0},"type":"Feature"},{"geometry":{"coordinates":[25.05385,60.20905],"type":"Point"},"properties":{"concentration_Be-7":1953.77,"concentration_Pb-210":73.41,"concentration_air-volume":16504.0,"from_timestamp":"2013-12-17T06:51:00Z","id":"103428","site":"Helsinki","to_timestamp":"2013-12-18T06:50:00Z","uncertainty_Be-7-uncertainty":5.0,"uncertainty_Pb-210-uncertainty":24.0},"type":"Feature"},{"geometry":{"coordinates":[25.05385,60.20905],"type":"Point"},"properties":{"concentration_Be-7":1512.15,"concentration_Pb-210":103.52,"concentration_air-volume":16718.0,"from_timestamp":"2013-12-18T06:51:00Z","id":"103428","site":"Helsinki","to_timestamp":"2013-12-19T06:50:00Z","uncertainty_Be-7-uncertainty":5.0,"uncertainty_Pb-210-uncertainty":16.0},"type":"Feature"},{"geometry":{"coordinates":[26.91808,60.48318],"type":"Point"},"properties":{"concentration_Be-7":1009.64,"concentration_Cs-137":0.97,"concentration_air-volume":146312.0,"from_timestamp":"2013-12-09T07:43:00Z","id":"103429","site":"Kotka","to_timestamp":"2013-12-16T12:00:00Z","uncertainty_Be-7-uncertainty":7.0,"uncertainty_Cs-137-uncertainty":8.0},"type":"Feature"},{"geometry":{"coordinates":[26.91808,60.48318],"type":"Point"},"properties":{"concentration_Be-7":1489.04,"concentration_Cs-137":0.51,"concentration_Na-22":0.11,"concentration_Pb-210":324.58,"concentration_air-volume":189848.0,"from_timestamp":"2013-12-16T12:01:00Z","id":"103429","site":"Kotka","to_timestamp":"2013-12-30T07:52:00Z","uncertainty_Be-7-uncertainty":6.0,"uncertainty_Cs-137-uncertainty":8.0,"uncertainty_Na-22-uncertainty":26.0,"uncertainty_Pb-210-uncertainty":20.0},"type":"Feature"},{"geometry":{"coordinates":[28.82663,61.13229],"type":"Point"},"properties":{"concentration_Be-7":1180.29,"concentration_Pb-210":222.17,"concentration_air-volume":27671.0,"from_timestamp":"2013-12-05T04:31:00Z","id":"103430","site":"Imatra","to_timestamp":"2013-12-12T07:00:00Z","uncertainty_Be-7-uncertainty":5.0,"uncertainty_Pb-210-uncertainty":5.0},"type":"Feature"},{"geometry":{"coordinates":[28.82663,61.13229],"type":"Point"},"properties":{"concentration_Be-7":1488.66,"concentration_Cs-137":0.67,"concentration_Pb-210":168.11,"concentration_air-volume":22468.0,"from_timestamp":"2013-12-12T07:05:00Z","id":"103430","site":"Imatra","to_timestamp":"2013-12-19T06:45:00Z","uncertainty_Be-7-uncertainty":5.0,"uncertainty_Cs-137-uncertainty":20.0,"uncertainty_Pb-210-uncertainty":5.0},"type":"Feature"},{"geometry":{"coordinates":[27.57,68.64],"type":"Point"},"properties":{"concentration_Be-7":1725.6,"concentration_Cs-137":0.5,"concentration_Na-22":0.23,"concentration_Pb-210":91.9,"concentration_air-volume":27144.0,"from_timestamp":"2013-12-09T08:16:00Z","id":"103431","site":"Ivalo","to_timestamp":"2013-12-16T09:11:00Z","uncertainty_Be-7-uncertainty":5.0,"uncertainty_Cs-137-uncertainty":11.0,"uncertainty_Na-22-uncertainty":27.0,"uncertainty_Pb-210-uncertainty":20.0},"type":"Feature"},{"geometry":{"coordinates":[27.57,68.64],"type":"Point"},"properties":{"concentration_Be-7":683.94,"concentration_Cs-137":0.23,"concentration_Na-22":0.39,"concentration_Pb-210":152.34,"concentration_air-volume":26237.0,"from_timestamp":"2013-12-16T09:13:00Z","id":"103431","site":"Ivalo","to_timestamp":"2013-12-23T07:29:00Z","uncertainty_Be-7-uncertainty":5.0,"uncertainty_Cs-137-uncertainty":23.0,"uncertainty_Na-22-uncertainty":28.0,"uncertainty_Pb-210-uncertainty":12.0},"type":"Feature"},{"geometry":{"coordinates":[27.63414,62.89195],"type":"Point"},"properties":{"concentration_Be-7":1560.18,"concentration_air-volume":12199.0,"from_timestamp":"2013-12-09T05:34:00Z","id":"103432","site":"Kuopio","to_timestamp":"2013-12-12T05:40:00Z","uncertainty_Be-7-uncertainty":6.0},"type":"Feature"},{"geometry":{"coordinates":[27.63414,62.89195],"type":"Point"},"properties":{"concentration_Be-7":1857.15,"concentration_air-volume":15668.0,"from_timestamp":"2013-12-12T05:41:00Z","id":"103432","site":"Kuopio","to_timestamp":"2013-12-16T05:27:00Z","uncertainty_Be-7-uncertainty":6.0},"type":"Feature"},{"geometry":{"coordinates":[27.63414,62.89195],"type":"Point"},"properties":{"concentration_Be-7":1282.91,"concentration_air-volume":15778.0,"from_timestamp":"2013-12-16T05:27:00Z","id":"103432","site":"Kuopio","to_timestamp":"2013-12-20T04:57:00Z","uncertainty_Be-7-uncertainty":6.0},"type":"Feature"},{"geometry":{"coordinates":[25.67774,66.51285],"type":"Point"},"properties":{"concentration_Be-7":1421.98,"concentration_Cs-137":0.39,"concentration_Na-22":0.08,"concentration_Pb-210":130.34,"concentration_air-volume":126904.0,"from_timestamp":"2013-12-09T10:59:00Z","id":"103433","site":"Rovaniemi","to_timestamp":"2013-12-16T11:12:00Z","uncertainty_Be-7-uncertainty":5.0,"uncertainty_Cs-137-uncertainty":8.0,"uncertainty_Na-22-uncertainty":17.0,"uncertainty_Pb-210-uncertainty":5.0},"type":"Feature"},{"geometry":{"coordinates":[25.67774,66.51285],"type":"Point"},"properties":{"concentration_Be-7":529.4,"concentration_Cs-137":0.41,"concentration_Na-22":0.08,"concentration_Pb-210":56.84,"concentration_air-volume":127598.0,"from_timestamp":"2013-12-16T11:14:00Z","id":"103433","site":"Rovaniemi","to_timestamp":"2013-12-23T12:23:00Z","uncertainty_Be-7-uncertainty":5.0,"uncertainty_Cs-137-uncertainty":7.0,"uncertainty_Na-22-uncertainty":20.0,"uncertainty_Pb-210-uncertainty":5.0},"type":"Feature"},{"geometry":{"coordinates":[26.62807,67.36505],"type":"Point"},"properties":{"concentration_Be-7":1864.58,"concentration_Pb-210":255.87,"concentration_air-volume":27858.0,"from_timestamp":"2013-12-09T08:19:00Z","id":"103434","site":"Sodankylä","to_timestamp":"2013-12-16T08:17:00Z","uncertainty_Be-7-uncertainty":4.0,"uncertainty_Pb-210-uncertainty":11.0},"type":"Feature"},{"geometry":{"coordinates":[26.62807,67.36505],"type":"Point"},"properties":{"concentration_Be-7":675.51,"concentration_Cs-137":0.26,"concentration_Pb-210":119.5,"concentration_air-volume":26484.0,"from_timestamp":"2013-12-16T08:21:00Z","id":"103434","site":"Sodankylä","to_timestamp":"2013-12-23T07:47:00Z","uncertainty_Be-7-uncertainty":5.0,"uncertainty_Cs-137-uncertainty":29.0,"uncertainty_Pb-210-uncertainty":18.0},"type":"Feature"},{"geometry":{"coordinates":[27.70835,64.08474],"type":"Point"},"properties":{"concentration_Be-7":803.31,"concentration_Cs-137":0.24,"concentration_Pb-210":145.7,"concentration_air-volume":197651.0,"from_timestamp":"2013-12-02T13:33:00Z","id":"103435","site":"Kajaani","to_timestamp":"2013-12-16T06:54:00Z","uncertainty_Be-7-uncertainty":5.0,"uncertainty_Cs-137-uncertainty":9.0,"uncertainty_Pb-210-uncertainty":5.0},"type":"Feature"},{"geometry":{"coordinates":[27.70835,64.08474],"type":"Point"},"properties":{"concentration_Be-7":655.31,"concentration_Cs-137":0.27,"concentration_Pb-210":73.58,"concentration_air-volume":94559.0,"from_timestamp":"2013-12-16T06:55:00Z","id":"103435","site":"Kajaani","to_timestamp":"2013-12-23T12:20:00Z","uncertainty_Be-7-uncertainty":6.0,"uncertainty_Cs-137-uncertainty":9.0,"uncertainty_Pb-210-uncertainty":20.0},"type":"Feature"}],"name":"stuk_open_data_air_radionuclides","type":"FeatureCollection"}