{"crs":{"properties":{"name":"urn:ogc:def:crs:OGC:1.3:CRS84"},"type":"name"},"features":[{"geometry":{"coordinates":[25.05385,60.20905],"type":"Point"},"properties":{"concentration_Be-7":2052.23,"concentration_Pb-210":162.85,"concentration_air-volume":16278.0,"from_timestamp":"2013-06-17T07:52:00Z","id":"103428","site":"Helsinki","to_timestamp":"2013-06-18T07:51:00Z","uncertainty_Be-7-uncertainty":5.0,"uncertainty_Pb-210-uncertainty":14.0},"type":"Feature"},{"geometry":{"coordinates":[25.05385,60.20905],"type":"Point"},"properties":{"concentration_Be-7":2708.55,"concentration_Pb-210":179.08,"concentration_air-volume":15851.0,"from_timestamp":"2013-06-18T07:52:00Z","id":"103428","site":"Helsinki","to_timestamp":"2013-06-19T07:51:00Z","uncertainty_Be-7-uncertainty":5.0,"uncertainty_Pb-210-uncertainty":12.0},"type":"Feature"},{"geometry":{"coordinates":[25.05385,60.20905],"type":"Point"},"properties":{"concentration_Be-7":3231.73,"concentration_Na-22":0.82,"concentration_Pb-210":312.06,"concentration_air-volume":32026.0,"from_timestamp":"2013-06-19T07:52:00Z","id":"103428","site":"Helsinki","to_timestamp":"2013-06-21T07:51:00Z","uncertainty_Be-7-uncertainty":5.0,"uncertainty_Na-22-uncertainty":29.0,"uncertainty_Pb-210-uncertainty":5.0},"type":"Feature"},{"geometry":{"coordinates":[25.05385,60.20905],"type":"Point"},"properties":{"concentration_Be-7":4339.31,"concentration_air-volume":15802.0,"from_timestamp":"2013-06-21T07:52:00Z","id":"103428","site":"Helsinki","to_timestamp":"2013-06-22T07:51:00Z","uncertainty_Be-7-uncertainty":10.0},"type":"Feature"},{"geometry":{"coordinates":[25.05385,60.20905],"type":"Point"},"properties":{"concentration_Be-7":3122.85,"concentration_Pb-210":510.74,"concentration_air-volume":15992.0,"from_timestamp":"2013-06-24T06:35:00Z","id":"103428","site":"Helsinki","to_timestamp":"2013-06-25T08:17:00Z","uncertainty_Be-7-uncertainty":5.0,"uncertainty_Pb-210-uncertainty":7.0},"type":"Feature"},{"geometry":{"coordinates":[25.05385,60.20905],"type":"Point"},"properties":{"concentration_Be-7":3677.63,"concentration_air-volume":14328.0,"from_timestamp":"2013-06-25T08:18:00Z","id":"103428","site":"Helsinki","to_timestamp":"2013-06-26T08:02:00Z","uncertainty_Be-7-uncertainty":10.0},"type":"Feature"},{"geometry":{"coordinates":[26.91808,60.48318],"type":"Point"},"properties":{"concentration_Be-7":3071.4,"concentration_Cs-137":1.73,"concentration_Na-22":0.59,"concentration_Pb-210":330.03,"concentration_air-volume":99281.0,"from_timestamp":"2013-06-17T07:24:00Z","id":"103429","site":"Kotka","to_timestamp":"2013-06-24T06:26:00Z","uncertainty_Be-7-uncertainty":5.0,"uncertainty_Cs-137-uncertainty":6.0,"uncertainty_Na-22-uncertainty":10.0,"uncertainty_Pb-210-uncertainty":5.0},"type":"Feature"},{"geometry":{"coordinates":[26.91808,60.48318],"type":"Point"},"properties":{"concentration_Be-7":2720.24,"concentration_Cs-137":1.78,"concentration_Na-22":0.4,"concentration_Pb-210":527.47,"concentration_air-volume":112811.0,"from_timestamp":"2013-06-24T06:26:00Z","id":"103429","site":"Kotka","to_timestamp":"2013-07-02T05:00:00Z","uncertainty_Be-7-uncertainty":5.0,"uncertainty_Cs-137-uncertainty":6.0,"uncertainty_Na-22-uncertainty":12.0,"uncertainty_Pb-210-uncertainty":5.0},"type":"Feature"},{"geometry":{"coordinates":[28.82663,61.13229],"type":"Point"},"properties":{"concentration_Be-7":3123.46,"concentration_Cs-137":0.54,"concentration_Na-22":0.58,"concentration_Pb-210":264.92,"concentration_air-volume":25882.0,"from_timestamp":"2013-06-17T06:10:00Z","id":"103430","site":"Imatra","to_timestamp":"2013-06-24T10:55:00Z","uncertainty_Be-7-uncertainty":6.0,"uncertainty_Cs-137-uncertainty":18.0,"uncertainty_Na-22-uncertainty":25.0,"uncertainty_Pb-210-uncertainty":20.0},"type":"Feature"},{"geometry":{"coordinates":[28.82663,61.13229],"type":"Point"},"properties":{"concentration_Be-7":3557.8,"concentration_Cs-137":0.49,"concentration_Pb-210":589.14,"concentration_air-volume":24067.0,"from_timestamp":"2013-06-24T10:55:00Z","id":"103430","site":"Imatra","to_timestamp":"2013-07-01T06:15:00Z","uncertainty_Be-7-uncertainty":6.0,"uncertainty_Cs-137-uncertainty":19.0,"uncertainty_Pb-210-uncertainty":20.0},"type":"Feature"},{"geometry":{"coordinates":[27.57,68.64],"type":"Point"},"properties":{"concentration_Be-7":2752.06,"concentration_Cs-137":0.31,"concentration_Pb-210":139.07,"concentration_air-volume":24102.0,"from_timestamp":"2013-06-17T09:36:00Z","id":"103431","site":"Ivalo","to_timestamp":"2013-06-24T07:27:00Z","uncertainty_Be-7-uncertainty":5.0,"uncertainty_Cs-137-uncertainty":30.0,"uncertainty_Pb-210-uncertainty":5.0},"type":"Feature"},{"geometry":{"coordinates":[27.57,68.64],"type":"Point"},"properties":{"concentration_Be-7":2299.63,"concentration_Na-22":0.73,"concentration_Pb-210":164.6,"concentration_air-volume":24054.0,"from_timestamp":"2013-06-24T07:28:00Z","id":"103431","site":"Ivalo","to_timestamp":"2013-07-01T07:42:00Z","uncertainty_Be-7-uncertainty":5.0,"uncertainty_Na-22-uncertainty":11.0,"uncertainty_Pb-210-uncertainty":14.0},"type":"Feature"},{"geometry":{"coordinates":[27.63414,62.89195],"type":"Point"},"properties":{"concentration_Be-7":3066.75,"concentration_Cs-137":0.75,"concentration_air-volume":26551.0,"from_timestamp":"2013-06-17T06:27:00Z","id":"103432","site":"Kuopio","to_timestamp":"2013-06-24T09:51:00Z","uncertainty_Be-7-uncertainty":10.0,"uncertainty_Cs-137-uncertainty":19.0},"type":"Feature"},{"geometry":{"coordinates":[27.63414,62.89195],"type":"Point"},"properties":{"concentration_Be-7":4190.58,"concentration_air-volume":10554.0,"from_timestamp":"2013-06-24T09:53:00Z","id":"103432","site":"Kuopio","to_timestamp":"2013-06-27T06:58:00Z","uncertainty_Be-7-uncertainty":6.0},"type":"Feature"},{"geometry":{"coordinates":[25.67774,66.51285],"type":"Point"},"properties":{"concentration_Be-7":1611.28,"concentration_Cs-137":0.24,"concentration_Na-22":0.16,"concentration_Pb-210":88.59,"concentration_air-volume":122520.0,"from_timestamp":"2013-06-17T11:11:00Z","id":"103433","site":"Rovaniemi","to_timestamp":"2013-06-24T10:12:00Z","uncertainty_Be-7-uncertainty":5.0,"uncertainty_Cs-137-uncertainty":9.0,"uncertainty_Na-22-uncertainty":14.0,"uncertainty_Pb-210-uncertainty":5.0},"type":"Feature"},{"geometry":{"coordinates":[25.67774,66.51285],"type":"Point"},"properties":{"concentration_Be-7":1611.34,"concentration_Cs-137":0.22,"concentration_Na-22":0.25,"concentration_Pb-210":112.58,"concentration_air-volume":122061.0,"from_timestamp":"2013-06-24T10:18:00Z","id":"103433","site":"Rovaniemi","to_timestamp":"2013-07-01T10:22:00Z","uncertainty_Be-7-uncertainty":5.0,"uncertainty_Cs-137-uncertainty":7.0,"uncertainty_Na-22-uncertainty":14.0,"uncertainty_Pb-210-uncertainty":5.0},"type":"Feature"},{"geometry":{"coordinates":[26.62807,67.36505],"type":"Point"},"properties":{"concentration_Be-7":2553.46,"concentration_Cs-137":0.35,"concentration_Na-22":0.54,"concentration_Pb-210":260.32,"concentration_air-volume":25237.0,"from_timestamp":"2013-06-17T08:35:00Z","id":"103434","site":"Sodankylä","to_timestamp":"2013-06-24T08:42:00Z","uncertainty_Be-7-uncertainty":4.0,"uncertainty_Cs-137-uncertainty":20.0,"uncertainty_Na-22-uncertainty":8.0,"uncertainty_Pb-210-uncertainty":11.0},"type":"Feature"},{"geometry":{"coordinates":[26.62807,67.36505],"type":"Point"},"properties":{"concentration_Be-7":2537.66,"concentration_Cs-137":0.44,"concentration_Pb-210":268.16,"concentration_air-volume":24760.0,"from_timestamp":"2013-06-24T08:44:00Z","id":"103434","site":"Sodankylä","to_timestamp":"2013-07-01T08:31:00Z","uncertainty_Be-7-uncertainty":4.0,"uncertainty_Cs-137-uncertainty":27.0,"uncertainty_Pb-210-uncertainty":14.0},"type":"Feature"},{"geometry":{"coordinates":[27.70835,64.08474],"type":"Point"},"properties":{"concentration_Be-7":2167.8,"concentration_Cs-137":0.5,"concentration_Na-22":0.36,"concentration_Pb-210":216.55,"concentration_air-volume":96838.0,"from_timestamp":"2013-06-17T06:47:00Z","id":"103435","site":"Kajaani","to_timestamp":"2013-06-24T09:24:00Z","uncertainty_Be-7-uncertainty":5.0,"uncertainty_Cs-137-uncertainty":10.0,"uncertainty_Na-22-uncertainty":16.0,"uncertainty_Pb-210-uncertainty":5.0},"type":"Feature"},{"geometry":{"coordinates":[27.70835,64.08474],"type":"Point"},"properties":{"concentration_Be-7":2810.81,"concentration_Cs-137":0.52,"concentration_Na-22":0.43,"concentration_Pb-210":331.4,"concentration_air-volume":169232.0,"from_timestamp":"2013-06-24T09:27:00Z","id":"103435","site":"Kajaani","to_timestamp":"2013-07-05T14:03:00Z","uncertainty_Be-7-uncertainty":5.0,"uncertainty_Cs-137-uncertainty":7.0,"uncertainty_Na-22-uncertainty":9.0,"uncertainty_Pb-210-uncertainty":5.0},"type":"Feature"},{"geometry":{"coordinates":[25.05385,60.20905],"type":"Point"},"properties":{"concentration_Be-7":2052.23,"concentration_Pb-210":162.85,"concentration_air-volume":16278.0,"from_timestamp":"2013-06-17T07:52:00Z","id":"103428","site":"Helsinki","to_timestamp":"2013-06-18T07:51:00Z","uncertainty_Be-7-uncertainty":5.0,"uncertainty_Pb-210-uncertainty":14.0},"type":"Feature"},{"geometry":{"coordinates":[25.05385,60.20905],"type":"Point"},"properties":{"concentration_Be-7":2708.55,"concentration_Pb-210":179.08,"concentration_air-volume":15851.0,"from_timestamp":"2013-06-18T07:52:00Z","id":"103428","site":"Helsinki","to_timestamp":"2013-06-19T07:51:00Z","uncertainty_Be-7-uncertainty":5.0,"uncertainty_Pb-210-uncertainty":12.0},"type":"Feature"},{"geometry":{"coordinates":[25.05385,60.20905],"type":"Point"},"properties":{"concentration_Be-7":3231.73,"concentration_Na-22":0.82,"concentration_Pb-210":312.06,"concentration_air-volume":32026.0,"from_timestamp":"2013-06-19T07:52:00Z","id":"103428","site":"Helsinki","to_timestamp":"2013-06-21T07:51:00Z","uncertainty_Be-7-uncertainty":5.0,"uncertainty_Na-22-uncertainty":29.0,"uncertainty_Pb-210-uncertainty":5.0},"type":"Feature"},{"geometry":{"coordinates":[25.05385,60.20905],"type":"Point"},"properties":{"concentration_Be-7":4339.31,"concentration_air-volume":15802.0,"from_timestamp":"2013-06-21T07:52:00Z","id":"103428","site":"Helsinki","to_timestamp":"2013-06-22T07:51:00Z","uncertainty_Be-7-uncertainty":10.0},"type":"Feature"},{"geometry":{"coordinates":[25.05385,60.20905],"type":"Point"},"properties":{"concentration_Be-7":3122.85,"concentration_Pb-210":510.74,"concentration_air-volume":15992.0,"from_timestamp":"2013-06-24T06:35:00Z","id":"103428","site":"Helsinki","to_timestamp":"2013-06-25T08:17:00Z","uncertainty_Be-7-uncertainty":5.0,"uncertainty_Pb-210-uncertainty":7.0},"type":"Feature"},{"geometry":{"coordinates":[25.05385,60.20905],"type":"Point"},"properties":{"concentration_Be-7":3677.63,"concentration_air-volume":14328.0,"from_timestamp":"2013-06-25T08:18:00Z","id":"103428","site":"Helsinki","to_timestamp":"2013-06-26T08:02:00Z","uncertainty_Be-7-uncertainty":10.0},"type":"Feature"}],"name":"stuk_open_data_air_radionuclides","type":"FeatureCollection"}