{"crs":{"properties":{"name":"urn:ogc:def:crs:OGC:1.3:CRS84"},"type":"name"},"features":[{"geometry":{"coordinates":[25.05385,60.20905],"type":"Point"},"properties":{"concentration_Be-7":1348.05,"concentration_Pb-210":137.43,"concentration_air-volume":16128.0,"from_timestamp":"2014-05-03T08:04:00Z","id":"103428","site":"Helsinki","to_timestamp":"2014-05-04T08:03:00Z","uncertainty_Be-7-uncertainty":5.0,"uncertainty_Pb-210-uncertainty":13.0},"type":"Feature"},{"geometry":{"coordinates":[25.05385,60.20905],"type":"Point"},"properties":{"concentration_Be-7":900.28,"concentration_air-volume":16323.0,"from_timestamp":"2014-05-04T08:04:00Z","id":"103428","site":"Helsinki","to_timestamp":"2014-05-05T08:03:00Z","uncertainty_Be-7-uncertainty":5.0},"type":"Feature"},{"geometry":{"coordinates":[25.05385,60.20905],"type":"Point"},"properties":{"concentration_Be-7":1454.19,"concentration_Pb-210":125.99,"concentration_air-volume":16314.0,"from_timestamp":"2014-05-05T08:04:00Z","id":"103428","site":"Helsinki","to_timestamp":"2014-05-06T08:03:00Z","uncertainty_Be-7-uncertainty":5.0,"uncertainty_Pb-210-uncertainty":21.0},"type":"Feature"},{"geometry":{"coordinates":[25.05385,60.20905],"type":"Point"},"properties":{"concentration_Be-7":2133.61,"concentration_Pb-210":164.82,"concentration_air-volume":15713.0,"from_timestamp":"2014-05-06T08:04:00Z","id":"103428","site":"Helsinki","to_timestamp":"2014-05-07T08:03:00Z","uncertainty_Be-7-uncertainty":5.0,"uncertainty_Pb-210-uncertainty":18.0},"type":"Feature"},{"geometry":{"coordinates":[25.05385,60.20905],"type":"Point"},"properties":{"concentration_Be-7":2835.68,"concentration_Pb-210":267.17,"concentration_air-volume":15756.0,"from_timestamp":"2014-05-07T08:04:00Z","id":"103428","site":"Helsinki","to_timestamp":"2014-05-08T08:03:00Z","uncertainty_Be-7-uncertainty":5.0,"uncertainty_Pb-210-uncertainty":9.0},"type":"Feature"},{"geometry":{"coordinates":[25.05385,60.20905],"type":"Point"},"properties":{"concentration_Be-7":1360.34,"concentration_Pb-210":176.82,"concentration_air-volume":15949.0,"from_timestamp":"2014-05-08T08:04:00Z","id":"103428","site":"Helsinki","to_timestamp":"2014-05-09T08:03:00Z","uncertainty_Be-7-uncertainty":5.0,"uncertainty_Pb-210-uncertainty":12.0},"type":"Feature"},{"geometry":{"coordinates":[25.05385,60.20905],"type":"Point"},"properties":{"concentration_Be-7":1042.11,"concentration_Pb-210":146.3,"concentration_air-volume":15844.0,"from_timestamp":"2014-05-09T08:04:00Z","id":"103428","site":"Helsinki","to_timestamp":"2014-05-10T08:03:00Z","uncertainty_Be-7-uncertainty":5.0,"uncertainty_Pb-210-uncertainty":14.0},"type":"Feature"},{"geometry":{"coordinates":[25.05385,60.20905],"type":"Point"},"properties":{"concentration_Be-7":1052.69,"concentration_air-volume":31514.0,"from_timestamp":"2014-05-10T08:04:00Z","id":"103428","site":"Helsinki","to_timestamp":"2014-05-12T08:03:00Z","uncertainty_Be-7-uncertainty":7.0},"type":"Feature"},{"geometry":{"coordinates":[26.91808,60.48318],"type":"Point"},"properties":{"concentration_Be-7":1889.81,"concentration_Cs-137":3.07,"concentration_Na-22":0.24,"concentration_Pb-210":219.53,"concentration_air-volume":151699.0,"from_timestamp":"2014-04-28T06:36:00Z","id":"103429","site":"Kotka","to_timestamp":"2014-05-06T05:00:00Z","uncertainty_Be-7-uncertainty":5.0,"uncertainty_Cs-137-uncertainty":5.0,"uncertainty_Na-22-uncertainty":13.0,"uncertainty_Pb-210-uncertainty":5.0},"type":"Feature"},{"geometry":{"coordinates":[26.91808,60.48318],"type":"Point"},"properties":{"concentration_Be-7":2396.9,"concentration_Cs-137":2.68,"concentration_Na-22":0.24,"concentration_air-volume":115929.0,"from_timestamp":"2014-05-05T05:10:00Z","id":"103429","site":"Kotka","to_timestamp":"2014-05-12T07:15:00Z","uncertainty_Be-7-uncertainty":7.0,"uncertainty_Cs-137-uncertainty":7.0,"uncertainty_Na-22-uncertainty":18.0},"type":"Feature"},{"geometry":{"coordinates":[28.82663,61.13229],"type":"Point"},"properties":{"concentration_Be-7":2494.19,"concentration_Cs-137":0.92,"concentration_Pb-210":59.39,"concentration_air-volume":26009.0,"from_timestamp":"2014-04-28T07:00:00Z","id":"103430","site":"Imatra","to_timestamp":"2014-05-05T06:15:00Z","uncertainty_Be-7-uncertainty":6.0,"uncertainty_Cs-137-uncertainty":13.0,"uncertainty_Pb-210-uncertainty":19.0},"type":"Feature"},{"geometry":{"coordinates":[28.82663,61.13229],"type":"Point"},"properties":{"concentration_Be-7":2057.13,"concentration_Pb-210":209.45,"concentration_air-volume":26503.0,"from_timestamp":"2014-05-05T06:25:00Z","id":"103430","site":"Imatra","to_timestamp":"2014-05-12T07:10:00Z","uncertainty_Be-7-uncertainty":5.0,"uncertainty_Pb-210-uncertainty":5.0},"type":"Feature"},{"geometry":{"coordinates":[27.57,68.64],"type":"Point"},"properties":{"concentration_Be-7":1557.0,"concentration_Cs-137":0.24,"concentration_Pb-210":242.83,"concentration_air-volume":26780.0,"from_timestamp":"2014-04-28T07:07:00Z","id":"103431","site":"Ivalo","to_timestamp":"2014-05-05T07:38:00Z","uncertainty_Be-7-uncertainty":4.0,"uncertainty_Cs-137-uncertainty":13.0,"uncertainty_Pb-210-uncertainty":12.0},"type":"Feature"},{"geometry":{"coordinates":[27.57,68.64],"type":"Point"},"properties":{"concentration_Be-7":2458.49,"concentration_Pb-210":128.53,"concentration_air-volume":26926.0,"from_timestamp":"2014-05-05T07:40:00Z","id":"103431","site":"Ivalo","to_timestamp":"2014-05-12T09:30:00Z","uncertainty_Be-7-uncertainty":5.0,"uncertainty_Pb-210-uncertainty":5.0},"type":"Feature"},{"geometry":{"coordinates":[27.63414,62.89195],"type":"Point"},"properties":{"concentration_Be-7":3189.15,"concentration_air-volume":5274.0,"from_timestamp":"2014-04-28T05:30:00Z","id":"103432","site":"Kuopio","to_timestamp":"2014-05-05T08:31:00Z","uncertainty_Be-7-uncertainty":6.0},"type":"Feature"},{"geometry":{"coordinates":[27.63414,62.89195],"type":"Point"},"properties":{"concentration_Be-7":2478.77,"concentration_air-volume":10781.0,"from_timestamp":"2014-05-05T08:32:00Z","id":"103432","site":"Kuopio","to_timestamp":"2014-05-08T05:16:00Z","uncertainty_Be-7-uncertainty":6.0},"type":"Feature"},{"geometry":{"coordinates":[27.63414,62.89195],"type":"Point"},"properties":{"concentration_Be-7":2032.2,"concentration_air-volume":14840.0,"from_timestamp":"2014-05-08T05:17:00Z","id":"103432","site":"Kuopio","to_timestamp":"2014-05-12T05:21:00Z","uncertainty_Be-7-uncertainty":6.0},"type":"Feature"},{"geometry":{"coordinates":[25.67774,66.51285],"type":"Point"},"properties":{"concentration_Be-7":1166.44,"concentration_Cs-137":0.09,"concentration_Na-22":0.13,"concentration_Pb-210":69.36,"concentration_air-volume":125436.0,"from_timestamp":"2014-04-28T09:50:00Z","id":"103433","site":"Rovaniemi","to_timestamp":"2014-05-05T11:34:00Z","uncertainty_Be-7-uncertainty":5.0,"uncertainty_Cs-137-uncertainty":11.0,"uncertainty_Na-22-uncertainty":13.0,"uncertainty_Pb-210-uncertainty":5.0},"type":"Feature"},{"geometry":{"coordinates":[25.67774,66.51285],"type":"Point"},"properties":{"concentration_Be-7":1221.02,"concentration_Cs-137":0.05,"concentration_Na-22":0.21,"concentration_air-volume":128077.0,"from_timestamp":"2014-05-05T11:39:00Z","id":"103433","site":"Rovaniemi","to_timestamp":"2014-05-12T11:41:00Z","uncertainty_Be-7-uncertainty":5.0,"uncertainty_Cs-137-uncertainty":13.0,"uncertainty_Na-22-uncertainty":20.0},"type":"Feature"},{"geometry":{"coordinates":[26.62807,67.36505],"type":"Point"},"properties":{"concentration_Be-7":1221.56,"concentration_Cs-137":0.23,"concentration_Pb-210":72.78,"concentration_air-volume":26452.0,"from_timestamp":"2014-04-28T08:34:00Z","id":"103434","site":"Sodankylä","to_timestamp":"2014-05-05T08:31:00Z","uncertainty_Be-7-uncertainty":5.0,"uncertainty_Cs-137-uncertainty":29.0,"uncertainty_Pb-210-uncertainty":23.0},"type":"Feature"},{"geometry":{"coordinates":[26.62807,67.36505],"type":"Point"},"properties":{"concentration_Be-7":1952.09,"concentration_Pb-210":233.22,"concentration_air-volume":26234.0,"from_timestamp":"2014-05-05T08:36:00Z","id":"103434","site":"Sodankylä","to_timestamp":"2014-05-12T08:11:00Z","uncertainty_Be-7-uncertainty":4.0,"uncertainty_Pb-210-uncertainty":14.0},"type":"Feature"},{"geometry":{"coordinates":[27.70835,64.08474],"type":"Point"},"properties":{"concentration_Be-7":1459.61,"concentration_Na-22":0.23,"concentration_Pb-210":136.08,"concentration_air-volume":99284.0,"from_timestamp":"2014-04-28T05:32:00Z","id":"103435","site":"Kajaani","to_timestamp":"2014-05-05T07:36:00Z","uncertainty_Be-7-uncertainty":5.0,"uncertainty_Na-22-uncertainty":24.0,"uncertainty_Pb-210-uncertainty":5.0},"type":"Feature"},{"geometry":{"coordinates":[27.70835,64.08474],"type":"Point"},"properties":{"concentration_Be-7":1599.02,"concentration_Cs-137":0.16,"concentration_Na-22":0.24,"concentration_Pb-210":35.74,"concentration_air-volume":97344.0,"from_timestamp":"2014-05-05T07:42:00Z","id":"103435","site":"Kajaani","to_timestamp":"2014-05-12T04:03:00Z","uncertainty_Be-7-uncertainty":5.0,"uncertainty_Cs-137-uncertainty":11.0,"uncertainty_Na-22-uncertainty":18.0,"uncertainty_Pb-210-uncertainty":11.0},"type":"Feature"},{"geometry":{"coordinates":[25.05385,60.20905],"type":"Point"},"properties":{"concentration_Be-7":1348.05,"concentration_Pb-210":137.43,"concentration_air-volume":16128.0,"from_timestamp":"2014-05-03T08:04:00Z","id":"103428","site":"Helsinki","to_timestamp":"2014-05-04T08:03:00Z","uncertainty_Be-7-uncertainty":5.0,"uncertainty_Pb-210-uncertainty":13.0},"type":"Feature"},{"geometry":{"coordinates":[25.05385,60.20905],"type":"Point"},"properties":{"concentration_Be-7":900.28,"concentration_air-volume":16323.0,"from_timestamp":"2014-05-04T08:04:00Z","id":"103428","site":"Helsinki","to_timestamp":"2014-05-05T08:03:00Z","uncertainty_Be-7-uncertainty":5.0},"type":"Feature"},{"geometry":{"coordinates":[25.05385,60.20905],"type":"Point"},"properties":{"concentration_Be-7":1454.19,"concentration_Pb-210":125.99,"concentration_air-volume":16314.0,"from_timestamp":"2014-05-05T08:04:00Z","id":"103428","site":"Helsinki","to_timestamp":"2014-05-06T08:03:00Z","uncertainty_Be-7-uncertainty":5.0,"uncertainty_Pb-210-uncertainty":21.0},"type":"Feature"},{"geometry":{"coordinates":[25.05385,60.20905],"type":"Point"},"properties":{"concentration_Be-7":2133.61,"concentration_Pb-210":164.82,"concentration_air-volume":15713.0,"from_timestamp":"2014-05-06T08:04:00Z","id":"103428","site":"Helsinki","to_timestamp":"2014-05-07T08:03:00Z","uncertainty_Be-7-uncertainty":5.0,"uncertainty_Pb-210-uncertainty":18.0},"type":"Feature"},{"geometry":{"coordinates":[25.05385,60.20905],"type":"Point"},"properties":{"concentration_Be-7":2835.68,"concentration_Pb-210":267.17,"concentration_air-volume":15756.0,"from_timestamp":"2014-05-07T08:04:00Z","id":"103428","site":"Helsinki","to_timestamp":"2014-05-08T08:03:00Z","uncertainty_Be-7-uncertainty":5.0,"uncertainty_Pb-210-uncertainty":9.0},"type":"Feature"},{"geometry":{"coordinates":[25.05385,60.20905],"type":"Point"},"properties":{"concentration_Be-7":1360.34,"concentration_Pb-210":176.82,"concentration_air-volume":15949.0,"from_timestamp":"2014-05-08T08:04:00Z","id":"103428","site":"Helsinki","to_timestamp":"2014-05-09T08:03:00Z","uncertainty_Be-7-uncertainty":5.0,"uncertainty_Pb-210-uncertainty":12.0},"type":"Feature"},{"geometry":{"coordinates":[25.05385,60.20905],"type":"Point"},"properties":{"concentration_Be-7":1042.11,"concentration_Pb-210":146.3,"concentration_air-volume":15844.0,"from_timestamp":"2014-05-09T08:04:00Z","id":"103428","site":"Helsinki","to_timestamp":"2014-05-10T08:03:00Z","uncertainty_Be-7-uncertainty":5.0,"uncertainty_Pb-210-uncertainty":14.0},"type":"Feature"},{"geometry":{"coordinates":[25.05385,60.20905],"type":"Point"},"properties":{"concentration_Be-7":1052.69,"concentration_air-volume":31514.0,"from_timestamp":"2014-05-10T08:04:00Z","id":"103428","site":"Helsinki","to_timestamp":"2014-05-12T08:03:00Z","uncertainty_Be-7-uncertainty":7.0},"type":"Feature"}],"name":"stuk_open_data_air_radionuclides","type":"FeatureCollection"}