{"crs":{"properties":{"name":"urn:ogc:def:crs:OGC:1.3:CRS84"},"type":"name"},"features":[{"geometry":{"coordinates":[25.05385,60.20905],"type":"Point"},"properties":{"concentration_Be-7":3355.77,"concentration_Pb-210":254.92,"concentration_air-volume":15505.0,"from_timestamp":"2014-04-25T08:04:00Z","id":"103428","site":"Helsinki","to_timestamp":"2014-04-26T08:03:00Z","uncertainty_Be-7-uncertainty":5.0,"uncertainty_Pb-210-uncertainty":12.0},"type":"Feature"},{"geometry":{"coordinates":[25.05385,60.20905],"type":"Point"},"properties":{"concentration_Be-7":4664.55,"concentration_Pb-210":327.13,"concentration_air-volume":15565.0,"from_timestamp":"2014-04-26T08:04:00Z","id":"103428","site":"Helsinki","to_timestamp":"2014-04-27T08:03:00Z","uncertainty_Be-7-uncertainty":5.0,"uncertainty_Pb-210-uncertainty":11.0},"type":"Feature"},{"geometry":{"coordinates":[25.05385,60.20905],"type":"Point"},"properties":{"concentration_Be-7":4713.31,"concentration_Pb-210":503.84,"concentration_air-volume":13711.0,"from_timestamp":"2014-04-27T08:04:00Z","id":"103428","site":"Helsinki","to_timestamp":"2014-04-28T08:03:00Z","uncertainty_Be-7-uncertainty":5.0,"uncertainty_Pb-210-uncertainty":9.0},"type":"Feature"},{"geometry":{"coordinates":[25.05385,60.20905],"type":"Point"},"properties":{"concentration_Be-7":3849.39,"concentration_Cs-137":2.03,"concentration_Pb-210":506.2,"concentration_air-volume":14272.0,"from_timestamp":"2014-04-28T08:04:00Z","id":"103428","site":"Helsinki","to_timestamp":"2014-04-29T08:03:00Z","uncertainty_Be-7-uncertainty":5.0,"uncertainty_Cs-137-uncertainty":24.0,"uncertainty_Pb-210-uncertainty":8.0},"type":"Feature"},{"geometry":{"coordinates":[25.05385,60.20905],"type":"Point"},"properties":{"concentration_Be-7":2160.73,"concentration_Pb-210":145.26,"concentration_air-volume":15714.0,"from_timestamp":"2014-04-29T08:04:00Z","id":"103428","site":"Helsinki","to_timestamp":"2014-04-30T08:03:00Z","uncertainty_Be-7-uncertainty":5.0,"uncertainty_Pb-210-uncertainty":19.0},"type":"Feature"},{"geometry":{"coordinates":[25.05385,60.20905],"type":"Point"},"properties":{"concentration_Be-7":1075.36,"concentration_Pb-210":101.86,"concentration_air-volume":16003.0,"from_timestamp":"2014-04-30T08:04:00Z","id":"103428","site":"Helsinki","to_timestamp":"2014-05-01T08:03:00Z","uncertainty_Be-7-uncertainty":5.0,"uncertainty_Pb-210-uncertainty":24.0},"type":"Feature"},{"geometry":{"coordinates":[25.05385,60.20905],"type":"Point"},"properties":{"concentration_Be-7":1596.72,"concentration_Pb-210":162.44,"concentration_air-volume":16160.0,"from_timestamp":"2014-05-01T08:04:00Z","id":"103428","site":"Helsinki","to_timestamp":"2014-05-02T08:03:00Z","uncertainty_Be-7-uncertainty":5.0,"uncertainty_Pb-210-uncertainty":15.0},"type":"Feature"},{"geometry":{"coordinates":[25.05385,60.20905],"type":"Point"},"properties":{"concentration_Be-7":906.69,"concentration_Pb-210":102.31,"concentration_air-volume":16336.0,"from_timestamp":"2014-05-02T08:04:00Z","id":"103428","site":"Helsinki","to_timestamp":"2014-05-03T08:03:00Z","uncertainty_Be-7-uncertainty":5.0,"uncertainty_Pb-210-uncertainty":23.0},"type":"Feature"},{"geometry":{"coordinates":[25.05385,60.20905],"type":"Point"},"properties":{"concentration_Be-7":1348.05,"concentration_Pb-210":137.43,"concentration_air-volume":16128.0,"from_timestamp":"2014-05-03T08:04:00Z","id":"103428","site":"Helsinki","to_timestamp":"2014-05-04T08:03:00Z","uncertainty_Be-7-uncertainty":5.0,"uncertainty_Pb-210-uncertainty":13.0},"type":"Feature"},{"geometry":{"coordinates":[26.91808,60.48318],"type":"Point"},"properties":{"concentration_Be-7":5626.33,"concentration_Cs-137":3.16,"concentration_Pb-210":501.54,"concentration_air-volume":54106.0,"from_timestamp":"2014-04-25T10:45:00Z","id":"103429","site":"Kotka","to_timestamp":"2014-04-28T06:26:00Z","uncertainty_Be-7-uncertainty":5.0,"uncertainty_Cs-137-uncertainty":7.0,"uncertainty_Pb-210-uncertainty":5.0},"type":"Feature"},{"geometry":{"coordinates":[26.91808,60.48318],"type":"Point"},"properties":{"concentration_Be-7":1889.81,"concentration_Cs-137":3.07,"concentration_Na-22":0.24,"concentration_Pb-210":219.53,"concentration_air-volume":151699.0,"from_timestamp":"2014-04-28T06:36:00Z","id":"103429","site":"Kotka","to_timestamp":"2014-05-06T05:00:00Z","uncertainty_Be-7-uncertainty":5.0,"uncertainty_Cs-137-uncertainty":5.0,"uncertainty_Na-22-uncertainty":13.0,"uncertainty_Pb-210-uncertainty":5.0},"type":"Feature"},{"geometry":{"coordinates":[28.82663,61.13229],"type":"Point"},"properties":{"concentration_Be-7":3320.83,"concentration_Cs-137":0.8,"concentration_air-volume":14181.0,"from_timestamp":"2014-04-24T10:40:00Z","id":"103430","site":"Imatra","to_timestamp":"2014-04-28T06:55:00Z","uncertainty_Be-7-uncertainty":10.0,"uncertainty_Cs-137-uncertainty":29.0},"type":"Feature"},{"geometry":{"coordinates":[28.82663,61.13229],"type":"Point"},"properties":{"concentration_Be-7":2494.19,"concentration_Cs-137":0.92,"concentration_Pb-210":59.39,"concentration_air-volume":26009.0,"from_timestamp":"2014-04-28T07:00:00Z","id":"103430","site":"Imatra","to_timestamp":"2014-05-05T06:15:00Z","uncertainty_Be-7-uncertainty":6.0,"uncertainty_Cs-137-uncertainty":13.0,"uncertainty_Pb-210-uncertainty":19.0},"type":"Feature"},{"geometry":{"coordinates":[27.57,68.64],"type":"Point"},"properties":{"concentration_Be-7":1759.05,"concentration_air-volume":22336.0,"from_timestamp":"2014-04-22T09:44:00Z","id":"103431","site":"Ivalo","to_timestamp":"2014-04-28T07:06:00Z","uncertainty_Be-7-uncertainty":5.0},"type":"Feature"},{"geometry":{"coordinates":[27.57,68.64],"type":"Point"},"properties":{"concentration_Be-7":1557.0,"concentration_Cs-137":0.24,"concentration_Pb-210":242.83,"concentration_air-volume":26780.0,"from_timestamp":"2014-04-28T07:07:00Z","id":"103431","site":"Ivalo","to_timestamp":"2014-05-05T07:38:00Z","uncertainty_Be-7-uncertainty":4.0,"uncertainty_Cs-137-uncertainty":13.0,"uncertainty_Pb-210-uncertainty":12.0},"type":"Feature"},{"geometry":{"coordinates":[27.63414,62.89195],"type":"Point"},"properties":{"concentration_Be-7":3189.15,"concentration_air-volume":5274.0,"from_timestamp":"2014-04-28T05:30:00Z","id":"103432","site":"Kuopio","to_timestamp":"2014-05-05T08:31:00Z","uncertainty_Be-7-uncertainty":6.0},"type":"Feature"},{"geometry":{"coordinates":[25.67774,66.51285],"type":"Point"},"properties":{"concentration_Be-7":1158.7,"concentration_Cs-137":0.12,"concentration_Na-22":0.1,"concentration_Pb-210":62.13,"concentration_air-volume":103099.0,"from_timestamp":"2014-04-22T14:33:00Z","id":"103433","site":"Rovaniemi","to_timestamp":"2014-04-28T09:46:00Z","uncertainty_Be-7-uncertainty":5.0,"uncertainty_Cs-137-uncertainty":14.0,"uncertainty_Na-22-uncertainty":21.0,"uncertainty_Pb-210-uncertainty":5.0},"type":"Feature"},{"geometry":{"coordinates":[25.67774,66.51285],"type":"Point"},"properties":{"concentration_Be-7":1166.44,"concentration_Cs-137":0.09,"concentration_Na-22":0.13,"concentration_Pb-210":69.36,"concentration_air-volume":125436.0,"from_timestamp":"2014-04-28T09:50:00Z","id":"103433","site":"Rovaniemi","to_timestamp":"2014-05-05T11:34:00Z","uncertainty_Be-7-uncertainty":5.0,"uncertainty_Cs-137-uncertainty":11.0,"uncertainty_Na-22-uncertainty":13.0,"uncertainty_Pb-210-uncertainty":5.0},"type":"Feature"},{"geometry":{"coordinates":[26.62807,67.36505],"type":"Point"},"properties":{"concentration_Be-7":1675.81,"concentration_Pb-210":100.81,"concentration_air-volume":22631.0,"from_timestamp":"2014-04-22T08:29:00Z","id":"103434","site":"Sodankylä","to_timestamp":"2014-04-28T08:30:00Z","uncertainty_Be-7-uncertainty":5.0,"uncertainty_Pb-210-uncertainty":20.0},"type":"Feature"},{"geometry":{"coordinates":[26.62807,67.36505],"type":"Point"},"properties":{"concentration_Be-7":1221.56,"concentration_Cs-137":0.23,"concentration_Pb-210":72.78,"concentration_air-volume":26452.0,"from_timestamp":"2014-04-28T08:34:00Z","id":"103434","site":"Sodankylä","to_timestamp":"2014-05-05T08:31:00Z","uncertainty_Be-7-uncertainty":5.0,"uncertainty_Cs-137-uncertainty":29.0,"uncertainty_Pb-210-uncertainty":23.0},"type":"Feature"},{"geometry":{"coordinates":[27.70835,64.08474],"type":"Point"},"properties":{"concentration_Be-7":1741.92,"concentration_Na-22":0.19,"concentration_Pb-210":706.55,"concentration_air-volume":78069.0,"from_timestamp":"2014-04-22T15:45:00Z","id":"103435","site":"Kajaani","to_timestamp":"2014-04-28T05:30:00Z","uncertainty_Be-7-uncertainty":5.0,"uncertainty_Na-22-uncertainty":29.0,"uncertainty_Pb-210-uncertainty":5.0},"type":"Feature"},{"geometry":{"coordinates":[27.70835,64.08474],"type":"Point"},"properties":{"concentration_Be-7":1459.61,"concentration_Na-22":0.23,"concentration_Pb-210":136.08,"concentration_air-volume":99284.0,"from_timestamp":"2014-04-28T05:32:00Z","id":"103435","site":"Kajaani","to_timestamp":"2014-05-05T07:36:00Z","uncertainty_Be-7-uncertainty":5.0,"uncertainty_Na-22-uncertainty":24.0,"uncertainty_Pb-210-uncertainty":5.0},"type":"Feature"}],"name":"stuk_open_data_air_radionuclides","type":"FeatureCollection"}