{"crs":{"properties":{"name":"urn:ogc:def:crs:OGC:1.3:CRS84"},"type":"name"},"features":[{"geometry":{"coordinates":[25.05385,60.20905],"type":"Point"},"properties":{"concentration_Be-7":4118.93,"concentration_Pb-210":620.51,"concentration_air-volume":15111.0,"from_timestamp":"2014-07-30T08:04:00Z","id":"103428","site":"Helsinki","to_timestamp":"2014-07-31T08:03:00Z","uncertainty_Be-7-uncertainty":5.0,"uncertainty_Pb-210-uncertainty":7.0},"type":"Feature"},{"geometry":{"coordinates":[25.05385,60.20905],"type":"Point"},"properties":{"concentration_Be-7":2311.39,"concentration_Pb-210":286.57,"concentration_air-volume":15178.0,"from_timestamp":"2014-07-31T08:04:00Z","id":"103428","site":"Helsinki","to_timestamp":"2014-08-01T08:03:00Z","uncertainty_Be-7-uncertainty":5.0,"uncertainty_Pb-210-uncertainty":9.0},"type":"Feature"},{"geometry":{"coordinates":[25.05385,60.20905],"type":"Point"},"properties":{"concentration_Be-7":1911.66,"concentration_Pb-210":197.52,"concentration_air-volume":15400.0,"from_timestamp":"2014-08-01T08:04:00Z","id":"103428","site":"Helsinki","to_timestamp":"2014-08-02T08:03:00Z","uncertainty_Be-7-uncertainty":5.0,"uncertainty_Pb-210-uncertainty":5.0},"type":"Feature"},{"geometry":{"coordinates":[25.05385,60.20905],"type":"Point"},"properties":{"concentration_Be-7":2435.05,"concentration_Pb-210":285.05,"concentration_air-volume":15424.0,"from_timestamp":"2014-08-02T08:04:00Z","id":"103428","site":"Helsinki","to_timestamp":"2014-08-03T08:03:00Z","uncertainty_Be-7-uncertainty":5.0,"uncertainty_Pb-210-uncertainty":11.0},"type":"Feature"},{"geometry":{"coordinates":[25.05385,60.20905],"type":"Point"},"properties":{"concentration_Be-7":3331.05,"concentration_Pb-210":319.06,"concentration_air-volume":15295.0,"from_timestamp":"2014-08-03T08:04:00Z","id":"103428","site":"Helsinki","to_timestamp":"2014-08-04T08:03:00Z","uncertainty_Be-7-uncertainty":5.0,"uncertainty_Pb-210-uncertainty":8.0},"type":"Feature"},{"geometry":{"coordinates":[25.05385,60.20905],"type":"Point"},"properties":{"concentration_Be-7":3899.05,"concentration_Cs-137":0.63,"concentration_Na-22":1.14,"concentration_Pb-210":430.08,"concentration_air-volume":15485.0,"from_timestamp":"2014-08-04T08:04:00Z","id":"103428","site":"Helsinki","to_timestamp":"2014-08-05T08:03:00Z","uncertainty_Be-7-uncertainty":5.0,"uncertainty_Cs-137-uncertainty":24.0,"uncertainty_Na-22-uncertainty":22.0,"uncertainty_Pb-210-uncertainty":5.0},"type":"Feature"},{"geometry":{"coordinates":[25.05385,60.20905],"type":"Point"},"properties":{"concentration_Be-7":3840.55,"concentration_Pb-210":340.46,"concentration_air-volume":15323.0,"from_timestamp":"2014-08-05T08:04:00Z","id":"103428","site":"Helsinki","to_timestamp":"2014-08-06T08:03:00Z","uncertainty_Be-7-uncertainty":5.0,"uncertainty_Pb-210-uncertainty":10.0},"type":"Feature"},{"geometry":{"coordinates":[25.05385,60.20905],"type":"Point"},"properties":{"concentration_Be-7":4418.65,"concentration_Pb-210":375.36,"concentration_air-volume":15317.0,"from_timestamp":"2014-08-06T08:04:00Z","id":"103428","site":"Helsinki","to_timestamp":"2014-08-07T08:03:00Z","uncertainty_Be-7-uncertainty":5.0,"uncertainty_Pb-210-uncertainty":9.0},"type":"Feature"},{"geometry":{"coordinates":[25.05385,60.20905],"type":"Point"},"properties":{"concentration_Be-7":3808.05,"concentration_Pb-210":393.58,"concentration_air-volume":15417.0,"from_timestamp":"2014-08-07T08:04:00Z","id":"103428","site":"Helsinki","to_timestamp":"2014-08-08T08:03:00Z","uncertainty_Be-7-uncertainty":5.0,"uncertainty_Pb-210-uncertainty":8.0},"type":"Feature"},{"geometry":{"coordinates":[26.91808,60.48318],"type":"Point"},"properties":{"concentration_Be-7":3593.26,"concentration_Co-60":0.36,"concentration_Cs-137":1.89,"concentration_Na-22":0.59,"concentration_Pb-210":546.06,"concentration_air-volume":116655.0,"from_timestamp":"2014-07-28T19:42:00Z","id":"103429","site":"Kotka","to_timestamp":"2014-08-04T07:30:00Z","uncertainty_Be-7-uncertainty":5.0,"uncertainty_Co-60-uncertainty":8.0,"uncertainty_Cs-137-uncertainty":6.0,"uncertainty_Na-22-uncertainty":9.0,"uncertainty_Pb-210-uncertainty":5.0},"type":"Feature"},{"geometry":{"coordinates":[26.91808,60.48318],"type":"Point"},"properties":{"concentration_Be-7":4345.69,"concentration_Co-58":0.48,"concentration_Co-60":1.62,"concentration_Cs-137":2.19,"concentration_Fe-59":0.97,"concentration_Mn-54":2.06,"concentration_Na-22":0.47,"concentration_Nb-95":0.37,"concentration_Pb-210":501.24,"concentration_Zr-95":0.14,"concentration_air-volume":127395.0,"from_timestamp":"2014-08-04T07:38:00Z","id":"103429","site":"Kotka","to_timestamp":"2014-08-11T07:54:00Z","uncertainty_Be-7-uncertainty":5.0,"uncertainty_Co-58-uncertainty":5.0,"uncertainty_Co-60-uncertainty":4.0,"uncertainty_Cs-137-uncertainty":5.0,"uncertainty_Fe-59-uncertainty":5.0,"uncertainty_Mn-54-uncertainty":5.0,"uncertainty_Na-22-uncertainty":8.0,"uncertainty_Nb-95-uncertainty":6.0,"uncertainty_Pb-210-uncertainty":5.0,"uncertainty_Zr-95-uncertainty":13.0},"type":"Feature"},{"geometry":{"coordinates":[28.82663,61.13229],"type":"Point"},"properties":{"concentration_Be-7":4061.1,"concentration_Cs-137":0.99,"concentration_Pb-210":126.48,"concentration_air-volume":24599.0,"from_timestamp":"2014-07-28T06:13:00Z","id":"103430","site":"Imatra","to_timestamp":"2014-08-04T05:20:00Z","uncertainty_Be-7-uncertainty":6.0,"uncertainty_Cs-137-uncertainty":14.0,"uncertainty_Pb-210-uncertainty":13.0},"type":"Feature"},{"geometry":{"coordinates":[28.82663,61.13229],"type":"Point"},"properties":{"concentration_Be-7":4510.65,"concentration_Cs-137":0.83,"concentration_Pb-210":105.46,"concentration_air-volume":24904.0,"from_timestamp":"2014-08-04T05:20:00Z","id":"103430","site":"Imatra","to_timestamp":"2014-08-11T06:55:00Z","uncertainty_Be-7-uncertainty":6.0,"uncertainty_Cs-137-uncertainty":18.0,"uncertainty_Pb-210-uncertainty":16.0},"type":"Feature"},{"geometry":{"coordinates":[27.57,68.64],"type":"Point"},"properties":{"concentration_Be-7":2183.14,"concentration_Cs-137":0.28,"concentration_Pb-210":168.04,"concentration_air-volume":25191.0,"from_timestamp":"2014-07-28T08:15:00Z","id":"103431","site":"Ivalo","to_timestamp":"2014-08-04T08:52:00Z","uncertainty_Be-7-uncertainty":5.0,"uncertainty_Cs-137-uncertainty":25.0,"uncertainty_Pb-210-uncertainty":12.0},"type":"Feature"},{"geometry":{"coordinates":[27.57,68.64],"type":"Point"},"properties":{"concentration_Be-7":3852.07,"concentration_Cs-137":0.56,"concentration_Na-22":0.56,"concentration_Pb-210":285.01,"concentration_air-volume":24518.0,"from_timestamp":"2014-08-04T08:54:00Z","id":"103431","site":"Ivalo","to_timestamp":"2014-08-11T07:37:00Z","uncertainty_Be-7-uncertainty":5.0,"uncertainty_Cs-137-uncertainty":15.0,"uncertainty_Na-22-uncertainty":24.0,"uncertainty_Pb-210-uncertainty":5.0},"type":"Feature"},{"geometry":{"coordinates":[27.63414,62.89195],"type":"Point"},"properties":{"concentration_Be-7":4959.36,"concentration_air-volume":10329.0,"from_timestamp":"2014-07-28T06:51:00Z","id":"103432","site":"Kuopio","to_timestamp":"2014-07-31T05:38:00Z","uncertainty_Be-7-uncertainty":6.0},"type":"Feature"},{"geometry":{"coordinates":[27.63414,62.89195],"type":"Point"},"properties":{"concentration_Be-7":3362.96,"concentration_air-volume":14296.0,"from_timestamp":"2014-07-31T05:40:00Z","id":"103432","site":"Kuopio","to_timestamp":"2014-08-04T06:44:00Z","uncertainty_Be-7-uncertainty":6.0},"type":"Feature"},{"geometry":{"coordinates":[27.63414,62.89195],"type":"Point"},"properties":{"concentration_Be-7":5197.97,"concentration_air-volume":10344.0,"from_timestamp":"2014-08-04T06:47:00Z","id":"103432","site":"Kuopio","to_timestamp":"2014-08-07T05:57:00Z","uncertainty_Be-7-uncertainty":6.0},"type":"Feature"},{"geometry":{"coordinates":[27.63414,62.89195],"type":"Point"},"properties":{"concentration_Be-7":4962.04,"concentration_air-volume":14354.0,"from_timestamp":"2014-08-07T05:59:00Z","id":"103432","site":"Kuopio","to_timestamp":"2014-08-11T07:35:00Z","uncertainty_Be-7-uncertainty":6.0},"type":"Feature"},{"geometry":{"coordinates":[25.67774,66.51285],"type":"Point"},"properties":{"concentration_Be-7":1673.55,"concentration_Cs-137":0.34,"concentration_Na-22":0.26,"concentration_Pb-210":81.33,"concentration_air-volume":123675.0,"from_timestamp":"2014-07-28T12:30:00Z","id":"103433","site":"Rovaniemi","to_timestamp":"2014-08-04T11:57:00Z","uncertainty_Be-7-uncertainty":5.0,"uncertainty_Cs-137-uncertainty":8.0,"uncertainty_Na-22-uncertainty":10.0,"uncertainty_Pb-210-uncertainty":5.0},"type":"Feature"},{"geometry":{"coordinates":[25.67774,66.51285],"type":"Point"},"properties":{"concentration_Be-7":2547.56,"concentration_Cs-137":0.56,"concentration_Na-22":0.25,"concentration_Pb-210":147.44,"concentration_air-volume":121068.0,"from_timestamp":"2014-08-04T12:02:00Z","id":"103433","site":"Rovaniemi","to_timestamp":"2014-08-11T11:21:00Z","uncertainty_Be-7-uncertainty":5.0,"uncertainty_Cs-137-uncertainty":6.0,"uncertainty_Na-22-uncertainty":16.0,"uncertainty_Pb-210-uncertainty":6.0},"type":"Feature"},{"geometry":{"coordinates":[26.62807,67.36505],"type":"Point"},"properties":{"concentration_Be-7":3003.53,"concentration_Cs-137":0.51,"concentration_Pb-210":215.31,"concentration_air-volume":24973.0,"from_timestamp":"2014-07-28T08:24:00Z","id":"103434","site":"Sodankylä","to_timestamp":"2014-08-04T08:25:00Z","uncertainty_Be-7-uncertainty":4.0,"uncertainty_Cs-137-uncertainty":23.0,"uncertainty_Pb-210-uncertainty":15.0},"type":"Feature"},{"geometry":{"coordinates":[26.62807,67.36505],"type":"Point"},"properties":{"concentration_Be-7":3661.83,"concentration_Cs-137":0.68,"concentration_Na-22":0.34,"concentration_Pb-210":240.47,"concentration_air-volume":24718.0,"from_timestamp":"2014-08-04T08:31:00Z","id":"103434","site":"Sodankylä","to_timestamp":"2014-08-11T08:22:00Z","uncertainty_Be-7-uncertainty":5.0,"uncertainty_Cs-137-uncertainty":16.0,"uncertainty_Na-22-uncertainty":28.0,"uncertainty_Pb-210-uncertainty":11.0},"type":"Feature"},{"geometry":{"coordinates":[27.70835,64.08474],"type":"Point"},"properties":{"concentration_Be-7":1841.11,"concentration_Cs-137":0.5,"concentration_Na-22":0.21,"concentration_air-volume":141142.0,"from_timestamp":"2014-07-27T06:46:00Z","id":"103435","site":"Kajaani","to_timestamp":"2014-08-03T19:30:00Z","uncertainty_Be-7-uncertainty":7.0,"uncertainty_Cs-137-uncertainty":9.0,"uncertainty_Na-22-uncertainty":17.0},"type":"Feature"},{"geometry":{"coordinates":[27.70835,64.08474],"type":"Point"},"properties":{"concentration_Be-7":4019.09,"concentration_Cs-137":0.59,"concentration_Na-22":0.34,"concentration_air-volume":128717.0,"from_timestamp":"2014-08-03T19:38:00Z","id":"103435","site":"Kajaani","to_timestamp":"2014-08-13T10:10:00Z","uncertainty_Be-7-uncertainty":7.0,"uncertainty_Cs-137-uncertainty":9.0,"uncertainty_Na-22-uncertainty":14.0},"type":"Feature"}],"name":"stuk_open_data_air_radionuclides","type":"FeatureCollection"}