{"crs":{"properties":{"name":"urn:ogc:def:crs:OGC:1.3:CRS84"},"type":"name"},"features":[{"geometry":{"coordinates":[25.05385,60.20905],"type":"Point"},"properties":{"concentration_Be-7":831.32,"concentration_air-volume":16879.0,"from_timestamp":"2014-05-27T07:53:00Z","id":"103428","site":"Helsinki","to_timestamp":"2014-05-28T08:47:00Z","uncertainty_Be-7-uncertainty":5.0},"type":"Feature"},{"geometry":{"coordinates":[25.05385,60.20905],"type":"Point"},"properties":{"concentration_Be-7":1466.73,"concentration_Pb-210":107.9,"concentration_air-volume":15495.0,"from_timestamp":"2014-05-28T08:48:00Z","id":"103428","site":"Helsinki","to_timestamp":"2014-05-29T08:03:00Z","uncertainty_Be-7-uncertainty":5.0,"uncertainty_Pb-210-uncertainty":18.0},"type":"Feature"},{"geometry":{"coordinates":[25.05385,60.20905],"type":"Point"},"properties":{"concentration_Be-7":726.24,"concentration_Pb-210":107.45,"concentration_air-volume":15852.0,"from_timestamp":"2014-05-29T08:04:00Z","id":"103428","site":"Helsinki","to_timestamp":"2014-05-30T08:03:00Z","uncertainty_Be-7-uncertainty":5.0,"uncertainty_Pb-210-uncertainty":18.0},"type":"Feature"},{"geometry":{"coordinates":[25.05385,60.20905],"type":"Point"},"properties":{"concentration_Be-7":675.18,"concentration_Pb-210":105.12,"concentration_air-volume":15839.0,"from_timestamp":"2014-05-30T08:04:00Z","id":"103428","site":"Helsinki","to_timestamp":"2014-05-31T08:03:00Z","uncertainty_Be-7-uncertainty":5.0,"uncertainty_Pb-210-uncertainty":16.0},"type":"Feature"},{"geometry":{"coordinates":[25.05385,60.20905],"type":"Point"},"properties":{"concentration_Be-7":645.72,"concentration_Pb-210":160.47,"concentration_air-volume":15803.0,"from_timestamp":"2014-05-31T08:04:00Z","id":"103428","site":"Helsinki","to_timestamp":"2014-06-01T08:03:00Z","uncertainty_Be-7-uncertainty":5.0,"uncertainty_Pb-210-uncertainty":13.0},"type":"Feature"},{"geometry":{"coordinates":[25.05385,60.20905],"type":"Point"},"properties":{"concentration_Be-7":660.46,"concentration_Cs-137":1.96,"concentration_Pb-210":170.73,"concentration_air-volume":15655.0,"from_timestamp":"2014-06-01T08:04:00Z","id":"103428","site":"Helsinki","to_timestamp":"2014-06-02T08:03:00Z","uncertainty_Be-7-uncertainty":5.0,"uncertainty_Cs-137-uncertainty":22.0,"uncertainty_Pb-210-uncertainty":13.0},"type":"Feature"},{"geometry":{"coordinates":[25.05385,60.20905],"type":"Point"},"properties":{"concentration_Be-7":2130.77,"concentration_Pb-210":311.17,"concentration_air-volume":15664.0,"from_timestamp":"2014-06-02T08:04:00Z","id":"103428","site":"Helsinki","to_timestamp":"2014-06-03T08:03:00Z","uncertainty_Be-7-uncertainty":5.0,"uncertainty_Pb-210-uncertainty":9.0},"type":"Feature"},{"geometry":{"coordinates":[25.05385,60.20905],"type":"Point"},"properties":{"concentration_Be-7":1851.43,"concentration_Pb-210":285.34,"concentration_air-volume":15541.0,"from_timestamp":"2014-06-03T08:04:00Z","id":"103428","site":"Helsinki","to_timestamp":"2014-06-04T08:03:00Z","uncertainty_Be-7-uncertainty":5.0,"uncertainty_Pb-210-uncertainty":9.0},"type":"Feature"},{"geometry":{"coordinates":[25.05385,60.20905],"type":"Point"},"properties":{"concentration_Be-7":4902.86,"concentration_Cs-137":1.93,"concentration_Pb-210":581.49,"concentration_air-volume":14757.0,"from_timestamp":"2014-06-04T08:04:00Z","id":"103428","site":"Helsinki","to_timestamp":"2014-06-05T08:03:00Z","uncertainty_Be-7-uncertainty":5.0,"uncertainty_Cs-137-uncertainty":24.0,"uncertainty_Pb-210-uncertainty":7.0},"type":"Feature"},{"geometry":{"coordinates":[26.91808,60.48318],"type":"Point"},"properties":{"concentration_Be-7":1253.43,"concentration_Cs-137":3.58,"concentration_Na-22":0.2,"concentration_Pb-210":157.11,"concentration_air-volume":137748.0,"from_timestamp":"2014-05-26T08:04:00Z","id":"103429","site":"Kotka","to_timestamp":"2014-06-02T12:40:00Z","uncertainty_Be-7-uncertainty":5.0,"uncertainty_Cs-137-uncertainty":5.0,"uncertainty_Na-22-uncertainty":17.0,"uncertainty_Pb-210-uncertainty":5.0},"type":"Feature"},{"geometry":{"coordinates":[26.91808,60.48318],"type":"Point"},"properties":{"concentration_Be-7":3245.69,"concentration_Cs-137":1.95,"concentration_Na-22":0.54,"concentration_Pb-210":415.82,"concentration_air-volume":145926.0,"from_timestamp":"2014-06-02T12:50:00Z","id":"103429","site":"Kotka","to_timestamp":"2014-06-11T05:30:00Z","uncertainty_Be-7-uncertainty":5.0,"uncertainty_Cs-137-uncertainty":6.0,"uncertainty_Na-22-uncertainty":10.0,"uncertainty_Pb-210-uncertainty":5.0},"type":"Feature"},{"geometry":{"coordinates":[28.82663,61.13229],"type":"Point"},"properties":{"concentration_Be-7":2569.01,"concentration_Cs-137":1.08,"concentration_Pb-210":77.55,"concentration_air-volume":36075.0,"from_timestamp":"2014-05-26T06:55:00Z","id":"103430","site":"Imatra","to_timestamp":"2014-06-05T06:45:00Z","uncertainty_Be-7-uncertainty":6.0,"uncertainty_Cs-137-uncertainty":12.0,"uncertainty_Pb-210-uncertainty":16.0},"type":"Feature"},{"geometry":{"coordinates":[27.57,68.64],"type":"Point"},"properties":{"concentration_Be-7":2919.46,"concentration_Na-22":0.63,"concentration_Pb-210":141.79,"concentration_air-volume":25994.0,"from_timestamp":"2014-05-26T09:59:00Z","id":"103431","site":"Ivalo","to_timestamp":"2014-06-02T09:57:00Z","uncertainty_Be-7-uncertainty":5.0,"uncertainty_Na-22-uncertainty":13.0,"uncertainty_Pb-210-uncertainty":9.0},"type":"Feature"},{"geometry":{"coordinates":[27.57,68.64],"type":"Point"},"properties":{"concentration_Be-7":4437.95,"concentration_Cs-137":0.39,"concentration_Na-22":0.72,"concentration_Pb-210":389.7,"concentration_air-volume":23783.0,"from_timestamp":"2014-06-02T10:01:00Z","id":"103431","site":"Ivalo","to_timestamp":"2014-06-09T08:27:00Z","uncertainty_Be-7-uncertainty":4.0,"uncertainty_Cs-137-uncertainty":15.0,"uncertainty_Na-22-uncertainty":27.0,"uncertainty_Pb-210-uncertainty":11.0},"type":"Feature"},{"geometry":{"coordinates":[27.63414,62.89195],"type":"Point"},"properties":{"concentration_Be-7":2521.66,"concentration_Cs-137":1.89,"concentration_air-volume":14966.0,"from_timestamp":"2014-05-26T05:15:00Z","id":"103432","site":"Kuopio","to_timestamp":"2014-05-30T05:36:00Z","uncertainty_Be-7-uncertainty":6.0,"uncertainty_Cs-137-uncertainty":19.0},"type":"Feature"},{"geometry":{"coordinates":[27.63414,62.89195],"type":"Point"},"properties":{"concentration_Be-7":1324.94,"concentration_Cs-137":4.02,"concentration_air-volume":11204.0,"from_timestamp":"2014-05-30T05:37:00Z","id":"103432","site":"Kuopio","to_timestamp":"2014-06-02T06:53:00Z","uncertainty_Be-7-uncertainty":6.0,"uncertainty_Cs-137-uncertainty":14.0},"type":"Feature"},{"geometry":{"coordinates":[27.63414,62.89195],"type":"Point"},"properties":{"concentration_Be-7":2357.39,"concentration_Cs-137":3.86,"concentration_air-volume":10553.0,"from_timestamp":"2014-06-02T06:54:00Z","id":"103432","site":"Kuopio","to_timestamp":"2014-06-05T05:28:00Z","uncertainty_Be-7-uncertainty":6.0,"uncertainty_Cs-137-uncertainty":15.0},"type":"Feature"},{"geometry":{"coordinates":[25.67774,66.51285],"type":"Point"},"properties":{"concentration_Be-7":2041.42,"concentration_Cs-137":0.13,"concentration_Na-22":0.28,"concentration_Pb-210":79.7,"concentration_air-volume":125922.0,"from_timestamp":"2014-05-26T10:55:00Z","id":"103433","site":"Rovaniemi","to_timestamp":"2014-06-02T10:15:00Z","uncertainty_Be-7-uncertainty":5.0,"uncertainty_Cs-137-uncertainty":9.0,"uncertainty_Na-22-uncertainty":5.0,"uncertainty_Pb-210-uncertainty":5.0},"type":"Feature"},{"geometry":{"coordinates":[25.67774,66.51285],"type":"Point"},"properties":{"concentration_Be-7":2611.35,"concentration_Cs-137":0.63,"concentration_Na-22":0.37,"concentration_Pb-210":153.55,"concentration_air-volume":121877.0,"from_timestamp":"2014-06-02T10:23:00Z","id":"103433","site":"Rovaniemi","to_timestamp":"2014-06-09T09:56:00Z","uncertainty_Be-7-uncertainty":5.0,"uncertainty_Cs-137-uncertainty":6.0,"uncertainty_Na-22-uncertainty":8.0,"uncertainty_Pb-210-uncertainty":9.0},"type":"Feature"},{"geometry":{"coordinates":[26.62807,67.36505],"type":"Point"},"properties":{"concentration_Be-7":2739.28,"concentration_Na-22":0.38,"concentration_Pb-210":101.41,"concentration_air-volume":25716.0,"from_timestamp":"2014-05-26T08:47:00Z","id":"103434","site":"Sodankylä","to_timestamp":"2014-06-02T08:25:00Z","uncertainty_Be-7-uncertainty":5.0,"uncertainty_Na-22-uncertainty":26.0,"uncertainty_Pb-210-uncertainty":18.0},"type":"Feature"},{"geometry":{"coordinates":[26.62807,67.36505],"type":"Point"},"properties":{"concentration_Be-7":3888.94,"concentration_Cs-137":0.71,"concentration_Na-22":0.52,"concentration_Pb-210":241.39,"concentration_air-volume":24684.0,"from_timestamp":"2014-06-02T08:30:00Z","id":"103434","site":"Sodankylä","to_timestamp":"2014-06-09T08:28:00Z","uncertainty_Be-7-uncertainty":5.0,"uncertainty_Cs-137-uncertainty":12.0,"uncertainty_Na-22-uncertainty":17.0,"uncertainty_Pb-210-uncertainty":5.0},"type":"Feature"},{"geometry":{"coordinates":[27.70835,64.08474],"type":"Point"},"properties":{"concentration_Be-7":1997.97,"concentration_Cs-137":1.24,"concentration_Na-22":0.38,"concentration_air-volume":89078.0,"from_timestamp":"2014-05-26T19:11:00Z","id":"103435","site":"Kajaani","to_timestamp":"2014-06-02T05:25:00Z","uncertainty_Be-7-uncertainty":7.0,"uncertainty_Cs-137-uncertainty":8.0,"uncertainty_Na-22-uncertainty":18.0},"type":"Feature"},{"geometry":{"coordinates":[27.70835,64.08474],"type":"Point"},"properties":{"concentration_Be-7":2587.47,"concentration_Cs-137":2.88,"concentration_Na-22":0.35,"concentration_Pb-210":355.95,"concentration_air-volume":94619.0,"from_timestamp":"2014-06-02T05:29:00Z","id":"103435","site":"Kajaani","to_timestamp":"2014-06-09T08:15:00Z","uncertainty_Be-7-uncertainty":6.0,"uncertainty_Cs-137-uncertainty":6.0,"uncertainty_Na-22-uncertainty":13.0,"uncertainty_Pb-210-uncertainty":20.0},"type":"Feature"}],"name":"stuk_open_data_air_radionuclides","type":"FeatureCollection"}