{"crs":{"properties":{"name":"urn:ogc:def:crs:OGC:1.3:CRS84"},"type":"name"},"features":[{"geometry":{"coordinates":[25.05385,60.20905],"type":"Point"},"properties":{"concentration_Be-7":2081.6,"concentration_Pb-210":235.74,"concentration_air-volume":16065.0,"from_timestamp":"2014-04-09T08:04:00Z","id":"103428","site":"Helsinki","to_timestamp":"2014-04-10T08:03:00Z","uncertainty_Be-7-uncertainty":5.0,"uncertainty_Pb-210-uncertainty":9.0},"type":"Feature"},{"geometry":{"coordinates":[25.05385,60.20905],"type":"Point"},"properties":{"concentration_Be-7":3026.28,"concentration_Pb-210":277.13,"concentration_air-volume":16048.0,"from_timestamp":"2014-04-10T08:04:00Z","id":"103428","site":"Helsinki","to_timestamp":"2014-04-11T08:03:00Z","uncertainty_Be-7-uncertainty":5.0,"uncertainty_Pb-210-uncertainty":10.0},"type":"Feature"},{"geometry":{"coordinates":[25.05385,60.20905],"type":"Point"},"properties":{"concentration_Be-7":1579.13,"concentration_Pb-210":218.52,"concentration_air-volume":15986.0,"from_timestamp":"2014-04-11T08:04:00Z","id":"103428","site":"Helsinki","to_timestamp":"2014-04-12T08:03:00Z","uncertainty_Be-7-uncertainty":5.0,"uncertainty_Pb-210-uncertainty":10.0},"type":"Feature"},{"geometry":{"coordinates":[25.05385,60.20905],"type":"Point"},"properties":{"concentration_Be-7":709.22,"concentration_Pb-210":104.46,"concentration_air-volume":16139.0,"from_timestamp":"2014-04-12T08:04:00Z","id":"103428","site":"Helsinki","to_timestamp":"2014-04-13T08:03:00Z","uncertainty_Be-7-uncertainty":5.0,"uncertainty_Pb-210-uncertainty":18.0},"type":"Feature"},{"geometry":{"coordinates":[25.05385,60.20905],"type":"Point"},"properties":{"concentration_Be-7":1869.27,"concentration_Pb-210":137.08,"concentration_air-volume":15960.0,"from_timestamp":"2014-04-13T08:04:00Z","id":"103428","site":"Helsinki","to_timestamp":"2014-04-14T08:03:00Z","uncertainty_Be-7-uncertainty":5.0,"uncertainty_Pb-210-uncertainty":16.0},"type":"Feature"},{"geometry":{"coordinates":[25.05385,60.20905],"type":"Point"},"properties":{"concentration_Be-7":1193.27,"concentration_Pb-210":84.96,"concentration_air-volume":15874.0,"from_timestamp":"2014-04-14T08:04:00Z","id":"103428","site":"Helsinki","to_timestamp":"2014-04-15T08:03:00Z","uncertainty_Be-7-uncertainty":5.0,"uncertainty_Pb-210-uncertainty":24.0},"type":"Feature"},{"geometry":{"coordinates":[25.05385,60.20905],"type":"Point"},"properties":{"concentration_Be-7":1143.23,"concentration_Pb-210":111.33,"concentration_air-volume":16399.0,"from_timestamp":"2014-04-15T08:04:00Z","id":"103428","site":"Helsinki","to_timestamp":"2014-04-16T08:03:00Z","uncertainty_Be-7-uncertainty":5.0,"uncertainty_Pb-210-uncertainty":19.0},"type":"Feature"},{"geometry":{"coordinates":[25.05385,60.20905],"type":"Point"},"properties":{"concentration_Be-7":2504.15,"concentration_Pb-210":131.54,"concentration_air-volume":16117.0,"from_timestamp":"2014-04-16T08:04:00Z","id":"103428","site":"Helsinki","to_timestamp":"2014-04-17T08:03:00Z","uncertainty_Be-7-uncertainty":5.0,"uncertainty_Pb-210-uncertainty":15.0},"type":"Feature"},{"geometry":{"coordinates":[25.05385,60.20905],"type":"Point"},"properties":{"concentration_Be-7":1901.49,"concentration_Pb-210":156.58,"concentration_air-volume":15833.0,"from_timestamp":"2014-04-17T08:04:00Z","id":"103428","site":"Helsinki","to_timestamp":"2014-04-18T08:03:00Z","uncertainty_Be-7-uncertainty":5.0,"uncertainty_Pb-210-uncertainty":15.0},"type":"Feature"},{"geometry":{"coordinates":[26.91808,60.48318],"type":"Point"},"properties":{"concentration_Be-7":2407.55,"concentration_Cs-137":2.69,"concentration_Na-22":0.27,"concentration_Pb-210":329.54,"concentration_air-volume":271848.0,"from_timestamp":"2014-04-08T06:15:00Z","id":"103429","site":"Kotka","to_timestamp":"2014-04-25T10:40:00Z","uncertainty_Be-7-uncertainty":7.0,"uncertainty_Cs-137-uncertainty":7.0,"uncertainty_Na-22-uncertainty":12.0,"uncertainty_Pb-210-uncertainty":23.0},"type":"Feature"},{"geometry":{"coordinates":[28.82663,61.13229],"type":"Point"},"properties":{"concentration_Be-7":2097.97,"concentration_air-volume":26710.0,"from_timestamp":"2014-04-07T06:45:00Z","id":"103430","site":"Imatra","to_timestamp":"2014-04-14T06:45:00Z","uncertainty_Be-7-uncertainty":5.0},"type":"Feature"},{"geometry":{"coordinates":[28.82663,61.13229],"type":"Point"},"properties":{"concentration_Be-7":2166.52,"concentration_Cs-137":0.33,"concentration_Pb-210":189.14,"concentration_air-volume":38340.0,"from_timestamp":"2014-04-14T06:50:00Z","id":"103430","site":"Imatra","to_timestamp":"2014-04-24T10:35:00Z","uncertainty_Be-7-uncertainty":5.0,"uncertainty_Cs-137-uncertainty":21.0,"uncertainty_Pb-210-uncertainty":5.0},"type":"Feature"},{"geometry":{"coordinates":[27.57,68.64],"type":"Point"},"properties":{"concentration_Be-7":1722.77,"concentration_Pb-210":167.77,"concentration_air-volume":26543.0,"from_timestamp":"2014-04-07T08:24:00Z","id":"103431","site":"Ivalo","to_timestamp":"2014-04-14T08:13:00Z","uncertainty_Be-7-uncertainty":5.0,"uncertainty_Pb-210-uncertainty":13.0},"type":"Feature"},{"geometry":{"coordinates":[27.57,68.64],"type":"Point"},"properties":{"concentration_Be-7":1935.69,"concentration_Pb-210":160.56,"concentration_air-volume":30292.0,"from_timestamp":"2014-04-14T08:14:00Z","id":"103431","site":"Ivalo","to_timestamp":"2014-04-22T09:41:00Z","uncertainty_Be-7-uncertainty":4.0,"uncertainty_Pb-210-uncertainty":15.0},"type":"Feature"},{"geometry":{"coordinates":[27.63414,62.89195],"type":"Point"},"properties":{"concentration_Be-7":2682.9,"concentration_air-volume":11676.0,"from_timestamp":"2014-04-07T05:23:00Z","id":"103432","site":"Kuopio","to_timestamp":"2014-04-10T05:29:00Z","uncertainty_Be-7-uncertainty":6.0},"type":"Feature"},{"geometry":{"coordinates":[27.63414,62.89195],"type":"Point"},"properties":{"concentration_Be-7":1925.46,"concentration_air-volume":14772.0,"from_timestamp":"2014-04-10T05:30:00Z","id":"103432","site":"Kuopio","to_timestamp":"2014-04-14T05:14:00Z","uncertainty_Be-7-uncertainty":6.0},"type":"Feature"},{"geometry":{"coordinates":[27.63414,62.89195],"type":"Point"},"properties":{"concentration_Be-7":1590.26,"concentration_air-volume":11402.0,"from_timestamp":"2014-04-14T05:15:00Z","id":"103432","site":"Kuopio","to_timestamp":"2014-04-17T05:28:00Z","uncertainty_Be-7-uncertainty":6.0},"type":"Feature"},{"geometry":{"coordinates":[27.63414,62.89195],"type":"Point"},"properties":{"concentration_Be-7":11242.48,"concentration_air-volume":4662.0,"from_timestamp":"2014-04-17T05:29:00Z","id":"103432","site":"Kuopio","to_timestamp":"2014-04-22T05:19:00Z","uncertainty_Be-7-uncertainty":6.0},"type":"Feature"},{"geometry":{"coordinates":[25.67774,66.51285],"type":"Point"},"properties":{"concentration_Be-7":753.36,"concentration_Cs-137":0.12,"concentration_Pb-210":41.45,"concentration_air-volume":101402.0,"from_timestamp":"2014-04-07T14:34:00Z","id":"103433","site":"Rovaniemi","to_timestamp":"2014-04-14T13:27:00Z","uncertainty_Be-7-uncertainty":5.0,"uncertainty_Cs-137-uncertainty":13.0,"uncertainty_Pb-210-uncertainty":5.0},"type":"Feature"},{"geometry":{"coordinates":[25.67774,66.51285],"type":"Point"},"properties":{"concentration_Be-7":1299.81,"concentration_Cs-137":0.16,"concentration_Na-22":0.18,"concentration_Pb-210":49.56,"concentration_air-volume":144120.0,"from_timestamp":"2014-04-14T13:36:00Z","id":"103433","site":"Rovaniemi","to_timestamp":"2014-04-22T14:30:00Z","uncertainty_Be-7-uncertainty":5.0,"uncertainty_Cs-137-uncertainty":5.0,"uncertainty_Na-22-uncertainty":7.0,"uncertainty_Pb-210-uncertainty":5.0},"type":"Feature"},{"geometry":{"coordinates":[26.62807,67.36505],"type":"Point"},"properties":{"concentration_Be-7":1492.11,"concentration_Pb-210":191.56,"concentration_air-volume":26117.0,"from_timestamp":"2014-04-07T07:36:00Z","id":"103434","site":"Sodankylä","to_timestamp":"2014-04-14T08:26:00Z","uncertainty_Be-7-uncertainty":5.0,"uncertainty_Pb-210-uncertainty":10.0},"type":"Feature"},{"geometry":{"coordinates":[26.62807,67.36505],"type":"Point"},"properties":{"concentration_Be-7":1693.59,"concentration_Pb-210":63.81,"concentration_air-volume":30000.0,"from_timestamp":"2014-04-14T08:27:00Z","id":"103434","site":"Sodankylä","to_timestamp":"2014-04-22T08:27:00Z","uncertainty_Be-7-uncertainty":5.0,"uncertainty_Pb-210-uncertainty":25.0},"type":"Feature"},{"geometry":{"coordinates":[27.70835,64.08474],"type":"Point"},"properties":{"concentration_Be-7":1616.13,"concentration_Cs-137":0.23,"concentration_Pb-210":173.65,"concentration_air-volume":97856.0,"from_timestamp":"2014-04-07T06:20:00Z","id":"103435","site":"Kajaani","to_timestamp":"2014-04-14T04:42:00Z","uncertainty_Be-7-uncertainty":5.0,"uncertainty_Cs-137-uncertainty":22.0,"uncertainty_Pb-210-uncertainty":5.0},"type":"Feature"},{"geometry":{"coordinates":[27.70835,64.08474],"type":"Point"},"properties":{"concentration_Be-7":1579.63,"concentration_Cs-137":0.3,"concentration_Na-22":0.18,"concentration_air-volume":118560.0,"from_timestamp":"2014-04-14T04:44:00Z","id":"103435","site":"Kajaani","to_timestamp":"2014-04-22T15:40:00Z","uncertainty_Be-7-uncertainty":5.0,"uncertainty_Cs-137-uncertainty":10.0,"uncertainty_Na-22-uncertainty":21.0},"type":"Feature"}],"name":"stuk_open_data_air_radionuclides","type":"FeatureCollection"}