{"crs":{"properties":{"name":"urn:ogc:def:crs:OGC:1.3:CRS84"},"type":"name"},"features":[{"geometry":{"coordinates":[25.05385,60.20905],"type":"Point"},"properties":{"concentration_Be-7":2150.92,"concentration_Pb-210":487.52,"concentration_air-volume":16591.0,"from_timestamp":"2014-02-04T06:50:00Z","id":"103428","site":"Helsinki","to_timestamp":"2014-02-05T06:50:00Z","uncertainty_Be-7-uncertainty":5.0,"uncertainty_Pb-210-uncertainty":7.0},"type":"Feature"},{"geometry":{"coordinates":[25.05385,60.20905],"type":"Point"},"properties":{"concentration_Be-7":3863.1,"concentration_Cs-137":2.56,"concentration_Pb-210":1048.21,"concentration_air-volume":16580.0,"from_timestamp":"2014-02-05T06:51:00Z","id":"103428","site":"Helsinki","to_timestamp":"2014-02-06T06:49:00Z","uncertainty_Be-7-uncertainty":5.0,"uncertainty_Cs-137-uncertainty":23.0,"uncertainty_Pb-210-uncertainty":6.0},"type":"Feature"},{"geometry":{"coordinates":[25.05385,60.20905],"type":"Point"},"properties":{"concentration_Be-7":5252.13,"concentration_Cs-137":6.44,"concentration_Pb-210":1129.11,"concentration_air-volume":16152.0,"from_timestamp":"2014-02-06T06:50:00Z","id":"103428","site":"Helsinki","to_timestamp":"2014-02-07T06:49:00Z","uncertainty_Be-7-uncertainty":5.0,"uncertainty_Cs-137-uncertainty":9.0,"uncertainty_Pb-210-uncertainty":6.0},"type":"Feature"},{"geometry":{"coordinates":[25.05385,60.20905],"type":"Point"},"properties":{"concentration_Be-7":2080.3,"concentration_Pb-210":1051.06,"concentration_air-volume":16059.0,"from_timestamp":"2014-02-07T06:50:00Z","id":"103428","site":"Helsinki","to_timestamp":"2014-02-08T06:49:00Z","uncertainty_Be-7-uncertainty":5.0,"uncertainty_Pb-210-uncertainty":5.0},"type":"Feature"},{"geometry":{"coordinates":[25.05385,60.20905],"type":"Point"},"properties":{"concentration_Be-7":997.0,"concentration_Pb-210":216.68,"concentration_air-volume":16244.0,"from_timestamp":"2014-02-08T06:50:00Z","id":"103428","site":"Helsinki","to_timestamp":"2014-02-09T06:49:00Z","uncertainty_Be-7-uncertainty":5.0,"uncertainty_Pb-210-uncertainty":9.0},"type":"Feature"},{"geometry":{"coordinates":[25.05385,60.20905],"type":"Point"},"properties":{"concentration_Be-7":1004.97,"concentration_Pb-210":308.77,"concentration_air-volume":16485.0,"from_timestamp":"2014-02-09T06:50:00Z","id":"103428","site":"Helsinki","to_timestamp":"2014-02-10T06:49:00Z","uncertainty_Be-7-uncertainty":5.0,"uncertainty_Pb-210-uncertainty":8.0},"type":"Feature"},{"geometry":{"coordinates":[25.05385,60.20905],"type":"Point"},"properties":{"concentration_Be-7":428.23,"concentration_Pb-210":477.93,"concentration_air-volume":16361.0,"from_timestamp":"2014-02-10T06:50:00Z","id":"103428","site":"Helsinki","to_timestamp":"2014-02-11T06:49:00Z","uncertainty_Be-7-uncertainty":5.0,"uncertainty_Pb-210-uncertainty":7.0},"type":"Feature"},{"geometry":{"coordinates":[25.05385,60.20905],"type":"Point"},"properties":{"concentration_Be-7":746.69,"concentration_Pb-210":233.26,"concentration_air-volume":16537.0,"from_timestamp":"2014-02-11T06:50:00Z","id":"103428","site":"Helsinki","to_timestamp":"2014-02-12T06:49:00Z","uncertainty_Be-7-uncertainty":5.0,"uncertainty_Pb-210-uncertainty":9.0},"type":"Feature"},{"geometry":{"coordinates":[25.05385,60.20905],"type":"Point"},"properties":{"concentration_Be-7":747.59,"concentration_Pb-210":251.24,"concentration_air-volume":16312.0,"from_timestamp":"2014-02-12T06:50:00Z","id":"103428","site":"Helsinki","to_timestamp":"2014-02-13T06:49:00Z","uncertainty_Be-7-uncertainty":5.0,"uncertainty_Pb-210-uncertainty":9.0},"type":"Feature"},{"geometry":{"coordinates":[26.91808,60.48318],"type":"Point"},"properties":{"concentration_Be-7":1498.94,"concentration_Cs-137":1.28,"concentration_Na-22":0.15,"concentration_Pb-210":447.2,"concentration_air-volume":157021.0,"from_timestamp":"2014-02-03T10:45:00Z","id":"103429","site":"Kotka","to_timestamp":"2014-02-11T06:15:00Z","uncertainty_Be-7-uncertainty":5.0,"uncertainty_Cs-137-uncertainty":6.0,"uncertainty_Na-22-uncertainty":18.0,"uncertainty_Pb-210-uncertainty":5.0},"type":"Feature"},{"geometry":{"coordinates":[26.91808,60.48318],"type":"Point"},"properties":{"concentration_Be-7":796.95,"concentration_Cs-137":1.4,"concentration_Pb-210":506.58,"concentration_air-volume":132987.0,"from_timestamp":"2014-02-11T06:20:00Z","id":"103429","site":"Kotka","to_timestamp":"2014-02-18T05:31:00Z","uncertainty_Be-7-uncertainty":7.0,"uncertainty_Cs-137-uncertainty":8.0,"uncertainty_Pb-210-uncertainty":22.0},"type":"Feature"},{"geometry":{"coordinates":[28.82663,61.13229],"type":"Point"},"properties":{"concentration_Be-7":2813.75,"concentration_Cs-137":1.82,"concentration_Pb-210":666.87,"concentration_air-volume":25584.0,"from_timestamp":"2014-02-03T06:50:00Z","id":"103430","site":"Imatra","to_timestamp":"2014-02-10T05:15:00Z","uncertainty_Be-7-uncertainty":6.0,"uncertainty_Cs-137-uncertainty":8.0,"uncertainty_Pb-210-uncertainty":20.0},"type":"Feature"},{"geometry":{"coordinates":[28.82663,61.13229],"type":"Point"},"properties":{"concentration_Be-7":707.69,"concentration_Cs-137":0.62,"concentration_Pb-210":352.42,"concentration_air-volume":26674.0,"from_timestamp":"2014-02-10T05:16:00Z","id":"103430","site":"Imatra","to_timestamp":"2014-02-17T06:45:00Z","uncertainty_Be-7-uncertainty":6.0,"uncertainty_Cs-137-uncertainty":13.0,"uncertainty_Pb-210-uncertainty":20.0},"type":"Feature"},{"geometry":{"coordinates":[27.57,68.64],"type":"Point"},"properties":{"concentration_Be-7":1140.85,"concentration_Cs-137":0.28,"concentration_Pb-210":363.98,"concentration_air-volume":26485.0,"from_timestamp":"2014-02-10T07:35:00Z","id":"103431","site":"Ivalo","to_timestamp":"2014-02-17T08:45:00Z","uncertainty_Be-7-uncertainty":4.0,"uncertainty_Cs-137-uncertainty":30.0,"uncertainty_Pb-210-uncertainty":9.0},"type":"Feature"},{"geometry":{"coordinates":[27.63414,62.89195],"type":"Point"},"properties":{"concentration_Be-7":2333.92,"concentration_air-volume":11351.0,"from_timestamp":"2014-02-03T05:31:00Z","id":"103432","site":"Kuopio","to_timestamp":"2014-02-06T05:17:00Z","uncertainty_Be-7-uncertainty":6.0},"type":"Feature"},{"geometry":{"coordinates":[27.63414,62.89195],"type":"Point"},"properties":{"concentration_Be-7":3331.08,"concentration_Cs-137":1.63,"concentration_air-volume":14503.0,"from_timestamp":"2014-02-06T05:18:00Z","id":"103432","site":"Kuopio","to_timestamp":"2014-02-10T05:25:00Z","uncertainty_Be-7-uncertainty":6.0,"uncertainty_Cs-137-uncertainty":22.0},"type":"Feature"},{"geometry":{"coordinates":[27.63414,62.89195],"type":"Point"},"properties":{"concentration_Be-7":505.43,"concentration_air-volume":11198.0,"from_timestamp":"2014-02-10T05:26:00Z","id":"103432","site":"Kuopio","to_timestamp":"2014-02-13T05:26:00Z","uncertainty_Be-7-uncertainty":6.0},"type":"Feature"},{"geometry":{"coordinates":[25.67774,66.51285],"type":"Point"},"properties":{"concentration_Be-7":1429.72,"concentration_Cs-137":0.57,"concentration_Na-22":0.15,"concentration_Pb-210":153.29,"concentration_air-volume":127042.0,"from_timestamp":"2014-02-03T12:09:00Z","id":"103433","site":"Rovaniemi","to_timestamp":"2014-02-10T09:33:00Z","uncertainty_Be-7-uncertainty":5.0,"uncertainty_Cs-137-uncertainty":7.0,"uncertainty_Na-22-uncertainty":14.0,"uncertainty_Pb-210-uncertainty":5.0},"type":"Feature"},{"geometry":{"coordinates":[25.67774,66.51285],"type":"Point"},"properties":{"concentration_Be-7":679.8,"concentration_Cs-137":0.26,"concentration_Na-22":0.1,"concentration_Pb-210":92.37,"concentration_air-volume":129448.0,"from_timestamp":"2014-02-10T09:35:00Z","id":"103433","site":"Rovaniemi","to_timestamp":"2014-02-17T11:35:00Z","uncertainty_Be-7-uncertainty":5.0,"uncertainty_Cs-137-uncertainty":9.0,"uncertainty_Na-22-uncertainty":27.0,"uncertainty_Pb-210-uncertainty":6.0},"type":"Feature"},{"geometry":{"coordinates":[26.62807,67.36505],"type":"Point"},"properties":{"concentration_Be-7":2107.0,"concentration_Cs-137":0.8,"concentration_Pb-210":103.17,"concentration_air-volume":26329.0,"from_timestamp":"2014-02-03T08:20:00Z","id":"103434","site":"Sodankylä","to_timestamp":"2014-02-10T08:22:00Z","uncertainty_Be-7-uncertainty":5.0,"uncertainty_Cs-137-uncertainty":15.0,"uncertainty_Pb-210-uncertainty":17.0},"type":"Feature"},{"geometry":{"coordinates":[26.62807,67.36505],"type":"Point"},"properties":{"concentration_Be-7":963.54,"concentration_Cs-137":0.27,"concentration_Pb-210":134.01,"concentration_air-volume":26302.0,"from_timestamp":"2014-02-10T08:24:00Z","id":"103434","site":"Sodankylä","to_timestamp":"2014-02-17T08:18:00Z","uncertainty_Be-7-uncertainty":6.0,"uncertainty_Cs-137-uncertainty":17.0,"uncertainty_Pb-210-uncertainty":15.0},"type":"Feature"},{"geometry":{"coordinates":[27.70835,64.08474],"type":"Point"},"properties":{"concentration_Be-7":1885.38,"concentration_Cs-137":0.92,"concentration_Pb-210":1091.49,"concentration_air-volume":99774.0,"from_timestamp":"2014-02-03T07:15:00Z","id":"103435","site":"Kajaani","to_timestamp":"2014-02-10T10:13:00Z","uncertainty_Be-7-uncertainty":7.0,"uncertainty_Cs-137-uncertainty":8.0,"uncertainty_Pb-210-uncertainty":19.0},"type":"Feature"},{"geometry":{"coordinates":[27.70835,64.08474],"type":"Point"},"properties":{"concentration_Be-7":689.9,"concentration_Cs-137":0.29,"concentration_Pb-210":272.66,"concentration_air-volume":97017.0,"from_timestamp":"2014-02-10T10:15:00Z","id":"103435","site":"Kajaani","to_timestamp":"2014-02-17T07:55:00Z","uncertainty_Be-7-uncertainty":5.0,"uncertainty_Cs-137-uncertainty":12.0,"uncertainty_Pb-210-uncertainty":5.0},"type":"Feature"}],"name":"stuk_open_data_air_radionuclides","type":"FeatureCollection"}