{"crs":{"properties":{"name":"urn:ogc:def:crs:OGC:1.3:CRS84"},"type":"name"},"features":[{"geometry":{"coordinates":[25.05385,60.20905],"type":"Point"},"properties":{"concentration_Be-7":1380.66,"concentration_Pb-210":74.32,"concentration_air-volume":15909.0,"from_timestamp":"2014-09-24T08:03:00Z","id":"103428","site":"Helsinki","to_timestamp":"2014-09-25T08:02:00Z","uncertainty_Be-7-uncertainty":5.0,"uncertainty_Pb-210-uncertainty":21.0},"type":"Feature"},{"geometry":{"coordinates":[25.05385,60.20905],"type":"Point"},"properties":{"concentration_Be-7":3262.12,"concentration_Pb-210":360.81,"concentration_air-volume":15599.0,"from_timestamp":"2014-09-25T08:03:00Z","id":"103428","site":"Helsinki","to_timestamp":"2014-09-26T08:02:00Z","uncertainty_Be-7-uncertainty":5.0,"uncertainty_Pb-210-uncertainty":8.0},"type":"Feature"},{"geometry":{"coordinates":[25.05385,60.20905],"type":"Point"},"properties":{"concentration_Be-7":1644.01,"concentration_air-volume":15616.0,"from_timestamp":"2014-09-26T08:03:00Z","id":"103428","site":"Helsinki","to_timestamp":"2014-09-27T08:02:00Z","uncertainty_Be-7-uncertainty":5.0},"type":"Feature"},{"geometry":{"coordinates":[25.05385,60.20905],"type":"Point"},"properties":{"concentration_Be-7":938.86,"concentration_Pb-210":103.52,"concentration_air-volume":15925.0,"from_timestamp":"2014-09-27T08:03:00Z","id":"103428","site":"Helsinki","to_timestamp":"2014-09-28T08:02:00Z","uncertainty_Be-7-uncertainty":5.0,"uncertainty_Pb-210-uncertainty":20.0},"type":"Feature"},{"geometry":{"coordinates":[25.05385,60.20905],"type":"Point"},"properties":{"concentration_Be-7":2617.57,"concentration_Pb-210":184.0,"concentration_air-volume":15906.0,"from_timestamp":"2014-09-28T08:03:00Z","id":"103428","site":"Helsinki","to_timestamp":"2014-09-29T08:02:00Z","uncertainty_Be-7-uncertainty":5.0,"uncertainty_Pb-210-uncertainty":14.0},"type":"Feature"},{"geometry":{"coordinates":[25.05385,60.20905],"type":"Point"},"properties":{"concentration_Be-7":1682.9,"concentration_Pb-210":116.12,"concentration_air-volume":15969.0,"from_timestamp":"2014-09-29T08:03:00Z","id":"103428","site":"Helsinki","to_timestamp":"2014-09-30T08:02:00Z","uncertainty_Be-7-uncertainty":5.0,"uncertainty_Pb-210-uncertainty":18.0},"type":"Feature"},{"geometry":{"coordinates":[25.05385,60.20905],"type":"Point"},"properties":{"concentration_Be-7":960.22,"concentration_Pb-210":258.89,"concentration_air-volume":16393.0,"from_timestamp":"2014-09-30T08:03:00Z","id":"103428","site":"Helsinki","to_timestamp":"2014-10-01T08:02:00Z","uncertainty_Be-7-uncertainty":5.0,"uncertainty_Pb-210-uncertainty":15.0},"type":"Feature"},{"geometry":{"coordinates":[25.05385,60.20905],"type":"Point"},"properties":{"concentration_Be-7":746.14,"concentration_Pb-210":115.32,"concentration_air-volume":16205.0,"from_timestamp":"2014-10-01T08:03:00Z","id":"103428","site":"Helsinki","to_timestamp":"2014-10-02T08:02:00Z","uncertainty_Be-7-uncertainty":5.0,"uncertainty_Pb-210-uncertainty":26.0},"type":"Feature"},{"geometry":{"coordinates":[25.05385,60.20905],"type":"Point"},"properties":{"concentration_Be-7":809.0,"concentration_Pb-210":315.73,"concentration_air-volume":16266.0,"from_timestamp":"2014-10-02T08:03:00Z","id":"103428","site":"Helsinki","to_timestamp":"2014-10-03T08:02:00Z","uncertainty_Be-7-uncertainty":5.0,"uncertainty_Pb-210-uncertainty":9.0},"type":"Feature"},{"geometry":{"coordinates":[26.91808,60.48318],"type":"Point"},"properties":{"concentration_Be-7":1379.24,"concentration_Cs-137":0.54,"concentration_Na-22":0.15,"concentration_Pb-210":165.79,"concentration_air-volume":139225.0,"from_timestamp":"2014-09-22T10:15:00Z","id":"103429","site":"Kotka","to_timestamp":"2014-09-29T17:26:00Z","uncertainty_Be-7-uncertainty":5.0,"uncertainty_Cs-137-uncertainty":7.0,"uncertainty_Na-22-uncertainty":19.0,"uncertainty_Pb-210-uncertainty":5.0},"type":"Feature"},{"geometry":{"coordinates":[26.91808,60.48318],"type":"Point"},"properties":{"concentration_Be-7":734.47,"concentration_Cs-137":1.69,"concentration_Pb-210":144.13,"concentration_air-volume":145393.0,"from_timestamp":"2014-09-29T17:28:00Z","id":"103429","site":"Kotka","to_timestamp":"2014-10-07T05:16:00Z","uncertainty_Be-7-uncertainty":5.0,"uncertainty_Cs-137-uncertainty":6.0,"uncertainty_Pb-210-uncertainty":5.0},"type":"Feature"},{"geometry":{"coordinates":[28.82663,61.13229],"type":"Point"},"properties":{"concentration_Be-7":789.74,"concentration_air-volume":10772.0,"from_timestamp":"2014-09-22T11:00:00Z","id":"103430","site":"Imatra","to_timestamp":"2014-09-25T08:55:00Z","uncertainty_Be-7-uncertainty":10.0},"type":"Feature"},{"geometry":{"coordinates":[28.82663,61.13229],"type":"Point"},"properties":{"concentration_Be-7":1875.68,"concentration_Cs-137":0.86,"concentration_Pb-210":59.3,"concentration_air-volume":40655.0,"from_timestamp":"2014-09-25T08:30:00Z","id":"103430","site":"Imatra","to_timestamp":"2014-10-06T07:00:00Z","uncertainty_Be-7-uncertainty":6.0,"uncertainty_Cs-137-uncertainty":11.0,"uncertainty_Pb-210-uncertainty":14.0},"type":"Feature"},{"geometry":{"coordinates":[27.57,68.64],"type":"Point"},"properties":{"concentration_Be-7":767.26,"concentration_Pb-210":106.2,"concentration_air-volume":26063.0,"from_timestamp":"2014-09-22T11:44:00Z","id":"103431","site":"Ivalo","to_timestamp":"2014-09-29T12:03:00Z","uncertainty_Be-7-uncertainty":7.0,"uncertainty_Pb-210-uncertainty":19.0},"type":"Feature"},{"geometry":{"coordinates":[27.57,68.64],"type":"Point"},"properties":{"concentration_Be-7":1411.0,"concentration_Cs-137":0.41,"concentration_Na-22":0.34,"concentration_Pb-210":109.71,"concentration_air-volume":25674.0,"from_timestamp":"2014-09-29T12:04:00Z","id":"103431","site":"Ivalo","to_timestamp":"2014-10-06T08:09:00Z","uncertainty_Be-7-uncertainty":5.0,"uncertainty_Cs-137-uncertainty":8.0,"uncertainty_Na-22-uncertainty":11.0,"uncertainty_Pb-210-uncertainty":17.0},"type":"Feature"},{"geometry":{"coordinates":[27.63414,62.89195],"type":"Point"},"properties":{"concentration_Be-7":951.49,"concentration_air-volume":11034.0,"from_timestamp":"2014-09-22T05:15:00Z","id":"103432","site":"Kuopio","to_timestamp":"2014-09-25T05:33:00Z","uncertainty_Be-7-uncertainty":6.0},"type":"Feature"},{"geometry":{"coordinates":[27.63414,62.89195],"type":"Point"},"properties":{"concentration_Be-7":1591.33,"concentration_Cs-137":1.48,"concentration_air-volume":14598.0,"from_timestamp":"2014-09-25T05:36:00Z","id":"103432","site":"Kuopio","to_timestamp":"2014-09-29T05:22:00Z","uncertainty_Be-7-uncertainty":6.0,"uncertainty_Cs-137-uncertainty":25.0},"type":"Feature"},{"geometry":{"coordinates":[27.63414,62.89195],"type":"Point"},"properties":{"concentration_Be-7":1342.76,"concentration_air-volume":11169.0,"from_timestamp":"2014-09-29T05:23:00Z","id":"103432","site":"Kuopio","to_timestamp":"2014-10-02T05:17:00Z","uncertainty_Be-7-uncertainty":6.0},"type":"Feature"},{"geometry":{"coordinates":[27.63414,62.89195],"type":"Point"},"properties":{"concentration_Be-7":2014.58,"concentration_air-volume":15078.0,"from_timestamp":"2014-10-02T05:18:00Z","id":"103432","site":"Kuopio","to_timestamp":"2014-10-06T05:32:00Z","uncertainty_Be-7-uncertainty":6.0},"type":"Feature"},{"geometry":{"coordinates":[25.67774,66.51285],"type":"Point"},"properties":{"concentration_Be-7":1804.16,"concentration_Pb-210":120.66,"concentration_air-volume":11309.0,"from_timestamp":"2014-09-25T14:19:00Z","id":"103433","site":"Rovaniemi","to_timestamp":"2014-09-29T13:49:00Z","uncertainty_Be-7-uncertainty":5.0,"uncertainty_Pb-210-uncertainty":6.0},"type":"Feature"},{"geometry":{"coordinates":[25.67774,66.51285],"type":"Point"},"properties":{"concentration_Be-7":1772.08,"concentration_Cs-137":0.56,"concentration_Na-22":0.38,"concentration_Pb-210":226.77,"concentration_air-volume":17443.0,"from_timestamp":"2014-09-29T13:57:00Z","id":"103433","site":"Rovaniemi","to_timestamp":"2014-10-06T11:41:00Z","uncertainty_Be-7-uncertainty":5.0,"uncertainty_Cs-137-uncertainty":17.0,"uncertainty_Na-22-uncertainty":16.0,"uncertainty_Pb-210-uncertainty":5.0},"type":"Feature"},{"geometry":{"coordinates":[26.62807,67.36505],"type":"Point"},"properties":{"concentration_Be-7":927.87,"concentration_Cs-137":0.3,"concentration_Pb-210":107.95,"concentration_air-volume":25896.0,"from_timestamp":"2014-09-22T08:28:00Z","id":"103434","site":"Sodankylä","to_timestamp":"2014-09-29T08:25:00Z","uncertainty_Be-7-uncertainty":5.0,"uncertainty_Cs-137-uncertainty":22.0,"uncertainty_Pb-210-uncertainty":15.0},"type":"Feature"},{"geometry":{"coordinates":[26.62807,67.36505],"type":"Point"},"properties":{"concentration_Be-7":1240.61,"concentration_Cs-137":0.32,"concentration_Pb-210":151.63,"concentration_air-volume":26233.0,"from_timestamp":"2014-09-29T08:27:00Z","id":"103434","site":"Sodankylä","to_timestamp":"2014-10-06T08:40:00Z","uncertainty_Be-7-uncertainty":5.0,"uncertainty_Cs-137-uncertainty":28.0,"uncertainty_Pb-210-uncertainty":13.0},"type":"Feature"},{"geometry":{"coordinates":[27.70835,64.08474],"type":"Point"},"properties":{"concentration_Be-7":1226.88,"concentration_Cs-137":0.53,"concentration_air-volume":83290.0,"from_timestamp":"2014-09-23T10:14:00Z","id":"103435","site":"Kajaani","to_timestamp":"2014-09-29T10:14:00Z","uncertainty_Be-7-uncertainty":7.0,"uncertainty_Cs-137-uncertainty":10.0},"type":"Feature"},{"geometry":{"coordinates":[27.70835,64.08474],"type":"Point"},"properties":{"concentration_Be-7":1351.87,"concentration_Cs-137":0.43,"concentration_Na-22":0.16,"concentration_Pb-210":194.58,"concentration_air-volume":110719.0,"from_timestamp":"2014-09-29T10:16:00Z","id":"103435","site":"Kajaani","to_timestamp":"2014-10-07T07:01:00Z","uncertainty_Be-7-uncertainty":6.0,"uncertainty_Cs-137-uncertainty":8.0,"uncertainty_Na-22-uncertainty":20.0,"uncertainty_Pb-210-uncertainty":20.0},"type":"Feature"}],"name":"stuk_open_data_air_radionuclides","type":"FeatureCollection"}