{"crs":{"properties":{"name":"urn:ogc:def:crs:OGC:1.3:CRS84"},"type":"name"},"features":[{"geometry":{"coordinates":[25.05385,60.20905],"type":"Point"},"properties":{"concentration_Be-7":2783.44,"concentration_Pb-210":223.21,"concentration_air-volume":11173.0,"from_timestamp":"2015-07-09T12:29:00Z","id":"103428","site":"Helsinki","to_timestamp":"2015-07-13T08:46:00Z","uncertainty_Be-7-uncertainty":5.0,"uncertainty_Pb-210-uncertainty":5.0},"type":"Feature"},{"geometry":{"coordinates":[25.05385,60.20905],"type":"Point"},"properties":{"concentration_Be-7":3446.85,"concentration_Pb-210":240.83,"concentration_air-volume":12994.0,"from_timestamp":"2015-07-13T08:01:00Z","id":"103428","site":"Helsinki","to_timestamp":"2015-07-14T07:56:00Z","uncertainty_Be-7-uncertainty":5.0,"uncertainty_Pb-210-uncertainty":17.0},"type":"Feature"},{"geometry":{"coordinates":[25.05385,60.20905],"type":"Point"},"properties":{"concentration_Be-7":4147.69,"concentration_Pb-210":312.02,"concentration_air-volume":12984.0,"from_timestamp":"2015-07-14T08:01:00Z","id":"103428","site":"Helsinki","to_timestamp":"2015-07-15T07:56:00Z","uncertainty_Be-7-uncertainty":5.0,"uncertainty_Pb-210-uncertainty":13.0},"type":"Feature"},{"geometry":{"coordinates":[25.05385,60.20905],"type":"Point"},"properties":{"concentration_Be-7":4665.52,"concentration_Pb-210":287.21,"concentration_air-volume":12927.0,"from_timestamp":"2015-07-15T08:01:00Z","id":"103428","site":"Helsinki","to_timestamp":"2015-07-16T07:56:00Z","uncertainty_Be-7-uncertainty":5.0,"uncertainty_Pb-210-uncertainty":14.0},"type":"Feature"},{"geometry":{"coordinates":[25.05385,60.20905],"type":"Point"},"properties":{"concentration_Be-7":3044.74,"concentration_Pb-210":284.36,"concentration_air-volume":12889.0,"from_timestamp":"2015-07-16T08:01:00Z","id":"103428","site":"Helsinki","to_timestamp":"2015-07-17T07:56:00Z","uncertainty_Be-7-uncertainty":5.0,"uncertainty_Pb-210-uncertainty":12.0},"type":"Feature"},{"geometry":{"coordinates":[25.05385,60.20905],"type":"Point"},"properties":{"concentration_Be-7":3333.72,"concentration_Pb-210":234.53,"concentration_air-volume":12993.0,"from_timestamp":"2015-07-17T08:01:00Z","id":"103428","site":"Helsinki","to_timestamp":"2015-07-18T07:56:00Z","uncertainty_Be-7-uncertainty":5.0,"uncertainty_Pb-210-uncertainty":15.0},"type":"Feature"},{"geometry":{"coordinates":[26.91808,60.48318],"type":"Point"},"properties":{"concentration_Be-7":1881.46,"concentration_Cs-137":1.04,"concentration_Na-22":0.26,"concentration_Pb-210":18.57,"concentration_air-volume":89380.0,"from_timestamp":"2015-07-06T08:30:00Z","id":"103429","site":"Kotka","to_timestamp":"2015-07-13T06:50:00Z","uncertainty_Be-7-uncertainty":5.0,"uncertainty_Cs-137-uncertainty":7.0,"uncertainty_Na-22-uncertainty":19.0,"uncertainty_Pb-210-uncertainty":22.0},"type":"Feature"},{"geometry":{"coordinates":[26.91808,60.48318],"type":"Point"},"properties":{"concentration_Be-7":1994.27,"concentration_Cs-137":0.75,"concentration_Na-22":0.28,"concentration_Pb-210":195.04,"concentration_air-volume":208939.0,"from_timestamp":"2015-07-13T06:50:00Z","id":"103429","site":"Kotka","to_timestamp":"2015-07-28T05:10:00Z","uncertainty_Be-7-uncertainty":5.0,"uncertainty_Cs-137-uncertainty":6.0,"uncertainty_Na-22-uncertainty":10.0,"uncertainty_Pb-210-uncertainty":5.0},"type":"Feature"},{"geometry":{"coordinates":[28.82663,61.13229],"type":"Point"},"properties":{"concentration_Be-7":1848.24,"concentration_Cs-137":1.68,"concentration_air-volume":17891.0,"from_timestamp":"2015-07-09T06:15:00Z","id":"103430","site":"Imatra","to_timestamp":"2015-07-13T08:00:00Z","uncertainty_Be-7-uncertainty":10.0,"uncertainty_Cs-137-uncertainty":14.0},"type":"Feature"},{"geometry":{"coordinates":[28.82663,61.13229],"type":"Point"},"properties":{"concentration_Be-7":2520.22,"concentration_Cs-137":1.14,"concentration_Pb-210":247.09,"concentration_air-volume":21476.0,"from_timestamp":"2015-07-13T08:10:00Z","id":"103430","site":"Imatra","to_timestamp":"2015-07-20T05:15:00Z","uncertainty_Be-7-uncertainty":5.0,"uncertainty_Cs-137-uncertainty":12.0,"uncertainty_Pb-210-uncertainty":5.0},"type":"Feature"},{"geometry":{"coordinates":[27.57,68.64],"type":"Point"},"properties":{"concentration_Be-7":1525.49,"concentration_air-volume":14794.0,"from_timestamp":"2015-07-09T05:11:00Z","id":"103431","site":"Ivalo","to_timestamp":"2015-07-13T06:29:00Z","uncertainty_Be-7-uncertainty":10.0},"type":"Feature"},{"geometry":{"coordinates":[27.57,68.64],"type":"Point"},"properties":{"concentration_Be-7":1159.6,"concentration_Na-22":0.3,"concentration_Pb-210":92.6,"concentration_air-volume":50890.0,"from_timestamp":"2015-07-13T06:30:00Z","id":"103431","site":"Ivalo","to_timestamp":"2015-07-20T05:18:00Z","uncertainty_Be-7-uncertainty":5.0,"uncertainty_Na-22-uncertainty":29.0,"uncertainty_Pb-210-uncertainty":5.0},"type":"Feature"},{"geometry":{"coordinates":[27.63414,62.89195],"type":"Point"},"properties":{"concentration_Be-7":2085.09,"concentration_air-volume":14143.0,"from_timestamp":"2015-07-09T07:17:00Z","id":"103432","site":"Kuopio","to_timestamp":"2015-07-13T06:54:00Z","uncertainty_Be-7-uncertainty":6.0},"type":"Feature"},{"geometry":{"coordinates":[27.63414,62.89195],"type":"Point"},"properties":{"concentration_Be-7":2797.27,"concentration_air-volume":10690.0,"from_timestamp":"2015-07-13T06:56:00Z","id":"103432","site":"Kuopio","to_timestamp":"2015-07-16T07:03:00Z","uncertainty_Be-7-uncertainty":6.0},"type":"Feature"},{"geometry":{"coordinates":[27.63414,62.89195],"type":"Point"},"properties":{"concentration_Be-7":3401.37,"concentration_air-volume":14235.0,"from_timestamp":"2015-07-16T07:05:00Z","id":"103432","site":"Kuopio","to_timestamp":"2015-07-20T07:12:00Z","uncertainty_Be-7-uncertainty":6.0},"type":"Feature"},{"geometry":{"coordinates":[25.67774,66.51285],"type":"Point"},"properties":{"concentration_Be-7":2793.93,"concentration_Cs-137":0.29,"concentration_Na-22":0.43,"concentration_air-volume":88942.0,"from_timestamp":"2015-07-06T08:48:00Z","id":"103433","site":"Rovaniemi","to_timestamp":"2015-07-10T11:50:00Z","uncertainty_Be-7-uncertainty":7.0,"uncertainty_Cs-137-uncertainty":16.0,"uncertainty_Na-22-uncertainty":9.0},"type":"Feature"},{"geometry":{"coordinates":[25.67774,66.51285],"type":"Point"},"properties":{"concentration_Be-7":1548.86,"concentration_Cs-137":0.2,"concentration_Na-22":0.24,"concentration_Pb-210":21.71,"concentration_air-volume":349038.0,"from_timestamp":"2015-07-10T11:54:00Z","id":"103433","site":"Rovaniemi","to_timestamp":"2015-08-03T09:04:00Z","uncertainty_Be-7-uncertainty":5.0,"uncertainty_Cs-137-uncertainty":7.0,"uncertainty_Na-22-uncertainty":8.0,"uncertainty_Pb-210-uncertainty":8.0},"type":"Feature"},{"geometry":{"coordinates":[26.62807,67.36505],"type":"Point"},"properties":{"concentration_Be-7":2112.54,"concentration_Cs-137":0.42,"concentration_air-volume":14739.0,"from_timestamp":"2015-07-09T06:59:00Z","id":"103434","site":"Sodankylä","to_timestamp":"2015-07-13T06:40:00Z","uncertainty_Be-7-uncertainty":6.0,"uncertainty_Cs-137-uncertainty":29.0},"type":"Feature"},{"geometry":{"coordinates":[26.62807,67.36505],"type":"Point"},"properties":{"concentration_Be-7":1651.36,"concentration_Pb-210":107.96,"concentration_air-volume":36442.0,"from_timestamp":"2015-07-13T06:42:00Z","id":"103434","site":"Sodankylä","to_timestamp":"2015-07-20T06:33:00Z","uncertainty_Be-7-uncertainty":6.0,"uncertainty_Pb-210-uncertainty":20.0},"type":"Feature"},{"geometry":{"coordinates":[27.70835,64.08474],"type":"Point"},"properties":{"concentration_Be-7":1875.59,"concentration_Cs-137":0.27,"concentration_Na-22":0.35,"concentration_Pb-210":128.53,"concentration_air-volume":97946.0,"from_timestamp":"2015-07-06T04:37:00Z","id":"103435","site":"Kajaani","to_timestamp":"2015-07-13T08:27:00Z","uncertainty_Be-7-uncertainty":5.0,"uncertainty_Cs-137-uncertainty":13.0,"uncertainty_Na-22-uncertainty":14.0,"uncertainty_Pb-210-uncertainty":5.0},"type":"Feature"},{"geometry":{"coordinates":[27.70835,64.08474],"type":"Point"},"properties":{"concentration_Be-7":2178.07,"concentration_Cs-137":0.46,"concentration_Na-22":0.33,"concentration_Pb-210":195.27,"concentration_air-volume":187965.0,"from_timestamp":"2015-07-13T08:31:00Z","id":"103435","site":"Kajaani","to_timestamp":"2015-07-27T05:26:00Z","uncertainty_Be-7-uncertainty":5.0,"uncertainty_Cs-137-uncertainty":7.0,"uncertainty_Na-22-uncertainty":12.0,"uncertainty_Pb-210-uncertainty":5.0},"type":"Feature"}],"name":"stuk_open_data_air_radionuclides","type":"FeatureCollection"}