{"crs":{"properties":{"name":"urn:ogc:def:crs:OGC:1.3:CRS84"},"type":"name"},"features":[{"geometry":{"coordinates":[25.05385,60.20905],"type":"Point"},"properties":{"concentration_Be-7":1027.96,"concentration_Pb-210":60.26,"concentration_air-volume":16251.0,"from_timestamp":"2015-02-07T07:03:00Z","id":"103428","site":"Helsinki","to_timestamp":"2015-02-08T07:02:00Z","uncertainty_Be-7-uncertainty":5.0,"uncertainty_Pb-210-uncertainty":22.0},"type":"Feature"},{"geometry":{"coordinates":[25.05385,60.20905],"type":"Point"},"properties":{"concentration_Be-7":943.22,"concentration_air-volume":16511.0,"from_timestamp":"2015-02-08T07:03:00Z","id":"103428","site":"Helsinki","to_timestamp":"2015-02-09T07:02:00Z","uncertainty_Be-7-uncertainty":5.0},"type":"Feature"},{"geometry":{"coordinates":[25.05385,60.20905],"type":"Point"},"properties":{"concentration_Be-7":640.52,"concentration_air-volume":16189.0,"from_timestamp":"2015-02-09T07:03:00Z","id":"103428","site":"Helsinki","to_timestamp":"2015-02-10T07:02:00Z","uncertainty_Be-7-uncertainty":5.0},"type":"Feature"},{"geometry":{"coordinates":[25.05385,60.20905],"type":"Point"},"properties":{"concentration_Be-7":439.67,"concentration_air-volume":16273.0,"from_timestamp":"2015-02-10T07:03:00Z","id":"103428","site":"Helsinki","to_timestamp":"2015-02-11T07:02:00Z","uncertainty_Be-7-uncertainty":5.0},"type":"Feature"},{"geometry":{"coordinates":[25.05385,60.20905],"type":"Point"},"properties":{"concentration_Be-7":793.09,"concentration_Pb-210":131.41,"concentration_air-volume":16068.0,"from_timestamp":"2015-02-11T07:03:00Z","id":"103428","site":"Helsinki","to_timestamp":"2015-02-12T07:02:00Z","uncertainty_Be-7-uncertainty":5.0,"uncertainty_Pb-210-uncertainty":12.0},"type":"Feature"},{"geometry":{"coordinates":[25.05385,60.20905],"type":"Point"},"properties":{"concentration_Be-7":1785.98,"concentration_Pb-210":162.93,"concentration_air-volume":16279.0,"from_timestamp":"2015-02-12T07:03:00Z","id":"103428","site":"Helsinki","to_timestamp":"2015-02-13T07:02:00Z","uncertainty_Be-7-uncertainty":5.0,"uncertainty_Pb-210-uncertainty":13.0},"type":"Feature"},{"geometry":{"coordinates":[25.05385,60.20905],"type":"Point"},"properties":{"concentration_Be-7":1452.83,"concentration_Pb-210":124.96,"concentration_air-volume":16179.0,"from_timestamp":"2015-02-13T07:03:00Z","id":"103428","site":"Helsinki","to_timestamp":"2015-02-14T07:02:00Z","uncertainty_Be-7-uncertainty":5.0,"uncertainty_Pb-210-uncertainty":13.0},"type":"Feature"},{"geometry":{"coordinates":[25.05385,60.20905],"type":"Point"},"properties":{"concentration_Be-7":778.84,"concentration_Pb-210":85.35,"concentration_air-volume":16638.0,"from_timestamp":"2015-02-14T07:03:00Z","id":"103428","site":"Helsinki","to_timestamp":"2015-02-15T07:02:00Z","uncertainty_Be-7-uncertainty":5.0,"uncertainty_Pb-210-uncertainty":16.0},"type":"Feature"},{"geometry":{"coordinates":[25.05385,60.20905],"type":"Point"},"properties":{"concentration_Be-7":877.07,"concentration_Pb-210":96.02,"concentration_air-volume":16838.0,"from_timestamp":"2015-02-15T07:03:00Z","id":"103428","site":"Helsinki","to_timestamp":"2015-02-16T07:02:00Z","uncertainty_Be-7-uncertainty":5.0,"uncertainty_Pb-210-uncertainty":15.0},"type":"Feature"},{"geometry":{"coordinates":[26.91808,60.48318],"type":"Point"},"properties":{"concentration_Be-7":615.96,"concentration_Cs-137":1.07,"concentration_Na-22":0.08,"concentration_Pb-210":23.49,"concentration_air-volume":155352.0,"from_timestamp":"2015-02-02T06:50:00Z","id":"103429","site":"Kotka","to_timestamp":"2015-02-10T05:00:00Z","uncertainty_Be-7-uncertainty":5.0,"uncertainty_Cs-137-uncertainty":6.0,"uncertainty_Na-22-uncertainty":27.0,"uncertainty_Pb-210-uncertainty":10.0},"type":"Feature"},{"geometry":{"coordinates":[28.82663,61.13229],"type":"Point"},"properties":{"concentration_Be-7":1203.14,"concentration_Cs-137":0.44,"concentration_Pb-210":207.47,"concentration_air-volume":27292.0,"from_timestamp":"2015-02-02T07:05:00Z","id":"103430","site":"Imatra","to_timestamp":"2015-02-09T08:00:00Z","uncertainty_Be-7-uncertainty":5.0,"uncertainty_Cs-137-uncertainty":25.0,"uncertainty_Pb-210-uncertainty":5.0},"type":"Feature"},{"geometry":{"coordinates":[28.82663,61.13229],"type":"Point"},"properties":{"concentration_Be-7":1091.33,"concentration_Cs-137":0.65,"concentration_Pb-210":166.65,"concentration_air-volume":27087.0,"from_timestamp":"2015-02-09T08:00:00Z","id":"103430","site":"Imatra","to_timestamp":"2015-02-16T06:45:00Z","uncertainty_Be-7-uncertainty":5.0,"uncertainty_Cs-137-uncertainty":18.0,"uncertainty_Pb-210-uncertainty":5.0},"type":"Feature"},{"geometry":{"coordinates":[27.57,68.64],"type":"Point"},"properties":{"concentration_Be-7":1856.18,"concentration_Pb-210":539.53,"concentration_air-volume":27236.0,"from_timestamp":"2015-02-02T10:30:00Z","id":"103431","site":"Ivalo","to_timestamp":"2015-02-09T07:30:00Z","uncertainty_Be-7-uncertainty":5.0,"uncertainty_Pb-210-uncertainty":5.0},"type":"Feature"},{"geometry":{"coordinates":[27.57,68.64],"type":"Point"},"properties":{"concentration_Be-7":1491.84,"concentration_air-volume":27404.0,"from_timestamp":"2015-02-09T07:32:00Z","id":"103431","site":"Ivalo","to_timestamp":"2015-02-16T07:22:00Z","uncertainty_Be-7-uncertainty":5.0},"type":"Feature"},{"geometry":{"coordinates":[27.63414,62.89195],"type":"Point"},"properties":{"concentration_Be-7":1207.69,"concentration_air-volume":15690.0,"from_timestamp":"2015-02-05T05:24:00Z","id":"103432","site":"Kuopio","to_timestamp":"2015-02-09T06:34:00Z","uncertainty_Be-7-uncertainty":6.0},"type":"Feature"},{"geometry":{"coordinates":[27.63414,62.89195],"type":"Point"},"properties":{"concentration_Be-7":933.0,"concentration_air-volume":11127.0,"from_timestamp":"2015-02-09T06:36:00Z","id":"103432","site":"Kuopio","to_timestamp":"2015-02-12T05:37:00Z","uncertainty_Be-7-uncertainty":6.0},"type":"Feature"},{"geometry":{"coordinates":[27.63414,62.89195],"type":"Point"},"properties":{"concentration_Be-7":1292.77,"concentration_air-volume":15711.0,"from_timestamp":"2015-02-12T05:38:00Z","id":"103432","site":"Kuopio","to_timestamp":"2015-02-16T05:27:00Z","uncertainty_Be-7-uncertainty":6.0},"type":"Feature"},{"geometry":{"coordinates":[25.67774,66.51285],"type":"Point"},"properties":{"concentration_Be-7":1232.07,"concentration_Cs-137":0.15,"concentration_Na-22":0.14,"concentration_Pb-210":345.47,"concentration_air-volume":156852.0,"from_timestamp":"2015-02-02T11:52:00Z","id":"103433","site":"Rovaniemi","to_timestamp":"2015-02-09T12:41:00Z","uncertainty_Be-7-uncertainty":5.0,"uncertainty_Cs-137-uncertainty":8.0,"uncertainty_Na-22-uncertainty":15.0,"uncertainty_Pb-210-uncertainty":5.0},"type":"Feature"},{"geometry":{"coordinates":[25.67774,66.51285],"type":"Point"},"properties":{"concentration_Be-7":1042.34,"concentration_Cs-137":0.32,"concentration_Na-22":0.12,"concentration_Pb-210":101.19,"concentration_air-volume":153378.0,"from_timestamp":"2015-02-09T12:44:00Z","id":"103433","site":"Rovaniemi","to_timestamp":"2015-02-16T11:44:00Z","uncertainty_Be-7-uncertainty":5.0,"uncertainty_Cs-137-uncertainty":8.0,"uncertainty_Na-22-uncertainty":21.0,"uncertainty_Pb-210-uncertainty":5.0},"type":"Feature"},{"geometry":{"coordinates":[26.62807,67.36505],"type":"Point"},"properties":{"concentration_Be-7":1889.37,"concentration_Cs-137":0.34,"concentration_Na-22":0.4,"concentration_Pb-210":482.3,"concentration_air-volume":27167.0,"from_timestamp":"2015-02-02T08:17:00Z","id":"103434","site":"Sodankylä","to_timestamp":"2015-02-09T08:10:00Z","uncertainty_Be-7-uncertainty":4.0,"uncertainty_Cs-137-uncertainty":13.0,"uncertainty_Na-22-uncertainty":16.0,"uncertainty_Pb-210-uncertainty":7.0},"type":"Feature"},{"geometry":{"coordinates":[26.62807,67.36505],"type":"Point"},"properties":{"concentration_Be-7":1425.63,"concentration_Pb-210":126.84,"concentration_air-volume":27036.0,"from_timestamp":"2015-02-09T08:13:00Z","id":"103434","site":"Sodankylä","to_timestamp":"2015-02-16T08:10:00Z","uncertainty_Be-7-uncertainty":5.0,"uncertainty_Pb-210-uncertainty":13.0},"type":"Feature"},{"geometry":{"coordinates":[27.70835,64.08474],"type":"Point"},"properties":{"concentration_Be-7":1001.2,"concentration_Cs-137":0.21,"concentration_Pb-210":408.23,"concentration_air-volume":116513.0,"from_timestamp":"2015-02-02T06:23:00Z","id":"103435","site":"Kajaani","to_timestamp":"2015-02-10T12:12:00Z","uncertainty_Be-7-uncertainty":5.0,"uncertainty_Cs-137-uncertainty":12.0,"uncertainty_Pb-210-uncertainty":5.0},"type":"Feature"},{"geometry":{"coordinates":[27.70835,64.08474],"type":"Point"},"properties":{"concentration_Be-7":981.29,"concentration_Cs-137":0.52,"concentration_Pb-210":30.12,"concentration_air-volume":83622.0,"from_timestamp":"2015-02-10T12:15:00Z","id":"103435","site":"Kajaani","to_timestamp":"2015-02-16T08:20:00Z","uncertainty_Be-7-uncertainty":5.0,"uncertainty_Cs-137-uncertainty":8.0,"uncertainty_Pb-210-uncertainty":13.0},"type":"Feature"}],"name":"stuk_open_data_air_radionuclides","type":"FeatureCollection"}