{"crs":{"properties":{"name":"urn:ogc:def:crs:OGC:1.3:CRS84"},"type":"name"},"features":[{"geometry":{"coordinates":[25.05385,60.20905],"type":"Point"},"properties":{"concentration_Be-7":2990.46,"concentration_Pb-210":1013.93,"concentration_air-volume":13100.0,"from_timestamp":"2015-09-16T08:01:00Z","id":"103428","site":"Helsinki","to_timestamp":"2015-09-17T07:53:00Z","uncertainty_Be-7-uncertainty":5.0,"uncertainty_Pb-210-uncertainty":8.0},"type":"Feature"},{"geometry":{"coordinates":[25.05385,60.20905],"type":"Point"},"properties":{"concentration_Be-7":3534.74,"concentration_Pb-210":1526.04,"concentration_air-volume":12548.0,"from_timestamp":"2015-09-17T08:01:00Z","id":"103428","site":"Helsinki","to_timestamp":"2015-09-18T07:53:00Z","uncertainty_Be-7-uncertainty":5.0,"uncertainty_Pb-210-uncertainty":7.0},"type":"Feature"},{"geometry":{"coordinates":[25.05385,60.20905],"type":"Point"},"properties":{"concentration_Be-7":2701.0,"concentration_Pb-210":240.13,"concentration_air-volume":12952.0,"from_timestamp":"2015-09-18T08:01:00Z","id":"103428","site":"Helsinki","to_timestamp":"2015-09-19T07:53:00Z","uncertainty_Be-7-uncertainty":5.0,"uncertainty_Pb-210-uncertainty":13.0},"type":"Feature"},{"geometry":{"coordinates":[25.05385,60.20905],"type":"Point"},"properties":{"concentration_Be-7":1429.85,"concentration_Pb-210":312.84,"concentration_air-volume":13103.0,"from_timestamp":"2015-09-19T08:01:00Z","id":"103428","site":"Helsinki","to_timestamp":"2015-09-20T07:53:00Z","uncertainty_Be-7-uncertainty":5.0,"uncertainty_Pb-210-uncertainty":12.0},"type":"Feature"},{"geometry":{"coordinates":[25.05385,60.20905],"type":"Point"},"properties":{"concentration_Be-7":2352.84,"concentration_Pb-210":352.14,"concentration_air-volume":13503.0,"from_timestamp":"2015-09-11T08:01:00Z","id":"103428","site":"Helsinki","to_timestamp":"2015-09-12T07:53:00Z","uncertainty_Be-7-uncertainty":5.0,"uncertainty_Pb-210-uncertainty":12.0},"type":"Feature"},{"geometry":{"coordinates":[25.05385,60.20905],"type":"Point"},"properties":{"concentration_Be-7":2982.37,"concentration_Pb-210":354.59,"concentration_air-volume":13456.0,"from_timestamp":"2015-09-12T08:01:00Z","id":"103428","site":"Helsinki","to_timestamp":"2015-09-13T07:53:00Z","uncertainty_Be-7-uncertainty":5.0,"uncertainty_Pb-210-uncertainty":12.0},"type":"Feature"},{"geometry":{"coordinates":[25.05385,60.20905],"type":"Point"},"properties":{"concentration_Be-7":3550.38,"concentration_Pb-210":318.05,"concentration_air-volume":13297.0,"from_timestamp":"2015-09-13T08:01:00Z","id":"103428","site":"Helsinki","to_timestamp":"2015-09-14T07:53:00Z","uncertainty_Be-7-uncertainty":5.0,"uncertainty_Pb-210-uncertainty":14.0},"type":"Feature"},{"geometry":{"coordinates":[25.05385,60.20905],"type":"Point"},"properties":{"concentration_Be-7":3729.7,"concentration_Pb-210":775.05,"concentration_air-volume":12979.0,"from_timestamp":"2015-09-15T08:01:00Z","id":"103428","site":"Helsinki","to_timestamp":"2015-09-16T07:53:00Z","uncertainty_Be-7-uncertainty":5.0,"uncertainty_Pb-210-uncertainty":8.0},"type":"Feature"},{"geometry":{"coordinates":[26.91808,60.48318],"type":"Point"},"properties":{"concentration_Be-7":1482.53,"concentration_Cs-137":1.9,"concentration_Na-22":0.12,"concentration_air-volume":202000.0,"from_timestamp":"2015-08-31T12:00:00Z","id":"103429","site":"Kotka","to_timestamp":"2015-09-14T06:30:00Z","uncertainty_Be-7-uncertainty":7.0,"uncertainty_Cs-137-uncertainty":7.0,"uncertainty_Na-22-uncertainty":19.0},"type":"Feature"},{"geometry":{"coordinates":[26.91808,60.48318],"type":"Point"},"properties":{"concentration_Be-7":1943.74,"concentration_Cs-137":1.82,"concentration_Na-22":0.25,"concentration_Pb-210":519.24,"concentration_air-volume":110971.0,"from_timestamp":"2015-09-14T06:21:00Z","id":"103429","site":"Kotka","to_timestamp":"2015-09-22T05:30:00Z","uncertainty_Be-7-uncertainty":5.0,"uncertainty_Cs-137-uncertainty":6.0,"uncertainty_Na-22-uncertainty":18.0,"uncertainty_Pb-210-uncertainty":5.0},"type":"Feature"},{"geometry":{"coordinates":[28.82663,61.13229],"type":"Point"},"properties":{"concentration_Be-7":2289.89,"concentration_Cs-137":0.61,"concentration_Pb-210":650.84,"concentration_air-volume":25162.0,"from_timestamp":"2015-09-14T06:35:00Z","id":"103430","site":"Imatra","to_timestamp":"2015-09-21T06:10:00Z","uncertainty_Be-7-uncertainty":5.0,"uncertainty_Cs-137-uncertainty":20.0,"uncertainty_Pb-210-uncertainty":5.0},"type":"Feature"},{"geometry":{"coordinates":[28.82663,61.13229],"type":"Point"},"properties":{"concentration_Be-7":1784.14,"concentration_Cs-137":1.29,"concentration_Pb-210":299.99,"concentration_air-volume":23402.0,"from_timestamp":"2015-09-08T06:05:00Z","id":"103430","site":"Imatra","to_timestamp":"2015-09-14T06:30:00Z","uncertainty_Be-7-uncertainty":5.0,"uncertainty_Cs-137-uncertainty":13.0,"uncertainty_Pb-210-uncertainty":5.0},"type":"Feature"},{"geometry":{"coordinates":[27.57,68.64],"type":"Point"},"properties":{"concentration_Be-7":2918.38,"concentration_Cs-137":0.66,"concentration_Pb-210":70.45,"concentration_air-volume":25610.0,"from_timestamp":"2015-09-07T08:23:00Z","id":"103431","site":"Ivalo","to_timestamp":"2015-09-14T05:05:00Z","uncertainty_Be-7-uncertainty":6.0,"uncertainty_Cs-137-uncertainty":19.0,"uncertainty_Pb-210-uncertainty":25.0},"type":"Feature"},{"geometry":{"coordinates":[27.57,68.64],"type":"Point"},"properties":{"concentration_Be-7":2209.11,"concentration_Pb-210":426.21,"concentration_air-volume":25869.0,"from_timestamp":"2015-09-14T05:07:00Z","id":"103431","site":"Ivalo","to_timestamp":"2015-09-21T05:57:00Z","uncertainty_Be-7-uncertainty":6.0,"uncertainty_Pb-210-uncertainty":20.0},"type":"Feature"},{"geometry":{"coordinates":[27.63414,62.89195],"type":"Point"},"properties":{"concentration_Be-7":3402.6,"concentration_air-volume":10569.0,"from_timestamp":"2015-09-14T06:27:00Z","id":"103432","site":"Kuopio","to_timestamp":"2015-09-17T04:41:00Z","uncertainty_Be-7-uncertainty":6.0},"type":"Feature"},{"geometry":{"coordinates":[27.63414,62.89195],"type":"Point"},"properties":{"concentration_Be-7":1929.3,"concentration_Cs-137":1.37,"concentration_air-volume":14435.0,"from_timestamp":"2015-09-17T04:42:00Z","id":"103432","site":"Kuopio","to_timestamp":"2015-09-21T05:22:00Z","uncertainty_Be-7-uncertainty":6.0,"uncertainty_Cs-137-uncertainty":27.0},"type":"Feature"},{"geometry":{"coordinates":[27.63414,62.89195],"type":"Point"},"properties":{"concentration_Be-7":3081.36,"concentration_air-volume":14736.0,"from_timestamp":"2015-09-10T05:36:00Z","id":"103432","site":"Kuopio","to_timestamp":"2015-09-14T06:26:00Z","uncertainty_Be-7-uncertainty":6.0},"type":"Feature"},{"geometry":{"coordinates":[25.67774,66.51285],"type":"Point"},"properties":{"concentration_Be-7":2028.86,"concentration_Cs-137":0.41,"concentration_Na-22":0.19,"concentration_Pb-210":282.16,"concentration_air-volume":150286.0,"from_timestamp":"2015-09-07T10:37:00Z","id":"103433","site":"Rovaniemi","to_timestamp":"2015-09-14T11:44:00Z","uncertainty_Be-7-uncertainty":5.0,"uncertainty_Cs-137-uncertainty":8.0,"uncertainty_Na-22-uncertainty":14.0,"uncertainty_Pb-210-uncertainty":5.0},"type":"Feature"},{"geometry":{"coordinates":[25.67774,66.51285],"type":"Point"},"properties":{"concentration_Be-7":1520.02,"concentration_Cs-137":0.33,"concentration_Na-22":0.13,"concentration_Pb-210":315.97,"concentration_air-volume":146522.0,"from_timestamp":"2015-09-14T11:47:00Z","id":"103433","site":"Rovaniemi","to_timestamp":"2015-09-21T10:23:00Z","uncertainty_Be-7-uncertainty":5.0,"uncertainty_Cs-137-uncertainty":9.0,"uncertainty_Na-22-uncertainty":14.0,"uncertainty_Pb-210-uncertainty":5.0},"type":"Feature"},{"geometry":{"coordinates":[26.62807,67.36505],"type":"Point"},"properties":{"concentration_Be-7":3355.15,"concentration_air-volume":14658.0,"from_timestamp":"2015-09-10T06:59:00Z","id":"103434","site":"Sodankylä","to_timestamp":"2015-09-14T06:49:00Z","uncertainty_Be-7-uncertainty":10.0},"type":"Feature"},{"geometry":{"coordinates":[26.62807,67.36505],"type":"Point"},"properties":{"concentration_Be-7":2034.11,"concentration_Cs-137":0.83,"concentration_air-volume":25436.0,"from_timestamp":"2015-09-14T06:50:00Z","id":"103434","site":"Sodankylä","to_timestamp":"2015-09-21T06:55:00Z","uncertainty_Be-7-uncertainty":6.0,"uncertainty_Cs-137-uncertainty":18.0},"type":"Feature"},{"geometry":{"coordinates":[27.70835,64.08474],"type":"Point"},"properties":{"concentration_Be-7":2148.7,"concentration_Cs-137":0.96,"concentration_Na-22":0.15,"concentration_Pb-210":389.17,"concentration_air-volume":190184.0,"from_timestamp":"2015-09-07T08:15:00Z","id":"103435","site":"Kajaani","to_timestamp":"2015-09-21T08:07:00Z","uncertainty_Be-7-uncertainty":5.0,"uncertainty_Cs-137-uncertainty":6.0,"uncertainty_Na-22-uncertainty":15.0,"uncertainty_Pb-210-uncertainty":5.0},"type":"Feature"},{"geometry":{"coordinates":[25.05385,60.20905],"type":"Point"},"properties":{"concentration_Be-7":2990.46,"concentration_Pb-210":1013.93,"concentration_air-volume":13100.0,"from_timestamp":"2015-09-16T08:01:00Z","id":"103428","site":"Helsinki","to_timestamp":"2015-09-17T07:53:00Z","uncertainty_Be-7-uncertainty":5.0,"uncertainty_Pb-210-uncertainty":8.0},"type":"Feature"},{"geometry":{"coordinates":[25.05385,60.20905],"type":"Point"},"properties":{"concentration_Be-7":3534.74,"concentration_Pb-210":1526.04,"concentration_air-volume":12548.0,"from_timestamp":"2015-09-17T08:01:00Z","id":"103428","site":"Helsinki","to_timestamp":"2015-09-18T07:53:00Z","uncertainty_Be-7-uncertainty":5.0,"uncertainty_Pb-210-uncertainty":7.0},"type":"Feature"},{"geometry":{"coordinates":[25.05385,60.20905],"type":"Point"},"properties":{"concentration_Be-7":2701.0,"concentration_Pb-210":240.13,"concentration_air-volume":12952.0,"from_timestamp":"2015-09-18T08:01:00Z","id":"103428","site":"Helsinki","to_timestamp":"2015-09-19T07:53:00Z","uncertainty_Be-7-uncertainty":5.0,"uncertainty_Pb-210-uncertainty":13.0},"type":"Feature"},{"geometry":{"coordinates":[25.05385,60.20905],"type":"Point"},"properties":{"concentration_Be-7":1429.85,"concentration_Pb-210":312.84,"concentration_air-volume":13103.0,"from_timestamp":"2015-09-19T08:01:00Z","id":"103428","site":"Helsinki","to_timestamp":"2015-09-20T07:53:00Z","uncertainty_Be-7-uncertainty":5.0,"uncertainty_Pb-210-uncertainty":12.0},"type":"Feature"},{"geometry":{"coordinates":[25.05385,60.20905],"type":"Point"},"properties":{"concentration_Be-7":2352.84,"concentration_Pb-210":352.14,"concentration_air-volume":13503.0,"from_timestamp":"2015-09-11T08:01:00Z","id":"103428","site":"Helsinki","to_timestamp":"2015-09-12T07:53:00Z","uncertainty_Be-7-uncertainty":5.0,"uncertainty_Pb-210-uncertainty":12.0},"type":"Feature"},{"geometry":{"coordinates":[25.05385,60.20905],"type":"Point"},"properties":{"concentration_Be-7":2982.37,"concentration_Pb-210":354.59,"concentration_air-volume":13456.0,"from_timestamp":"2015-09-12T08:01:00Z","id":"103428","site":"Helsinki","to_timestamp":"2015-09-13T07:53:00Z","uncertainty_Be-7-uncertainty":5.0,"uncertainty_Pb-210-uncertainty":12.0},"type":"Feature"},{"geometry":{"coordinates":[25.05385,60.20905],"type":"Point"},"properties":{"concentration_Be-7":3550.38,"concentration_Pb-210":318.05,"concentration_air-volume":13297.0,"from_timestamp":"2015-09-13T08:01:00Z","id":"103428","site":"Helsinki","to_timestamp":"2015-09-14T07:53:00Z","uncertainty_Be-7-uncertainty":5.0,"uncertainty_Pb-210-uncertainty":14.0},"type":"Feature"},{"geometry":{"coordinates":[25.05385,60.20905],"type":"Point"},"properties":{"concentration_Be-7":3729.7,"concentration_Pb-210":775.05,"concentration_air-volume":12979.0,"from_timestamp":"2015-09-15T08:01:00Z","id":"103428","site":"Helsinki","to_timestamp":"2015-09-16T07:53:00Z","uncertainty_Be-7-uncertainty":5.0,"uncertainty_Pb-210-uncertainty":8.0},"type":"Feature"}],"name":"stuk_open_data_air_radionuclides","type":"FeatureCollection"}