{"crs":{"properties":{"name":"urn:ogc:def:crs:OGC:1.3:CRS84"},"type":"name"},"features":[{"geometry":{"coordinates":[25.05385,60.20905],"type":"Point"},"properties":{"concentration_Be-7":2767.3,"concentration_Pb-210":292.3,"concentration_air-volume":13650.0,"from_timestamp":"2015-10-29T08:01:00Z","id":"103428","site":"Helsinki","to_timestamp":"2015-10-30T07:50:00Z","uncertainty_Be-7-uncertainty":5.0,"uncertainty_Pb-210-uncertainty":14.0},"type":"Feature"},{"geometry":{"coordinates":[25.05385,60.20905],"type":"Point"},"properties":{"concentration_Be-7":2171.4,"concentration_Pb-210":473.8,"concentration_air-volume":13800.0,"from_timestamp":"2015-10-30T08:01:00Z","id":"103428","site":"Helsinki","to_timestamp":"2015-10-31T07:50:00Z","uncertainty_Be-7-uncertainty":5.0,"uncertainty_Pb-210-uncertainty":10.0},"type":"Feature"},{"geometry":{"coordinates":[25.05385,60.20905],"type":"Point"},"properties":{"concentration_Be-7":3545.5,"concentration_Pb-210":1150.6,"concentration_air-volume":13350.0,"from_timestamp":"2015-10-31T08:01:00Z","id":"103428","site":"Helsinki","to_timestamp":"2015-11-01T07:50:00Z","uncertainty_Be-7-uncertainty":5.0,"uncertainty_Pb-210-uncertainty":7.0},"type":"Feature"},{"geometry":{"coordinates":[25.05385,60.20905],"type":"Point"},"properties":{"concentration_Be-7":3366.1,"concentration_Pb-210":1544.9,"concentration_air-volume":12977.0,"from_timestamp":"2015-11-01T08:01:00Z","id":"103428","site":"Helsinki","to_timestamp":"2015-11-02T07:50:00Z","uncertainty_Be-7-uncertainty":5.0,"uncertainty_Pb-210-uncertainty":7.0},"type":"Feature"},{"geometry":{"coordinates":[25.05385,60.20905],"type":"Point"},"properties":{"concentration_Be-7":2676.2,"concentration_Pb-210":462.2,"concentration_air-volume":13361.0,"from_timestamp":"2015-11-02T08:01:00Z","id":"103428","site":"Helsinki","to_timestamp":"2015-11-03T07:50:00Z","uncertainty_Be-7-uncertainty":5.0,"uncertainty_Pb-210-uncertainty":10.0},"type":"Feature"},{"geometry":{"coordinates":[25.05385,60.20905],"type":"Point"},"properties":{"concentration_Be-7":2847.1,"concentration_Pb-210":427.2,"concentration_air-volume":13116.0,"from_timestamp":"2015-11-03T08:01:00Z","id":"103428","site":"Helsinki","to_timestamp":"2015-11-04T07:50:00Z","uncertainty_Be-7-uncertainty":5.0,"uncertainty_Pb-210-uncertainty":10.0},"type":"Feature"},{"geometry":{"coordinates":[25.05385,60.20905],"type":"Point"},"properties":{"concentration_Be-7":1731.4,"concentration_Pb-210":374.9,"concentration_air-volume":13472.0,"from_timestamp":"2015-11-04T08:01:00Z","id":"103428","site":"Helsinki","to_timestamp":"2015-11-05T07:50:00Z","uncertainty_Be-7-uncertainty":5.0,"uncertainty_Pb-210-uncertainty":11.0},"type":"Feature"},{"geometry":{"coordinates":[25.05385,60.20905],"type":"Point"},"properties":{"concentration_Be-7":653.0,"concentration_Pb-210":263.9,"concentration_air-volume":12733.0,"from_timestamp":"2015-11-05T08:01:00Z","id":"103428","site":"Helsinki","to_timestamp":"2015-11-06T07:50:00Z","uncertainty_Be-7-uncertainty":5.0,"uncertainty_Pb-210-uncertainty":18.0},"type":"Feature"},{"geometry":{"coordinates":[25.05385,60.20905],"type":"Point"},"properties":{"concentration_Be-7":2071.5,"concentration_Pb-210":478.9,"concentration_air-volume":13443.0,"from_timestamp":"2015-11-06T08:01:00Z","id":"103428","site":"Helsinki","to_timestamp":"2015-11-07T07:50:00Z","uncertainty_Be-7-uncertainty":5.0,"uncertainty_Pb-210-uncertainty":9.0},"type":"Feature"},{"geometry":{"coordinates":[26.91808,60.48318],"type":"Point"},"properties":{"concentration_Be-7":1546.8,"concentration_Cs-137":1.4,"concentration_Na-22":0.2,"concentration_air-volume":115596.0,"from_timestamp":"2015-10-27T05:34:00Z","id":"103429","site":"Kotka","to_timestamp":"2015-11-02T07:48:00Z","uncertainty_Be-7-uncertainty":7.0,"uncertainty_Cs-137-uncertainty":8.0,"uncertainty_Na-22-uncertainty":27.0},"type":"Feature"},{"geometry":{"coordinates":[26.91808,60.48318],"type":"Point"},"properties":{"concentration_Be-7":885.8,"concentration_Cs-137":1.4,"concentration_Na-22":0.1,"concentration_Pb-210":299.1,"concentration_air-volume":133962.0,"from_timestamp":"2015-11-02T07:51:00Z","id":"103429","site":"Kotka","to_timestamp":"2015-11-09T07:11:00Z","uncertainty_Be-7-uncertainty":5.0,"uncertainty_Cs-137-uncertainty":6.0,"uncertainty_Na-22-uncertainty":27.0,"uncertainty_Pb-210-uncertainty":5.0},"type":"Feature"},{"geometry":{"coordinates":[28.82663,61.13229],"type":"Point"},"properties":{"concentration_Be-7":2392.5,"concentration_Cs-137":2.0,"concentration_Pb-210":496.8,"concentration_air-volume":23188.0,"from_timestamp":"2015-10-28T07:55:00Z","id":"103430","site":"Imatra","to_timestamp":"2015-11-05T07:28:00Z","uncertainty_Be-7-uncertainty":6.0,"uncertainty_Cs-137-uncertainty":9.0,"uncertainty_Pb-210-uncertainty":20.0},"type":"Feature"},{"geometry":{"coordinates":[28.82663,61.13229],"type":"Point"},"properties":{"concentration_Be-7":665.8,"concentration_Cs-137":1.2,"concentration_Pb-210":416.9,"concentration_air-volume":20727.0,"from_timestamp":"2015-11-05T07:30:00Z","id":"103430","site":"Imatra","to_timestamp":"2015-11-12T06:13:00Z","uncertainty_Be-7-uncertainty":6.0,"uncertainty_Cs-137-uncertainty":12.0,"uncertainty_Pb-210-uncertainty":20.0},"type":"Feature"},{"geometry":{"coordinates":[27.57,68.64],"type":"Point"},"properties":{"concentration_Be-7":1170.3,"concentration_Pb-210":48.8,"concentration_air-volume":27422.0,"from_timestamp":"2015-10-26T05:12:00Z","id":"103431","site":"Ivalo","to_timestamp":"2015-11-02T06:20:00Z","uncertainty_Be-7-uncertainty":6.0,"uncertainty_Pb-210-uncertainty":23.0},"type":"Feature"},{"geometry":{"coordinates":[27.57,68.64],"type":"Point"},"properties":{"concentration_Be-7":528.8,"concentration_Cs-137":0.2,"concentration_Pb-210":61.9,"concentration_air-volume":31574.0,"from_timestamp":"2015-11-02T05:23:00Z","id":"103431","site":"Ivalo","to_timestamp":"2015-11-09T05:07:00Z","uncertainty_Be-7-uncertainty":6.0,"uncertainty_Cs-137-uncertainty":17.0,"uncertainty_Pb-210-uncertainty":20.0},"type":"Feature"},{"geometry":{"coordinates":[27.63414,62.89195],"type":"Point"},"properties":{"concentration_Be-7":2158.4,"concentration_air-volume":15056.0,"from_timestamp":"2015-10-29T05:22:00Z","id":"103432","site":"Kuopio","to_timestamp":"2015-11-02T05:34:00Z","uncertainty_Be-7-uncertainty":6.0},"type":"Feature"},{"geometry":{"coordinates":[27.63414,62.89195],"type":"Point"},"properties":{"concentration_Be-7":1521.1,"concentration_air-volume":11184.0,"from_timestamp":"2015-11-02T05:35:00Z","id":"103432","site":"Kuopio","to_timestamp":"2015-11-05T05:17:00Z","uncertainty_Be-7-uncertainty":6.0},"type":"Feature"},{"geometry":{"coordinates":[27.63414,62.89195],"type":"Point"},"properties":{"concentration_Be-7":697.3,"concentration_air-volume":14826.0,"from_timestamp":"2015-11-05T05:18:00Z","id":"103432","site":"Kuopio","to_timestamp":"2015-11-09T05:12:00Z","uncertainty_Be-7-uncertainty":6.0},"type":"Feature"},{"geometry":{"coordinates":[25.67774,66.51285],"type":"Point"},"properties":{"concentration_Be-7":969.3,"concentration_Cs-137":0.2,"concentration_Na-22":0.1,"concentration_Pb-210":153.0,"concentration_air-volume":146791.0,"from_timestamp":"2015-10-26T10:44:00Z","id":"103433","site":"Rovaniemi","to_timestamp":"2015-11-02T09:48:00Z","uncertainty_Be-7-uncertainty":6.0,"uncertainty_Cs-137-uncertainty":9.0,"uncertainty_Na-22-uncertainty":5.0,"uncertainty_Pb-210-uncertainty":5.0},"type":"Feature"},{"geometry":{"coordinates":[25.67774,66.51285],"type":"Point"},"properties":{"concentration_Be-7":376.8,"concentration_Cs-137":0.1,"concentration_Pb-210":98.7,"concentration_air-volume":144060.0,"from_timestamp":"2015-11-02T09:52:00Z","id":"103433","site":"Rovaniemi","to_timestamp":"2015-11-09T09:35:00Z","uncertainty_Be-7-uncertainty":6.0,"uncertainty_Cs-137-uncertainty":13.0,"uncertainty_Pb-210-uncertainty":5.0},"type":"Feature"},{"geometry":{"coordinates":[26.62807,67.36505],"type":"Point"},"properties":{"concentration_Be-7":1176.7,"concentration_Cs-137":0.3,"concentration_air-volume":26874.0,"from_timestamp":"2015-10-26T05:58:00Z","id":"103434","site":"Sodankylä","to_timestamp":"2015-11-02T05:55:00Z","uncertainty_Be-7-uncertainty":6.0,"uncertainty_Cs-137-uncertainty":18.0},"type":"Feature"},{"geometry":{"coordinates":[26.62807,67.36505],"type":"Point"},"properties":{"concentration_Be-7":633.6,"concentration_air-volume":26679.0,"from_timestamp":"2015-11-02T05:57:00Z","id":"103434","site":"Sodankylä","to_timestamp":"2015-11-09T06:10:00Z","uncertainty_Be-7-uncertainty":6.0},"type":"Feature"},{"geometry":{"coordinates":[27.70835,64.08474],"type":"Point"},"properties":{"concentration_Be-7":1019.1,"concentration_Cs-137":0.4,"concentration_Pb-210":35.1,"concentration_air-volume":166627.0,"from_timestamp":"2015-10-26T05:17:00Z","id":"103435","site":"Kajaani","to_timestamp":"2015-11-09T08:00:00Z","uncertainty_Be-7-uncertainty":5.0,"uncertainty_Cs-137-uncertainty":8.0,"uncertainty_Pb-210-uncertainty":8.0},"type":"Feature"}],"name":"stuk_open_data_air_radionuclides","type":"FeatureCollection"}