{"crs":{"properties":{"name":"urn:ogc:def:crs:OGC:1.3:CRS84"},"type":"name"},"features":[{"geometry":{"coordinates":[25.05385,60.20905],"type":"Point"},"properties":{"concentration_Be-7":1930.3,"concentration_Pb-210":125.3,"concentration_air-volume":13596.0,"from_timestamp":"2015-12-08T08:01:00Z","id":"103428","site":"Helsinki","to_timestamp":"2015-12-09T07:48:00Z","uncertainty_Be-7-uncertainty":5.0,"uncertainty_Pb-210-uncertainty":22.0},"type":"Feature"},{"geometry":{"coordinates":[25.05385,60.20905],"type":"Point"},"properties":{"concentration_Be-7":1873.8,"concentration_air-volume":13221.0,"from_timestamp":"2015-12-10T08:01:00Z","id":"103428","site":"Helsinki","to_timestamp":"2015-12-11T07:48:00Z","uncertainty_Be-7-uncertainty":5.0},"type":"Feature"},{"geometry":{"coordinates":[25.05385,60.20905],"type":"Point"},"properties":{"concentration_Be-7":2169.6,"concentration_Pb-210":283.8,"concentration_air-volume":13316.0,"from_timestamp":"2015-12-09T08:01:00Z","id":"103428","site":"Helsinki","to_timestamp":"2015-12-10T07:48:00Z","uncertainty_Be-7-uncertainty":5.0,"uncertainty_Pb-210-uncertainty":12.0},"type":"Feature"},{"geometry":{"coordinates":[25.05385,60.20905],"type":"Point"},"properties":{"concentration_Be-7":2579.4,"concentration_air-volume":13251.0,"from_timestamp":"2015-12-11T08:01:00Z","id":"103428","site":"Helsinki","to_timestamp":"2015-12-12T07:48:00Z","uncertainty_Be-7-uncertainty":5.0},"type":"Feature"},{"geometry":{"coordinates":[25.05385,60.20905],"type":"Point"},"properties":{"concentration_Be-7":1839.7,"concentration_Pb-210":183.0,"concentration_air-volume":13140.0,"from_timestamp":"2015-12-12T08:01:00Z","id":"103428","site":"Helsinki","to_timestamp":"2015-12-13T07:48:00Z","uncertainty_Be-7-uncertainty":5.0,"uncertainty_Pb-210-uncertainty":18.0},"type":"Feature"},{"geometry":{"coordinates":[25.05385,60.20905],"type":"Point"},"properties":{"concentration_Be-7":837.8,"concentration_Pb-210":149.1,"concentration_air-volume":13616.0,"from_timestamp":"2015-12-16T08:01:00Z","id":"103428","site":"Helsinki","to_timestamp":"2015-12-17T07:48:00Z","uncertainty_Be-7-uncertainty":5.0,"uncertainty_Pb-210-uncertainty":21.0},"type":"Feature"},{"geometry":{"coordinates":[25.05385,60.20905],"type":"Point"},"properties":{"concentration_Be-7":599.7,"concentration_Pb-210":210.4,"concentration_air-volume":13833.0,"from_timestamp":"2015-12-13T08:01:00Z","id":"103428","site":"Helsinki","to_timestamp":"2015-12-14T07:48:00Z","uncertainty_Be-7-uncertainty":5.0,"uncertainty_Pb-210-uncertainty":17.0},"type":"Feature"},{"geometry":{"coordinates":[25.05385,60.20905],"type":"Point"},"properties":{"concentration_Be-7":1148.0,"concentration_Pb-210":169.9,"concentration_air-volume":14180.0,"from_timestamp":"2015-12-15T08:01:00Z","id":"103428","site":"Helsinki","to_timestamp":"2015-12-16T07:48:00Z","uncertainty_Be-7-uncertainty":5.0,"uncertainty_Pb-210-uncertainty":19.0},"type":"Feature"},{"geometry":{"coordinates":[25.05385,60.20905],"type":"Point"},"properties":{"concentration_Be-7":912.7,"concentration_Pb-210":210.2,"concentration_air-volume":13956.0,"from_timestamp":"2015-12-14T08:01:00Z","id":"103428","site":"Helsinki","to_timestamp":"2015-12-15T07:48:00Z","uncertainty_Be-7-uncertainty":5.0,"uncertainty_Pb-210-uncertainty":18.0},"type":"Feature"},{"geometry":{"coordinates":[26.91808,60.48318],"type":"Point"},"properties":{"concentration_Be-7":1041.6,"concentration_Cs-137":0.9,"concentration_Pb-210":100.5,"concentration_air-volume":212952.0,"from_timestamp":"2015-12-07T13:12:00Z","id":"103429","site":"Kotka","to_timestamp":"2015-12-19T06:30:00Z","uncertainty_Be-7-uncertainty":5.0,"uncertainty_Cs-137-uncertainty":7.0,"uncertainty_Pb-210-uncertainty":5.0},"type":"Feature"},{"geometry":{"coordinates":[28.82663,61.13229],"type":"Point"},"properties":{"concentration_Be-7":930.2,"concentration_Cs-137":2.1,"concentration_air-volume":12127.0,"from_timestamp":"2015-12-14T07:28:00Z","id":"103430","site":"Imatra","to_timestamp":"2015-12-18T05:12:00Z","uncertainty_Be-7-uncertainty":10.0,"uncertainty_Cs-137-uncertainty":15.0},"type":"Feature"},{"geometry":{"coordinates":[27.57,68.64],"type":"Point"},"properties":{"concentration_Be-7":868.1,"concentration_Cs-137":0.3,"concentration_Pb-210":113.1,"concentration_air-volume":26746.0,"from_timestamp":"2015-12-14T06:59:00Z","id":"103431","site":"Ivalo","to_timestamp":"2015-12-21T08:00:00Z","uncertainty_Be-7-uncertainty":6.0,"uncertainty_Cs-137-uncertainty":10.0,"uncertainty_Pb-210-uncertainty":30.0},"type":"Feature"},{"geometry":{"coordinates":[27.57,68.64],"type":"Point"},"properties":{"concentration_Be-7":1266.3,"concentration_Cs-137":0.3,"concentration_Pb-210":154.3,"concentration_air-volume":26484.0,"from_timestamp":"2015-12-07T05:40:00Z","id":"103431","site":"Ivalo","to_timestamp":"2015-12-14T06:58:00Z","uncertainty_Be-7-uncertainty":6.0,"uncertainty_Cs-137-uncertainty":14.0,"uncertainty_Pb-210-uncertainty":20.0},"type":"Feature"},{"geometry":{"coordinates":[27.63414,62.89195],"type":"Point"},"properties":{"concentration_Be-7":1658.3,"concentration_Pb-210":103.0,"concentration_air-volume":26256.0,"from_timestamp":"2015-12-03T06:21:00Z","id":"103432","site":"Kuopio","to_timestamp":"2015-12-10T06:16:00Z","uncertainty_Be-7-uncertainty":6.0,"uncertainty_Pb-210-uncertainty":20.0},"type":"Feature"},{"geometry":{"coordinates":[27.63414,62.89195],"type":"Point"},"properties":{"concentration_Be-7":1146.9,"concentration_Cs-137":0.5,"concentration_Pb-210":58.3,"concentration_air-volume":15229.0,"from_timestamp":"2015-12-10T06:17:00Z","id":"103432","site":"Kuopio","to_timestamp":"2015-12-14T06:39:00Z","uncertainty_Be-7-uncertainty":6.0,"uncertainty_Cs-137-uncertainty":23.0,"uncertainty_Pb-210-uncertainty":20.0},"type":"Feature"},{"geometry":{"coordinates":[27.63414,62.89195],"type":"Point"},"properties":{"concentration_Be-7":667.7,"concentration_Cs-137":0.6,"concentration_Pb-210":128.3,"concentration_air-volume":26617.0,"from_timestamp":"2015-12-14T06:41:00Z","id":"103432","site":"Kuopio","to_timestamp":"2015-12-21T08:54:00Z","uncertainty_Be-7-uncertainty":6.0,"uncertainty_Cs-137-uncertainty":15.0,"uncertainty_Pb-210-uncertainty":20.0},"type":"Feature"},{"geometry":{"coordinates":[25.67774,66.51285],"type":"Point"},"properties":{"concentration_Be-7":689.1,"concentration_Cs-137":0.4,"concentration_Na-22":0.1,"concentration_air-volume":148573.0,"from_timestamp":"2015-12-07T10:41:00Z","id":"103433","site":"Rovaniemi","to_timestamp":"2015-12-14T10:41:00Z","uncertainty_Be-7-uncertainty":7.0,"uncertainty_Cs-137-uncertainty":9.0,"uncertainty_Na-22-uncertainty":20.0},"type":"Feature"},{"geometry":{"coordinates":[25.67774,66.51285],"type":"Point"},"properties":{"concentration_Be-7":615.1,"concentration_Cs-137":0.3,"concentration_Pb-210":140.3,"concentration_air-volume":131909.0,"from_timestamp":"2015-12-14T10:46:00Z","id":"103433","site":"Rovaniemi","to_timestamp":"2015-12-21T10:48:00Z","uncertainty_Be-7-uncertainty":5.0,"uncertainty_Cs-137-uncertainty":7.0,"uncertainty_Pb-210-uncertainty":5.0},"type":"Feature"},{"geometry":{"coordinates":[26.62807,67.36505],"type":"Point"},"properties":{"concentration_Be-7":748.0,"concentration_Pb-210":41.2,"concentration_air-volume":27109.0,"from_timestamp":"2015-12-07T06:15:00Z","id":"103434","site":"Sodankylä","to_timestamp":"2015-12-14T05:42:00Z","uncertainty_Be-7-uncertainty":6.0,"uncertainty_Pb-210-uncertainty":26.0},"type":"Feature"},{"geometry":{"coordinates":[26.62807,67.36505],"type":"Point"},"properties":{"concentration_Be-7":767.1,"concentration_Cs-137":0.2,"concentration_Pb-210":39.0,"concentration_air-volume":27280.0,"from_timestamp":"2015-12-14T05:43:00Z","id":"103434","site":"Sodankylä","to_timestamp":"2015-12-21T05:45:00Z","uncertainty_Be-7-uncertainty":6.0,"uncertainty_Cs-137-uncertainty":29.0,"uncertainty_Pb-210-uncertainty":21.0},"type":"Feature"},{"geometry":{"coordinates":[27.70835,64.08474],"type":"Point"},"properties":{"concentration_Be-7":33.3,"concentration_Pb-210":10.1,"concentration_air-volume":1010303.0,"from_timestamp":"2015-12-07T04:25:00Z","id":"103435","site":"Kajaani","to_timestamp":"2015-12-15T05:55:00Z","uncertainty_Be-7-uncertainty":5.0,"uncertainty_Pb-210-uncertainty":5.0},"type":"Feature"},{"geometry":{"coordinates":[27.70835,64.08474],"type":"Point"},"properties":{"concentration_Be-7":664.1,"concentration_Cs-137":0.2,"concentration_Pb-210":115.7,"concentration_air-volume":154581.0,"from_timestamp":"2015-12-15T06:00:00Z","id":"103435","site":"Kajaani","to_timestamp":"2015-12-28T04:35:00Z","uncertainty_Be-7-uncertainty":5.0,"uncertainty_Cs-137-uncertainty":11.0,"uncertainty_Pb-210-uncertainty":5.0},"type":"Feature"},{"geometry":{"coordinates":[25.05385,60.20905],"type":"Point"},"properties":{"concentration_Be-7":1930.3,"concentration_Pb-210":125.3,"concentration_air-volume":13596.0,"from_timestamp":"2015-12-08T08:01:00Z","id":"103428","site":"Helsinki","to_timestamp":"2015-12-09T07:48:00Z","uncertainty_Be-7-uncertainty":5.0,"uncertainty_Pb-210-uncertainty":22.0},"type":"Feature"},{"geometry":{"coordinates":[25.05385,60.20905],"type":"Point"},"properties":{"concentration_Be-7":1873.8,"concentration_air-volume":13221.0,"from_timestamp":"2015-12-10T08:01:00Z","id":"103428","site":"Helsinki","to_timestamp":"2015-12-11T07:48:00Z","uncertainty_Be-7-uncertainty":5.0},"type":"Feature"},{"geometry":{"coordinates":[25.05385,60.20905],"type":"Point"},"properties":{"concentration_Be-7":2169.6,"concentration_Pb-210":283.8,"concentration_air-volume":13316.0,"from_timestamp":"2015-12-09T08:01:00Z","id":"103428","site":"Helsinki","to_timestamp":"2015-12-10T07:48:00Z","uncertainty_Be-7-uncertainty":5.0,"uncertainty_Pb-210-uncertainty":12.0},"type":"Feature"},{"geometry":{"coordinates":[25.05385,60.20905],"type":"Point"},"properties":{"concentration_Be-7":2579.4,"concentration_air-volume":13251.0,"from_timestamp":"2015-12-11T08:01:00Z","id":"103428","site":"Helsinki","to_timestamp":"2015-12-12T07:48:00Z","uncertainty_Be-7-uncertainty":5.0},"type":"Feature"},{"geometry":{"coordinates":[25.05385,60.20905],"type":"Point"},"properties":{"concentration_Be-7":1839.7,"concentration_Pb-210":183.0,"concentration_air-volume":13140.0,"from_timestamp":"2015-12-12T08:01:00Z","id":"103428","site":"Helsinki","to_timestamp":"2015-12-13T07:48:00Z","uncertainty_Be-7-uncertainty":5.0,"uncertainty_Pb-210-uncertainty":18.0},"type":"Feature"},{"geometry":{"coordinates":[25.05385,60.20905],"type":"Point"},"properties":{"concentration_Be-7":837.8,"concentration_Pb-210":149.1,"concentration_air-volume":13616.0,"from_timestamp":"2015-12-16T08:01:00Z","id":"103428","site":"Helsinki","to_timestamp":"2015-12-17T07:48:00Z","uncertainty_Be-7-uncertainty":5.0,"uncertainty_Pb-210-uncertainty":21.0},"type":"Feature"},{"geometry":{"coordinates":[25.05385,60.20905],"type":"Point"},"properties":{"concentration_Be-7":599.7,"concentration_Pb-210":210.4,"concentration_air-volume":13833.0,"from_timestamp":"2015-12-13T08:01:00Z","id":"103428","site":"Helsinki","to_timestamp":"2015-12-14T07:48:00Z","uncertainty_Be-7-uncertainty":5.0,"uncertainty_Pb-210-uncertainty":17.0},"type":"Feature"},{"geometry":{"coordinates":[25.05385,60.20905],"type":"Point"},"properties":{"concentration_Be-7":1148.0,"concentration_Pb-210":169.9,"concentration_air-volume":14180.0,"from_timestamp":"2015-12-15T08:01:00Z","id":"103428","site":"Helsinki","to_timestamp":"2015-12-16T07:48:00Z","uncertainty_Be-7-uncertainty":5.0,"uncertainty_Pb-210-uncertainty":19.0},"type":"Feature"},{"geometry":{"coordinates":[25.05385,60.20905],"type":"Point"},"properties":{"concentration_Be-7":912.7,"concentration_Pb-210":210.2,"concentration_air-volume":13956.0,"from_timestamp":"2015-12-14T08:01:00Z","id":"103428","site":"Helsinki","to_timestamp":"2015-12-15T07:48:00Z","uncertainty_Be-7-uncertainty":5.0,"uncertainty_Pb-210-uncertainty":18.0},"type":"Feature"}],"name":"stuk_open_data_air_radionuclides","type":"FeatureCollection"}