{"crs":{"properties":{"name":"urn:ogc:def:crs:OGC:1.3:CRS84"},"type":"name"},"features":[{"geometry":{"coordinates":[25.05385,60.20905],"type":"Point"},"properties":{"concentration_Be-7":3798.6,"concentration_Cs-137":0.5,"concentration_Pb-210":366.6,"concentration_air-volume":28204.0,"from_timestamp":"2016-04-28T10:35:00Z","id":"103428","site":"Helsinki","to_timestamp":"2016-05-06T08:36:00Z","uncertainty_Be-7-uncertainty":6.0,"uncertainty_Cs-137-uncertainty":25.0,"uncertainty_Pb-210-uncertainty":20.0},"type":"Feature"},{"geometry":{"coordinates":[25.05385,60.20905],"type":"Point"},"properties":{"concentration_Be-7":3249.8,"concentration_Cs-137":0.7,"concentration_Pb-210":79.6,"concentration_air-volume":21966.0,"from_timestamp":"2016-05-06T08:38:00Z","id":"103428","site":"Helsinki","to_timestamp":"2016-05-12T11:55:00Z","uncertainty_Be-7-uncertainty":6.0,"uncertainty_Cs-137-uncertainty":21.0,"uncertainty_Pb-210-uncertainty":21.0},"type":"Feature"},{"geometry":{"coordinates":[26.91808,60.48318],"type":"Point"},"properties":{"concentration_Be-7":2974.6,"concentration_Cs-137":1.6,"concentration_Na-22":0.5,"concentration_Pb-210":302.6,"concentration_air-volume":141066.0,"from_timestamp":"2016-04-25T09:15:00Z","id":"103429","site":"Kotka","to_timestamp":"2016-05-02T15:59:00Z","uncertainty_Be-7-uncertainty":5.0,"uncertainty_Cs-137-uncertainty":6.0,"uncertainty_Na-22-uncertainty":10.0,"uncertainty_Pb-210-uncertainty":5.0},"type":"Feature"},{"geometry":{"coordinates":[26.91808,60.48318],"type":"Point"},"properties":{"concentration_Be-7":4195.6,"concentration_Cs-137":2.1,"concentration_Na-22":0.7,"concentration_Pb-210":344.3,"concentration_air-volume":228840.0,"from_timestamp":"2016-05-02T16:10:00Z","id":"103429","site":"Kotka","to_timestamp":"2016-05-16T07:10:00Z","uncertainty_Be-7-uncertainty":5.0,"uncertainty_Cs-137-uncertainty":5.0,"uncertainty_Na-22-uncertainty":7.0,"uncertainty_Pb-210-uncertainty":5.0},"type":"Feature"},{"geometry":{"coordinates":[28.82663,61.13229],"type":"Point"},"properties":{"concentration_Be-7":4630.4,"concentration_Cs-137":1.5,"concentration_air-volume":11253.0,"from_timestamp":"2016-04-28T13:17:00Z","id":"103430","site":"Imatra","to_timestamp":"2016-05-02T06:50:00Z","uncertainty_Be-7-uncertainty":10.0,"uncertainty_Cs-137-uncertainty":20.0},"type":"Feature"},{"geometry":{"coordinates":[28.82663,61.13229],"type":"Point"},"properties":{"concentration_Be-7":5785.3,"concentration_Cs-137":1.7,"concentration_Na-22":1.1,"concentration_Pb-210":480.8,"concentration_air-volume":20126.0,"from_timestamp":"2016-05-02T07:00:00Z","id":"103430","site":"Imatra","to_timestamp":"2016-05-09T06:25:00Z","uncertainty_Be-7-uncertainty":5.0,"uncertainty_Cs-137-uncertainty":9.0,"uncertainty_Na-22-uncertainty":17.0,"uncertainty_Pb-210-uncertainty":5.0},"type":"Feature"},{"geometry":{"coordinates":[27.57,68.64],"type":"Point"},"properties":{"concentration_Be-7":2663.1,"concentration_Na-22":0.8,"concentration_Pb-210":271.0,"concentration_air-volume":25214.0,"from_timestamp":"2016-04-25T05:09:00Z","id":"103431","site":"Ivalo","to_timestamp":"2016-05-02T05:23:00Z","uncertainty_Be-7-uncertainty":5.0,"uncertainty_Na-22-uncertainty":21.0,"uncertainty_Pb-210-uncertainty":5.0},"type":"Feature"},{"geometry":{"coordinates":[27.57,68.64],"type":"Point"},"properties":{"concentration_Be-7":2551.6,"concentration_Pb-210":136.5,"concentration_air-volume":25550.0,"from_timestamp":"2016-05-02T05:27:00Z","id":"103431","site":"Ivalo","to_timestamp":"2016-05-09T05:10:00Z","uncertainty_Be-7-uncertainty":6.0,"uncertainty_Pb-210-uncertainty":20.0},"type":"Feature"},{"geometry":{"coordinates":[27.63414,62.89195],"type":"Point"},"properties":{"concentration_Be-7":2579.7,"concentration_Pb-210":164.4,"concentration_air-volume":25650.0,"from_timestamp":"2016-04-25T06:32:00Z","id":"103432","site":"Kuopio","to_timestamp":"2016-05-02T06:26:00Z","uncertainty_Be-7-uncertainty":6.0,"uncertainty_Pb-210-uncertainty":20.0},"type":"Feature"},{"geometry":{"coordinates":[27.63414,62.89195],"type":"Point"},"properties":{"concentration_Be-7":3855.3,"concentration_Na-22":1.0,"concentration_air-volume":24931.0,"from_timestamp":"2016-05-02T06:27:00Z","id":"103432","site":"Kuopio","to_timestamp":"2016-05-09T06:26:00Z","uncertainty_Be-7-uncertainty":6.0,"uncertainty_Na-22-uncertainty":22.0},"type":"Feature"},{"geometry":{"coordinates":[25.67774,66.51285],"type":"Point"},"properties":{"concentration_Be-7":3090.0,"concentration_Cs-137":0.1,"concentration_Na-22":0.4,"concentration_Pb-210":251.8,"concentration_air-volume":146807.0,"from_timestamp":"2016-05-02T09:47:00Z","id":"103433","site":"Rovaniemi","to_timestamp":"2016-05-09T09:06:00Z","uncertainty_Be-7-uncertainty":5.0,"uncertainty_Cs-137-uncertainty":21.0,"uncertainty_Na-22-uncertainty":15.0,"uncertainty_Pb-210-uncertainty":5.0},"type":"Feature"},{"geometry":{"coordinates":[26.62807,67.36505],"type":"Point"},"properties":{"concentration_Be-7":3165.1,"concentration_Pb-210":290.9,"concentration_air-volume":25182.0,"from_timestamp":"2016-04-25T06:13:00Z","id":"103434","site":"Sodankylä","to_timestamp":"2016-05-02T06:29:00Z","uncertainty_Be-7-uncertainty":5.0,"uncertainty_Pb-210-uncertainty":5.0},"type":"Feature"},{"geometry":{"coordinates":[26.62807,67.36505],"type":"Point"},"properties":{"concentration_Be-7":2637.3,"concentration_Na-22":0.7,"concentration_Pb-210":138.2,"concentration_air-volume":24742.0,"from_timestamp":"2016-05-02T06:31:00Z","id":"103434","site":"Sodankylä","to_timestamp":"2016-05-09T06:35:00Z","uncertainty_Be-7-uncertainty":6.0,"uncertainty_Na-22-uncertainty":20.0,"uncertainty_Pb-210-uncertainty":20.0},"type":"Feature"},{"geometry":{"coordinates":[27.70835,64.08474],"type":"Point"},"properties":{"concentration_Be-7":4599.9,"concentration_Cs-137":0.3,"concentration_Na-22":0.6,"concentration_air-volume":135638.0,"from_timestamp":"2016-04-25T06:07:00Z","id":"103435","site":"Kajaani","to_timestamp":"2016-05-02T05:59:00Z","uncertainty_Be-7-uncertainty":7.0,"uncertainty_Cs-137-uncertainty":10.0,"uncertainty_Na-22-uncertainty":10.0},"type":"Feature"},{"geometry":{"coordinates":[27.70835,64.08474],"type":"Point"},"properties":{"concentration_Be-7":4735.4,"concentration_Cs-137":0.4,"concentration_Na-22":0.7,"concentration_air-volume":142364.0,"from_timestamp":"2016-05-02T06:05:00Z","id":"103435","site":"Kajaani","to_timestamp":"2016-05-09T06:11:00Z","uncertainty_Be-7-uncertainty":7.0,"uncertainty_Cs-137-uncertainty":9.0,"uncertainty_Na-22-uncertainty":9.0},"type":"Feature"},{"geometry":{"coordinates":[25.05385,60.20905],"type":"Point"},"properties":{"concentration_Be-7":3798.6,"concentration_Cs-137":0.5,"concentration_Pb-210":366.6,"concentration_air-volume":28204.0,"from_timestamp":"2016-04-28T10:35:00Z","id":"103428","site":"Helsinki","to_timestamp":"2016-05-06T08:36:00Z","uncertainty_Be-7-uncertainty":6.0,"uncertainty_Cs-137-uncertainty":25.0,"uncertainty_Pb-210-uncertainty":20.0},"type":"Feature"},{"geometry":{"coordinates":[25.05385,60.20905],"type":"Point"},"properties":{"concentration_Be-7":3249.8,"concentration_Cs-137":0.7,"concentration_Pb-210":79.6,"concentration_air-volume":21966.0,"from_timestamp":"2016-05-06T08:38:00Z","id":"103428","site":"Helsinki","to_timestamp":"2016-05-12T11:55:00Z","uncertainty_Be-7-uncertainty":6.0,"uncertainty_Cs-137-uncertainty":21.0,"uncertainty_Pb-210-uncertainty":21.0},"type":"Feature"}],"name":"stuk_open_data_air_radionuclides","type":"FeatureCollection"}