{"crs":{"properties":{"name":"urn:ogc:def:crs:OGC:1.3:CRS84"},"type":"name"},"features":[{"geometry":{"coordinates":[25.05385,60.20905],"type":"Point"},"properties":{"concentration_Be-7":1903.7,"concentration_Pb-210":200.4,"concentration_air-volume":13561.0,"from_timestamp":"2016-02-19T08:01:00Z","id":"103428","site":"Helsinki","to_timestamp":"2016-02-20T07:58:00Z","uncertainty_Be-7-uncertainty":5.0,"uncertainty_Pb-210-uncertainty":15.0},"type":"Feature"},{"geometry":{"coordinates":[25.05385,60.20905],"type":"Point"},"properties":{"concentration_Be-7":2278.3,"concentration_Pb-210":252.5,"concentration_air-volume":13701.0,"from_timestamp":"2016-02-18T08:01:00Z","id":"103428","site":"Helsinki","to_timestamp":"2016-02-19T07:58:00Z","uncertainty_Be-7-uncertainty":5.0,"uncertainty_Pb-210-uncertainty":12.0},"type":"Feature"},{"geometry":{"coordinates":[25.05385,60.20905],"type":"Point"},"properties":{"concentration_Be-7":1889.9,"concentration_Pb-210":374.7,"concentration_air-volume":13407.0,"from_timestamp":"2016-02-20T08:01:00Z","id":"103428","site":"Helsinki","to_timestamp":"2016-02-21T07:58:00Z","uncertainty_Be-7-uncertainty":5.0,"uncertainty_Pb-210-uncertainty":10.0},"type":"Feature"},{"geometry":{"coordinates":[25.05385,60.20905],"type":"Point"},"properties":{"concentration_Be-7":1091.8,"concentration_Pb-210":290.3,"concentration_air-volume":13547.0,"from_timestamp":"2016-02-23T08:01:00Z","id":"103428","site":"Helsinki","to_timestamp":"2016-02-24T07:58:00Z","uncertainty_Be-7-uncertainty":5.0,"uncertainty_Pb-210-uncertainty":11.0},"type":"Feature"},{"geometry":{"coordinates":[25.05385,60.20905],"type":"Point"},"properties":{"concentration_Be-7":1371.7,"concentration_Pb-210":170.5,"concentration_air-volume":13349.0,"from_timestamp":"2016-02-22T08:01:00Z","id":"103428","site":"Helsinki","to_timestamp":"2016-02-23T07:58:00Z","uncertainty_Be-7-uncertainty":5.0,"uncertainty_Pb-210-uncertainty":17.0},"type":"Feature"},{"geometry":{"coordinates":[25.05385,60.20905],"type":"Point"},"properties":{"concentration_Be-7":1293.7,"concentration_Pb-210":280.4,"concentration_air-volume":13325.0,"from_timestamp":"2016-02-21T08:01:00Z","id":"103428","site":"Helsinki","to_timestamp":"2016-02-22T07:58:00Z","uncertainty_Be-7-uncertainty":5.0,"uncertainty_Pb-210-uncertainty":12.0},"type":"Feature"},{"geometry":{"coordinates":[25.05385,60.20905],"type":"Point"},"properties":{"concentration_Be-7":845.6,"concentration_Pb-210":175.6,"concentration_air-volume":13502.0,"from_timestamp":"2016-02-25T08:01:00Z","id":"103428","site":"Helsinki","to_timestamp":"2016-02-26T07:58:00Z","uncertainty_Be-7-uncertainty":5.0,"uncertainty_Pb-210-uncertainty":16.0},"type":"Feature"},{"geometry":{"coordinates":[25.05385,60.20905],"type":"Point"},"properties":{"concentration_Be-7":789.8,"concentration_Pb-210":207.1,"concentration_air-volume":13375.0,"from_timestamp":"2016-02-24T08:01:00Z","id":"103428","site":"Helsinki","to_timestamp":"2016-02-25T07:58:00Z","uncertainty_Be-7-uncertainty":5.0,"uncertainty_Pb-210-uncertainty":16.0},"type":"Feature"},{"geometry":{"coordinates":[26.91808,60.48318],"type":"Point"},"properties":{"concentration_Be-7":1004.2,"concentration_Cs-137":0.9,"concentration_air-volume":117028.0,"from_timestamp":"2016-02-16T13:05:00Z","id":"103429","site":"Kotka","to_timestamp":"2016-02-22T12:50:00Z","uncertainty_Be-7-uncertainty":7.0,"uncertainty_Cs-137-uncertainty":8.0},"type":"Feature"},{"geometry":{"coordinates":[26.91808,60.48318],"type":"Point"},"properties":{"concentration_Be-7":1164.1,"concentration_Cs-137":1.3,"concentration_Pb-210":69.5,"concentration_air-volume":95872.0,"from_timestamp":"2016-02-22T13:20:00Z","id":"103429","site":"Kotka","to_timestamp":"2016-02-29T07:15:00Z","uncertainty_Be-7-uncertainty":5.0,"uncertainty_Cs-137-uncertainty":6.0,"uncertainty_Pb-210-uncertainty":8.0},"type":"Feature"},{"geometry":{"coordinates":[28.82663,61.13229],"type":"Point"},"properties":{"concentration_Be-7":1897.2,"concentration_Cs-137":1.7,"concentration_Pb-210":116.0,"concentration_air-volume":21952.0,"from_timestamp":"2016-02-15T06:48:00Z","id":"103430","site":"Imatra","to_timestamp":"2016-02-22T06:35:00Z","uncertainty_Be-7-uncertainty":6.0,"uncertainty_Cs-137-uncertainty":12.0,"uncertainty_Pb-210-uncertainty":15.0},"type":"Feature"},{"geometry":{"coordinates":[28.82663,61.13229],"type":"Point"},"properties":{"concentration_Be-7":1226.1,"concentration_Cs-137":1.1,"concentration_Pb-210":363.2,"concentration_air-volume":21827.0,"from_timestamp":"2016-02-22T06:40:00Z","id":"103430","site":"Imatra","to_timestamp":"2016-02-29T05:50:00Z","uncertainty_Be-7-uncertainty":6.0,"uncertainty_Cs-137-uncertainty":10.0,"uncertainty_Pb-210-uncertainty":20.0},"type":"Feature"},{"geometry":{"coordinates":[27.57,68.64],"type":"Point"},"properties":{"concentration_Be-7":3041.8,"concentration_Pb-210":268.1,"concentration_air-volume":15961.0,"from_timestamp":"2016-02-22T05:32:00Z","id":"103431","site":"Ivalo","to_timestamp":"2016-02-26T10:05:00Z","uncertainty_Be-7-uncertainty":6.0,"uncertainty_Pb-210-uncertainty":11.0},"type":"Feature"},{"geometry":{"coordinates":[27.57,68.64],"type":"Point"},"properties":{"concentration_Be-7":1348.1,"concentration_Cs-137":0.4,"concentration_Pb-210":61.8,"concentration_air-volume":26206.0,"from_timestamp":"2016-02-15T05:22:00Z","id":"103431","site":"Ivalo","to_timestamp":"2016-02-22T05:30:00Z","uncertainty_Be-7-uncertainty":6.0,"uncertainty_Cs-137-uncertainty":29.0,"uncertainty_Pb-210-uncertainty":19.0},"type":"Feature"},{"geometry":{"coordinates":[27.57,68.64],"type":"Point"},"properties":{"concentration_Be-7":1384.4,"concentration_air-volume":10771.0,"from_timestamp":"2016-02-26T10:08:00Z","id":"103431","site":"Ivalo","to_timestamp":"2016-02-29T05:17:00Z","uncertainty_Be-7-uncertainty":10.0},"type":"Feature"},{"geometry":{"coordinates":[27.63414,62.89195],"type":"Point"},"properties":{"concentration_Be-7":1115.0,"concentration_Cs-137":0.7,"concentration_Pb-210":166.9,"concentration_air-volume":26315.0,"from_timestamp":"2016-02-15T06:32:00Z","id":"103432","site":"Kuopio","to_timestamp":"2016-02-22T06:23:00Z","uncertainty_Be-7-uncertainty":6.0,"uncertainty_Cs-137-uncertainty":14.0,"uncertainty_Pb-210-uncertainty":20.0},"type":"Feature"},{"geometry":{"coordinates":[27.63414,62.89195],"type":"Point"},"properties":{"concentration_Be-7":1248.6,"concentration_Cs-137":0.8,"concentration_Pb-210":467.3,"concentration_air-volume":26266.0,"from_timestamp":"2016-02-22T06:24:00Z","id":"103432","site":"Kuopio","to_timestamp":"2016-02-29T06:28:00Z","uncertainty_Be-7-uncertainty":6.0,"uncertainty_Cs-137-uncertainty":17.0,"uncertainty_Pb-210-uncertainty":20.0},"type":"Feature"},{"geometry":{"coordinates":[25.67774,66.51285],"type":"Point"},"properties":{"concentration_Be-7":1527.8,"concentration_Cs-137":0.3,"concentration_Na-22":0.1,"concentration_Pb-210":799.9,"concentration_air-volume":149846.0,"from_timestamp":"2016-02-22T11:28:00Z","id":"103433","site":"Rovaniemi","to_timestamp":"2016-02-29T09:59:00Z","uncertainty_Be-7-uncertainty":5.0,"uncertainty_Cs-137-uncertainty":10.0,"uncertainty_Na-22-uncertainty":8.0,"uncertainty_Pb-210-uncertainty":5.0},"type":"Feature"},{"geometry":{"coordinates":[26.62807,67.36505],"type":"Point"},"properties":{"concentration_Be-7":1208.0,"concentration_Pb-210":273.7,"concentration_air-volume":26415.0,"from_timestamp":"2016-02-15T06:21:00Z","id":"103434","site":"Sodankylä","to_timestamp":"2016-02-22T06:16:00Z","uncertainty_Be-7-uncertainty":6.0,"uncertainty_Pb-210-uncertainty":6.0},"type":"Feature"},{"geometry":{"coordinates":[26.62807,67.36505],"type":"Point"},"properties":{"concentration_Be-7":2021.9,"concentration_Cs-137":0.3,"concentration_Pb-210":1023.6,"concentration_air-volume":26526.0,"from_timestamp":"2016-02-22T06:17:00Z","id":"103434","site":"Sodankylä","to_timestamp":"2016-02-29T06:08:00Z","uncertainty_Be-7-uncertainty":6.0,"uncertainty_Cs-137-uncertainty":15.0,"uncertainty_Pb-210-uncertainty":20.0},"type":"Feature"},{"geometry":{"coordinates":[27.70835,64.08474],"type":"Point"},"properties":{"concentration_Be-7":1055.5,"concentration_Cs-137":0.5,"concentration_air-volume":141925.0,"from_timestamp":"2016-02-15T12:00:00Z","id":"103435","site":"Kajaani","to_timestamp":"2016-02-22T05:21:00Z","uncertainty_Be-7-uncertainty":7.0,"uncertainty_Cs-137-uncertainty":10.0},"type":"Feature"},{"geometry":{"coordinates":[27.70835,64.08474],"type":"Point"},"properties":{"concentration_Be-7":1638.3,"concentration_Cs-137":0.5,"concentration_Na-22":0.1,"concentration_Pb-210":111.7,"concentration_air-volume":219120.0,"from_timestamp":"2016-02-22T05:21:00Z","id":"103435","site":"Kajaani","to_timestamp":"2016-03-04T06:34:00Z","uncertainty_Be-7-uncertainty":5.0,"uncertainty_Cs-137-uncertainty":7.0,"uncertainty_Na-22-uncertainty":21.0,"uncertainty_Pb-210-uncertainty":6.0},"type":"Feature"}],"name":"stuk_open_data_air_radionuclides","type":"FeatureCollection"}