{"crs":{"properties":{"name":"urn:ogc:def:crs:OGC:1.3:CRS84"},"type":"name"},"features":[{"geometry":{"coordinates":[25.05385,60.20905],"type":"Point"},"properties":{"concentration_Be-7":1753.5,"concentration_Cs-137":1.0,"concentration_Pb-210":379.0,"concentration_air-volume":25725.0,"from_timestamp":"2016-10-13T11:17:00Z","id":"103428","site":"Helsinki","to_timestamp":"2016-10-20T12:04:00Z","uncertainty_Be-7-uncertainty":5.0,"uncertainty_Cs-137-uncertainty":12.0,"uncertainty_Pb-210-uncertainty":5.0},"type":"Feature"},{"geometry":{"coordinates":[25.05385,60.20905],"type":"Point"},"properties":{"concentration_Be-7":3568.5,"concentration_Cs-137":0.6,"concentration_I-131":0.9,"concentration_air-volume":24912.0,"from_timestamp":"2016-10-20T12:05:00Z","id":"103428","site":"Helsinki","to_timestamp":"2016-10-27T10:46:00Z","uncertainty_Be-7-uncertainty":10.0,"uncertainty_Cs-137-uncertainty":27.0,"uncertainty_I-131-uncertainty":25.0},"type":"Feature"},{"geometry":{"coordinates":[26.91808,60.48318],"type":"Point"},"properties":{"concentration_Be-7":1548.6,"concentration_Cs-137":2.1,"concentration_Na-22":0.2,"concentration_Pb-210":601.7,"concentration_air-volume":138526.0,"from_timestamp":"2016-10-10T07:31:00Z","id":"103429","site":"Kotka","to_timestamp":"2016-10-17T08:10:00Z","uncertainty_Be-7-uncertainty":7.0,"uncertainty_Cs-137-uncertainty":7.0,"uncertainty_Na-22-uncertainty":21.0,"uncertainty_Pb-210-uncertainty":22.0},"type":"Feature"},{"geometry":{"coordinates":[26.91808,60.48318],"type":"Point"},"properties":{"concentration_Be-7":3092.6,"concentration_Cs-137":2.9,"concentration_I-131":1.1,"concentration_Na-22":0.2,"concentration_Pb-210":914.5,"concentration_air-volume":186946.0,"from_timestamp":"2016-10-17T08:11:00Z","id":"103429","site":"Kotka","to_timestamp":"2016-10-28T10:20:00Z","uncertainty_Be-7-uncertainty":7.0,"uncertainty_Cs-137-uncertainty":7.0,"uncertainty_I-131-uncertainty":10.0,"uncertainty_Na-22-uncertainty":14.0,"uncertainty_Pb-210-uncertainty":16.0},"type":"Feature"},{"geometry":{"coordinates":[28.82663,61.13229],"type":"Point"},"properties":{"concentration_Be-7":1889.6,"concentration_Cs-137":1.2,"concentration_air-volume":21709.0,"from_timestamp":"2016-10-13T04:25:00Z","id":"103430","site":"Imatra","to_timestamp":"2016-10-20T12:00:00Z","uncertainty_Be-7-uncertainty":6.0,"uncertainty_Cs-137-uncertainty":14.0},"type":"Feature"},{"geometry":{"coordinates":[28.82663,61.13229],"type":"Point"},"properties":{"concentration_Be-7":4154.7,"concentration_I-131":1.5,"concentration_Pb-210":788.3,"concentration_air-volume":19896.0,"from_timestamp":"2016-10-20T12:02:00Z","id":"103430","site":"Imatra","to_timestamp":"2016-10-27T05:10:00Z","uncertainty_Be-7-uncertainty":5.0,"uncertainty_I-131-uncertainty":21.0,"uncertainty_Pb-210-uncertainty":5.0},"type":"Feature"},{"geometry":{"coordinates":[27.57,68.64],"type":"Point"},"properties":{"concentration_Be-7":704.5,"concentration_air-volume":30576.0,"from_timestamp":"2016-10-10T06:14:00Z","id":"103431","site":"Ivalo","to_timestamp":"2016-10-17T05:27:00Z","uncertainty_Be-7-uncertainty":6.0},"type":"Feature"},{"geometry":{"coordinates":[27.57,68.64],"type":"Point"},"properties":{"concentration_Be-7":1446.7,"concentration_air-volume":27206.0,"from_timestamp":"2016-10-17T05:29:00Z","id":"103431","site":"Ivalo","to_timestamp":"2016-10-24T05:20:00Z","uncertainty_Be-7-uncertainty":6.0},"type":"Feature"},{"geometry":{"coordinates":[27.63414,62.89195],"type":"Point"},"properties":{"concentration_Be-7":1269.2,"concentration_Pb-210":55.2,"concentration_air-volume":25397.0,"from_timestamp":"2016-10-10T06:40:00Z","id":"103432","site":"Kuopio","to_timestamp":"2016-10-17T05:51:00Z","uncertainty_Be-7-uncertainty":6.0,"uncertainty_Pb-210-uncertainty":20.0},"type":"Feature"},{"geometry":{"coordinates":[27.63414,62.89195],"type":"Point"},"properties":{"concentration_Be-7":4015.6,"concentration_Cs-137":0.7,"concentration_I-131":1.1,"concentration_Na-22":0.6,"concentration_Pb-210":506.1,"concentration_air-volume":25343.0,"from_timestamp":"2016-10-17T05:52:00Z","id":"103432","site":"Kuopio","to_timestamp":"2016-10-24T06:10:00Z","uncertainty_Be-7-uncertainty":5.0,"uncertainty_Cs-137-uncertainty":16.0,"uncertainty_I-131-uncertainty":16.0,"uncertainty_Na-22-uncertainty":23.0,"uncertainty_Pb-210-uncertainty":5.0},"type":"Feature"},{"geometry":{"coordinates":[25.67774,66.51285],"type":"Point"},"properties":{"concentration_Be-7":1440.7,"concentration_Cs-137":0.2,"concentration_Pb-210":863.3,"concentration_air-volume":140026.0,"from_timestamp":"2016-10-10T07:10:00Z","id":"103433","site":"Rovaniemi","to_timestamp":"2016-10-17T07:28:00Z","uncertainty_Be-7-uncertainty":7.0,"uncertainty_Cs-137-uncertainty":11.0,"uncertainty_Pb-210-uncertainty":18.0},"type":"Feature"},{"geometry":{"coordinates":[25.67774,66.51285],"type":"Point"},"properties":{"concentration_Be-7":2836.1,"concentration_Cs-137":0.8,"concentration_I-131":0.4,"concentration_Na-22":0.3,"concentration_Pb-210":1043.4,"concentration_air-volume":141903.0,"from_timestamp":"2016-10-17T07:35:00Z","id":"103433","site":"Rovaniemi","to_timestamp":"2016-10-24T07:48:00Z","uncertainty_Be-7-uncertainty":7.0,"uncertainty_Cs-137-uncertainty":8.0,"uncertainty_I-131-uncertainty":17.0,"uncertainty_Na-22-uncertainty":17.0,"uncertainty_Pb-210-uncertainty":20.0},"type":"Feature"},{"geometry":{"coordinates":[26.62807,67.36505],"type":"Point"},"properties":{"concentration_Be-7":1587.0,"concentration_Pb-210":368.6,"concentration_air-volume":21883.0,"from_timestamp":"2016-10-10T06:26:00Z","id":"103434","site":"Sodankylä","to_timestamp":"2016-10-17T06:35:00Z","uncertainty_Be-7-uncertainty":5.0,"uncertainty_Pb-210-uncertainty":5.0},"type":"Feature"},{"geometry":{"coordinates":[26.62807,67.36505],"type":"Point"},"properties":{"concentration_Be-7":1821.8,"concentration_Pb-210":402.9,"concentration_air-volume":25936.0,"from_timestamp":"2016-10-17T06:35:00Z","id":"103434","site":"Sodankylä","to_timestamp":"2016-10-24T06:40:00Z","uncertainty_Be-7-uncertainty":5.0,"uncertainty_Pb-210-uncertainty":5.0},"type":"Feature"},{"geometry":{"coordinates":[27.70835,64.08474],"type":"Point"},"properties":{"concentration_Be-7":1097.2,"concentration_Cs-137":0.3,"concentration_Pb-210":639.1,"concentration_air-volume":153546.0,"from_timestamp":"2016-10-10T05:05:00Z","id":"103435","site":"Kajaani","to_timestamp":"2016-10-17T12:02:00Z","uncertainty_Be-7-uncertainty":7.0,"uncertainty_Cs-137-uncertainty":11.0,"uncertainty_Pb-210-uncertainty":21.0},"type":"Feature"},{"geometry":{"coordinates":[27.70835,64.08474],"type":"Point"},"properties":{"concentration_Be-7":3870.3,"concentration_Cs-137":0.8,"concentration_I-131":1.0,"concentration_Na-22":0.4,"concentration_Pb-210":776.2,"concentration_air-volume":144207.0,"from_timestamp":"2016-10-17T12:02:00Z","id":"103435","site":"Kajaani","to_timestamp":"2016-10-22T09:15:00Z","uncertainty_Be-7-uncertainty":7.0,"uncertainty_Cs-137-uncertainty":8.0,"uncertainty_I-131-uncertainty":10.0,"uncertainty_Na-22-uncertainty":12.0,"uncertainty_Pb-210-uncertainty":22.0},"type":"Feature"},{"geometry":{"coordinates":[27.70835,64.08474],"type":"Point"},"properties":{"concentration_Be-7":667.4,"concentration_Cs-137":0.2,"concentration_I-131":0.3,"concentration_Pb-210":774.6,"concentration_air-volume":141293.0,"from_timestamp":"2016-10-22T09:17:00Z","id":"103435","site":"Kajaani","to_timestamp":"2016-10-31T06:40:00Z","uncertainty_Be-7-uncertainty":7.0,"uncertainty_Cs-137-uncertainty":15.0,"uncertainty_I-131-uncertainty":24.0,"uncertainty_Pb-210-uncertainty":18.0},"type":"Feature"},{"geometry":{"coordinates":[25.05385,60.20905],"type":"Point"},"properties":{"concentration_Be-7":1753.5,"concentration_Cs-137":1.0,"concentration_Pb-210":379.0,"concentration_air-volume":25725.0,"from_timestamp":"2016-10-13T11:17:00Z","id":"103428","site":"Helsinki","to_timestamp":"2016-10-20T12:04:00Z","uncertainty_Be-7-uncertainty":5.0,"uncertainty_Cs-137-uncertainty":12.0,"uncertainty_Pb-210-uncertainty":5.0},"type":"Feature"},{"geometry":{"coordinates":[25.05385,60.20905],"type":"Point"},"properties":{"concentration_Be-7":3568.5,"concentration_Cs-137":0.6,"concentration_I-131":0.9,"concentration_air-volume":24912.0,"from_timestamp":"2016-10-20T12:05:00Z","id":"103428","site":"Helsinki","to_timestamp":"2016-10-27T10:46:00Z","uncertainty_Be-7-uncertainty":10.0,"uncertainty_Cs-137-uncertainty":27.0,"uncertainty_I-131-uncertainty":25.0},"type":"Feature"}],"name":"stuk_open_data_air_radionuclides","type":"FeatureCollection"}