{"crs":{"properties":{"name":"urn:ogc:def:crs:OGC:1.3:CRS84"},"type":"name"},"features":[{"geometry":{"coordinates":[25.05385,60.20905],"type":"Point"},"properties":{"concentration_Be-7":2229.9,"concentration_Cs-137":7.8,"concentration_Pb-210":52.8,"concentration_air-volume":24026.0,"from_timestamp":"2016-08-04T13:15:00Z","id":"103428","site":"Helsinki","to_timestamp":"2016-08-11T12:08:00Z","uncertainty_Be-7-uncertainty":6.0,"uncertainty_Cs-137-uncertainty":7.0,"uncertainty_Pb-210-uncertainty":24.0},"type":"Feature"},{"geometry":{"coordinates":[25.05385,60.20905],"type":"Point"},"properties":{"concentration_Be-7":1981.0,"concentration_Cs-137":0.5,"concentration_air-volume":24432.0,"from_timestamp":"2016-08-11T12:10:00Z","id":"103428","site":"Helsinki","to_timestamp":"2016-08-18T12:37:00Z","uncertainty_Be-7-uncertainty":6.0,"uncertainty_Cs-137-uncertainty":25.0},"type":"Feature"},{"geometry":{"coordinates":[26.91808,60.48318],"type":"Point"},"properties":{"concentration_Be-7":2270.8,"concentration_Cs-137":0.5,"concentration_Na-22":0.3,"concentration_Pb-210":234.0,"concentration_air-volume":116324.0,"from_timestamp":"2016-08-02T05:34:00Z","id":"103429","site":"Kotka","to_timestamp":"2016-08-08T08:50:00Z","uncertainty_Be-7-uncertainty":5.0,"uncertainty_Cs-137-uncertainty":8.0,"uncertainty_Na-22-uncertainty":13.0,"uncertainty_Pb-210-uncertainty":5.0},"type":"Feature"},{"geometry":{"coordinates":[26.91808,60.48318],"type":"Point"},"properties":{"concentration_Be-7":2575.2,"concentration_Cs-137":0.5,"concentration_air-volume":133092.0,"from_timestamp":"2016-08-08T08:57:00Z","id":"103429","site":"Kotka","to_timestamp":"2016-08-15T09:40:00Z","uncertainty_Be-7-uncertainty":7.0,"uncertainty_Cs-137-uncertainty":8.0},"type":"Feature"},{"geometry":{"coordinates":[28.82663,61.13229],"type":"Point"},"properties":{"concentration_Be-7":3649.5,"concentration_Pb-210":292.3,"concentration_air-volume":13053.0,"from_timestamp":"2016-08-02T13:40:00Z","id":"103430","site":"Imatra","to_timestamp":"2016-08-07T04:55:00Z","uncertainty_Be-7-uncertainty":5.0,"uncertainty_Pb-210-uncertainty":5.0},"type":"Feature"},{"geometry":{"coordinates":[28.82663,61.13229],"type":"Point"},"properties":{"concentration_Be-7":2502.6,"concentration_Cs-137":0.7,"concentration_Na-22":0.3,"concentration_Pb-210":148.5,"concentration_air-volume":25886.0,"from_timestamp":"2016-08-07T05:00:00Z","id":"103430","site":"Imatra","to_timestamp":"2016-08-16T11:30:00Z","uncertainty_Be-7-uncertainty":6.0,"uncertainty_Cs-137-uncertainty":11.0,"uncertainty_Na-22-uncertainty":27.0,"uncertainty_Pb-210-uncertainty":20.0},"type":"Feature"},{"geometry":{"coordinates":[27.57,68.64],"type":"Point"},"properties":{"concentration_Be-7":1755.7,"concentration_Na-22":0.6,"concentration_Pb-210":121.0,"concentration_air-volume":26090.0,"from_timestamp":"2016-08-04T05:07:00Z","id":"103431","site":"Ivalo","to_timestamp":"2016-08-11T06:39:00Z","uncertainty_Be-7-uncertainty":6.0,"uncertainty_Na-22-uncertainty":25.0,"uncertainty_Pb-210-uncertainty":20.0},"type":"Feature"},{"geometry":{"coordinates":[27.57,68.64],"type":"Point"},"properties":{"concentration_Be-7":2234.5,"concentration_Pb-210":139.0,"concentration_air-volume":26177.0,"from_timestamp":"2016-08-11T06:41:00Z","id":"103431","site":"Ivalo","to_timestamp":"2016-08-18T05:21:00Z","uncertainty_Be-7-uncertainty":5.0,"uncertainty_Pb-210-uncertainty":5.0},"type":"Feature"},{"geometry":{"coordinates":[27.63414,62.89195],"type":"Point"},"properties":{"concentration_Be-7":2678.4,"concentration_Cs-137":0.9,"concentration_air-volume":24629.0,"from_timestamp":"2016-08-01T06:09:00Z","id":"103432","site":"Kuopio","to_timestamp":"2016-08-08T06:37:00Z","uncertainty_Be-7-uncertainty":6.0,"uncertainty_Cs-137-uncertainty":18.0},"type":"Feature"},{"geometry":{"coordinates":[27.63414,62.89195],"type":"Point"},"properties":{"concentration_Be-7":1982.3,"concentration_Cs-137":0.6,"concentration_air-volume":24682.0,"from_timestamp":"2016-08-08T06:38:00Z","id":"103432","site":"Kuopio","to_timestamp":"2016-08-15T06:14:00Z","uncertainty_Be-7-uncertainty":6.0,"uncertainty_Cs-137-uncertainty":22.0},"type":"Feature"},{"geometry":{"coordinates":[25.67774,66.51285],"type":"Point"},"properties":{"concentration_Be-7":1297.3,"concentration_air-volume":23108.0,"from_timestamp":"2016-08-01T07:32:00Z","id":"103433","site":"Rovaniemi","to_timestamp":"2016-08-08T07:19:00Z","uncertainty_Be-7-uncertainty":7.0},"type":"Feature"},{"geometry":{"coordinates":[25.67774,66.51285],"type":"Point"},"properties":{"concentration_Be-7":1348.6,"concentration_Cs-137":0.1,"concentration_Pb-210":113.5,"concentration_air-volume":141618.0,"from_timestamp":"2016-08-08T11:26:00Z","id":"103433","site":"Rovaniemi","to_timestamp":"2016-08-15T07:10:00Z","uncertainty_Be-7-uncertainty":5.0,"uncertainty_Cs-137-uncertainty":22.0,"uncertainty_Pb-210-uncertainty":5.0},"type":"Feature"},{"geometry":{"coordinates":[26.62807,67.36505],"type":"Point"},"properties":{"concentration_Be-7":2281.9,"concentration_Pb-210":126.2,"concentration_air-volume":23844.0,"from_timestamp":"2016-08-01T06:42:00Z","id":"103434","site":"Sodankylä","to_timestamp":"2016-08-08T06:54:00Z","uncertainty_Be-7-uncertainty":6.0,"uncertainty_Pb-210-uncertainty":20.0},"type":"Feature"},{"geometry":{"coordinates":[26.62807,67.36505],"type":"Point"},"properties":{"concentration_Be-7":1787.9,"concentration_Cs-137":0.5,"concentration_Pb-210":95.9,"concentration_air-volume":23876.0,"from_timestamp":"2016-08-08T06:55:00Z","id":"103434","site":"Sodankylä","to_timestamp":"2016-08-15T06:53:00Z","uncertainty_Be-7-uncertainty":6.0,"uncertainty_Cs-137-uncertainty":19.0,"uncertainty_Pb-210-uncertainty":20.0},"type":"Feature"},{"geometry":{"coordinates":[27.70835,64.08474],"type":"Point"},"properties":{"concentration_Be-7":2758.8,"concentration_Cs-137":0.7,"concentration_Na-22":0.3,"concentration_Pb-210":522.7,"concentration_air-volume":217265.0,"from_timestamp":"2016-07-25T05:06:00Z","id":"103435","site":"Kajaani","to_timestamp":"2016-08-05T08:31:00Z","uncertainty_Be-7-uncertainty":7.0,"uncertainty_Cs-137-uncertainty":8.0,"uncertainty_Na-22-uncertainty":12.0,"uncertainty_Pb-210-uncertainty":25.0},"type":"Feature"},{"geometry":{"coordinates":[27.70835,64.08474],"type":"Point"},"properties":{"concentration_Be-7":2285.0,"concentration_Cs-137":0.6,"concentration_Pb-210":874.4,"concentration_air-volume":57886.0,"from_timestamp":"2016-08-05T08:31:00Z","id":"103435","site":"Kajaani","to_timestamp":"2016-08-08T05:15:00Z","uncertainty_Be-7-uncertainty":7.0,"uncertainty_Cs-137-uncertainty":11.0,"uncertainty_Pb-210-uncertainty":27.0},"type":"Feature"},{"geometry":{"coordinates":[27.70835,64.08474],"type":"Point"},"properties":{"concentration_Be-7":1616.5,"concentration_Cs-137":0.8,"concentration_Na-22":0.2,"concentration_Pb-210":155.7,"concentration_air-volume":198967.0,"from_timestamp":"2016-08-08T05:18:00Z","id":"103435","site":"Kajaani","to_timestamp":"2016-08-18T17:22:00Z","uncertainty_Be-7-uncertainty":5.0,"uncertainty_Cs-137-uncertainty":6.0,"uncertainty_Na-22-uncertainty":16.0,"uncertainty_Pb-210-uncertainty":5.0},"type":"Feature"},{"geometry":{"coordinates":[25.05385,60.20905],"type":"Point"},"properties":{"concentration_Be-7":2229.9,"concentration_Cs-137":7.8,"concentration_Pb-210":52.8,"concentration_air-volume":24026.0,"from_timestamp":"2016-08-04T13:15:00Z","id":"103428","site":"Helsinki","to_timestamp":"2016-08-11T12:08:00Z","uncertainty_Be-7-uncertainty":6.0,"uncertainty_Cs-137-uncertainty":7.0,"uncertainty_Pb-210-uncertainty":24.0},"type":"Feature"},{"geometry":{"coordinates":[25.05385,60.20905],"type":"Point"},"properties":{"concentration_Be-7":1981.0,"concentration_Cs-137":0.5,"concentration_air-volume":24432.0,"from_timestamp":"2016-08-11T12:10:00Z","id":"103428","site":"Helsinki","to_timestamp":"2016-08-18T12:37:00Z","uncertainty_Be-7-uncertainty":6.0,"uncertainty_Cs-137-uncertainty":25.0},"type":"Feature"}],"name":"stuk_open_data_air_radionuclides","type":"FeatureCollection"}