{"crs":{"properties":{"name":"urn:ogc:def:crs:OGC:1.3:CRS84"},"type":"name"},"features":[{"geometry":{"coordinates":[25.05385,60.20905],"type":"Point"},"properties":{"concentration_Be-7":1958.7,"concentration_Cs-137":1.8,"concentration_air-volume":24598.0,"from_timestamp":"2016-09-01T11:04:00Z","id":"103428","site":"Helsinki","to_timestamp":"2016-09-08T12:32:00Z","uncertainty_Be-7-uncertainty":6.0,"uncertainty_Cs-137-uncertainty":9.0},"type":"Feature"},{"geometry":{"coordinates":[25.05385,60.20905],"type":"Point"},"properties":{"concentration_Be-7":1830.0,"concentration_Cs-137":0.8,"concentration_Pb-210":322.2,"concentration_air-volume":23952.0,"from_timestamp":"2016-09-08T12:34:00Z","id":"103428","site":"Helsinki","to_timestamp":"2016-09-15T07:33:00Z","uncertainty_Be-7-uncertainty":5.0,"uncertainty_Cs-137-uncertainty":15.0,"uncertainty_Pb-210-uncertainty":5.0},"type":"Feature"},{"geometry":{"coordinates":[26.91808,60.48318],"type":"Point"},"properties":{"concentration_Be-7":1898.7,"concentration_Cs-137":2.6,"concentration_Na-22":0.3,"concentration_air-volume":133186.0,"from_timestamp":"2016-09-05T07:36:00Z","id":"103429","site":"Kotka","to_timestamp":"2016-09-12T08:10:00Z","uncertainty_Be-7-uncertainty":7.0,"uncertainty_Cs-137-uncertainty":7.0,"uncertainty_Na-22-uncertainty":20.0},"type":"Feature"},{"geometry":{"coordinates":[26.91808,60.48318],"type":"Point"},"properties":{"concentration_Be-7":1502.0,"concentration_Cs-137":1.4,"concentration_Na-22":0.1,"concentration_air-volume":138823.0,"from_timestamp":"2016-09-12T08:19:00Z","id":"103429","site":"Kotka","to_timestamp":"2016-09-19T14:30:00Z","uncertainty_Be-7-uncertainty":7.0,"uncertainty_Cs-137-uncertainty":8.0,"uncertainty_Na-22-uncertainty":28.0},"type":"Feature"},{"geometry":{"coordinates":[28.82663,61.13229],"type":"Point"},"properties":{"concentration_Be-7":2645.2,"concentration_Cs-137":1.5,"concentration_Na-22":0.4,"concentration_Pb-210":240.8,"concentration_air-volume":34548.0,"from_timestamp":"2016-08-27T05:07:00Z","id":"103430","site":"Imatra","to_timestamp":"2016-09-08T12:10:00Z","uncertainty_Be-7-uncertainty":5.0,"uncertainty_Cs-137-uncertainty":8.0,"uncertainty_Na-22-uncertainty":29.0,"uncertainty_Pb-210-uncertainty":5.0},"type":"Feature"},{"geometry":{"coordinates":[28.82663,61.13229],"type":"Point"},"properties":{"concentration_Be-7":1909.7,"concentration_Cs-137":1.4,"concentration_Pb-210":46.3,"concentration_air-volume":30301.0,"from_timestamp":"2016-09-08T12:20:00Z","id":"103430","site":"Imatra","to_timestamp":"2016-09-19T05:30:00Z","uncertainty_Be-7-uncertainty":6.0,"uncertainty_Cs-137-uncertainty":10.0,"uncertainty_Pb-210-uncertainty":21.0},"type":"Feature"},{"geometry":{"coordinates":[27.57,68.64],"type":"Point"},"properties":{"concentration_Be-7":1161.9,"concentration_Pb-210":139.7,"concentration_air-volume":26368.0,"from_timestamp":"2016-09-05T05:11:00Z","id":"103431","site":"Ivalo","to_timestamp":"2016-09-12T05:03:00Z","uncertainty_Be-7-uncertainty":5.0,"uncertainty_Pb-210-uncertainty":5.0},"type":"Feature"},{"geometry":{"coordinates":[27.57,68.64],"type":"Point"},"properties":{"concentration_Be-7":1700.6,"concentration_air-volume":26600.0,"from_timestamp":"2016-09-12T05:05:00Z","id":"103431","site":"Ivalo","to_timestamp":"2016-09-19T05:12:00Z","uncertainty_Be-7-uncertainty":6.0},"type":"Feature"},{"geometry":{"coordinates":[27.63414,62.89195],"type":"Point"},"properties":{"concentration_Be-7":1248.8,"concentration_Cs-137":1.5,"concentration_air-volume":24827.0,"from_timestamp":"2016-09-05T05:46:00Z","id":"103432","site":"Kuopio","to_timestamp":"2016-09-12T06:25:00Z","uncertainty_Be-7-uncertainty":6.0,"uncertainty_Cs-137-uncertainty":12.0},"type":"Feature"},{"geometry":{"coordinates":[27.63414,62.89195],"type":"Point"},"properties":{"concentration_Be-7":1932.2,"concentration_Cs-137":0.7,"concentration_Pb-210":189.3,"concentration_air-volume":24726.0,"from_timestamp":"2016-09-12T06:26:00Z","id":"103432","site":"Kuopio","to_timestamp":"2016-09-19T06:23:00Z","uncertainty_Be-7-uncertainty":5.0,"uncertainty_Cs-137-uncertainty":16.0,"uncertainty_Pb-210-uncertainty":5.0},"type":"Feature"},{"geometry":{"coordinates":[25.67774,66.51285],"type":"Point"},"properties":{"concentration_Be-7":1805.9,"concentration_Cs-137":0.6,"concentration_Na-22":0.2,"concentration_Pb-210":203.7,"concentration_air-volume":141278.0,"from_timestamp":"2016-09-05T07:26:00Z","id":"103433","site":"Rovaniemi","to_timestamp":"2016-09-12T06:45:00Z","uncertainty_Be-7-uncertainty":5.0,"uncertainty_Cs-137-uncertainty":8.0,"uncertainty_Na-22-uncertainty":24.0,"uncertainty_Pb-210-uncertainty":5.0},"type":"Feature"},{"geometry":{"coordinates":[25.67774,66.51285],"type":"Point"},"properties":{"concentration_Be-7":1703.6,"concentration_Cs-137":0.4,"concentration_Na-22":0.2,"concentration_Pb-210":493.5,"concentration_air-volume":138606.0,"from_timestamp":"2016-09-12T06:52:00Z","id":"103433","site":"Rovaniemi","to_timestamp":"2016-09-19T11:36:00Z","uncertainty_Be-7-uncertainty":7.0,"uncertainty_Cs-137-uncertainty":9.0,"uncertainty_Na-22-uncertainty":21.0,"uncertainty_Pb-210-uncertainty":25.0},"type":"Feature"},{"geometry":{"coordinates":[26.62807,67.36505],"type":"Point"},"properties":{"concentration_Be-7":1429.9,"concentration_Cs-137":0.5,"concentration_air-volume":24418.0,"from_timestamp":"2016-09-05T06:29:00Z","id":"103434","site":"Sodankylä","to_timestamp":"2016-09-12T06:39:00Z","uncertainty_Be-7-uncertainty":6.0,"uncertainty_Cs-137-uncertainty":29.0},"type":"Feature"},{"geometry":{"coordinates":[26.62807,67.36505],"type":"Point"},"properties":{"concentration_Be-7":1803.3,"concentration_Cs-137":0.7,"concentration_Pb-210":220.6,"concentration_air-volume":24735.0,"from_timestamp":"2016-09-12T06:39:00Z","id":"103434","site":"Sodankylä","to_timestamp":"2016-09-19T06:25:00Z","uncertainty_Be-7-uncertainty":6.0,"uncertainty_Cs-137-uncertainty":17.0,"uncertainty_Pb-210-uncertainty":20.0},"type":"Feature"},{"geometry":{"coordinates":[27.70835,64.08474],"type":"Point"},"properties":{"concentration_Be-7":1760.6,"concentration_Cs-137":1.2,"concentration_Na-22":0.2,"concentration_Pb-210":403.1,"concentration_air-volume":226895.0,"from_timestamp":"2016-09-05T11:14:00Z","id":"103435","site":"Kajaani","to_timestamp":"2016-09-19T04:35:00Z","uncertainty_Be-7-uncertainty":7.0,"uncertainty_Cs-137-uncertainty":7.0,"uncertainty_Na-22-uncertainty":15.0,"uncertainty_Pb-210-uncertainty":25.0},"type":"Feature"},{"geometry":{"coordinates":[25.05385,60.20905],"type":"Point"},"properties":{"concentration_Be-7":1958.7,"concentration_Cs-137":1.8,"concentration_air-volume":24598.0,"from_timestamp":"2016-09-01T11:04:00Z","id":"103428","site":"Helsinki","to_timestamp":"2016-09-08T12:32:00Z","uncertainty_Be-7-uncertainty":6.0,"uncertainty_Cs-137-uncertainty":9.0},"type":"Feature"},{"geometry":{"coordinates":[25.05385,60.20905],"type":"Point"},"properties":{"concentration_Be-7":1830.0,"concentration_Cs-137":0.8,"concentration_Pb-210":322.2,"concentration_air-volume":23952.0,"from_timestamp":"2016-09-08T12:34:00Z","id":"103428","site":"Helsinki","to_timestamp":"2016-09-15T07:33:00Z","uncertainty_Be-7-uncertainty":5.0,"uncertainty_Cs-137-uncertainty":15.0,"uncertainty_Pb-210-uncertainty":5.0},"type":"Feature"}],"name":"stuk_open_data_air_radionuclides","type":"FeatureCollection"}