{"crs":{"properties":{"name":"urn:ogc:def:crs:OGC:1.3:CRS84"},"type":"name"},"features":[{"geometry":{"coordinates":[25.05385,60.20905],"type":"Point"},"properties":{"concentration_Be-7":1350.3,"concentration_Cs-137":1.2,"concentration_air-volume":26201.0,"from_timestamp":"2016-12-01T08:48:00Z","id":"103428","site":"Helsinki","to_timestamp":"2016-12-08T12:55:00Z","uncertainty_Be-7-uncertainty":10.0,"uncertainty_Cs-137-uncertainty":13.0},"type":"Feature"},{"geometry":{"coordinates":[25.05385,60.20905],"type":"Point"},"properties":{"concentration_Be-7":2157.6,"concentration_Cs-137":1.5,"concentration_Pb-210":65.5,"concentration_air-volume":26152.0,"from_timestamp":"2016-12-08T12:55:00Z","id":"103428","site":"Helsinki","to_timestamp":"2016-12-15T12:33:00Z","uncertainty_Be-7-uncertainty":6.0,"uncertainty_Cs-137-uncertainty":10.0,"uncertainty_Pb-210-uncertainty":19.0},"type":"Feature"},{"geometry":{"coordinates":[26.91808,60.48318],"type":"Point"},"properties":{"concentration_Be-7":1438.8,"concentration_Cs-137":1.9,"concentration_Na-22":0.1,"concentration_Pb-210":610.6,"concentration_air-volume":134052.0,"from_timestamp":"2016-11-28T07:29:00Z","id":"103429","site":"Kotka","to_timestamp":"2016-12-05T07:55:00Z","uncertainty_Be-7-uncertainty":7.0,"uncertainty_Cs-137-uncertainty":7.0,"uncertainty_Na-22-uncertainty":29.0,"uncertainty_Pb-210-uncertainty":21.0},"type":"Feature"},{"geometry":{"coordinates":[26.91808,60.48318],"type":"Point"},"properties":{"concentration_Be-7":1429.5,"concentration_Cs-137":1.4,"concentration_air-volume":140715.0,"from_timestamp":"2016-12-05T07:58:00Z","id":"103429","site":"Kotka","to_timestamp":"2016-12-12T08:08:00Z","uncertainty_Be-7-uncertainty":7.0,"uncertainty_Cs-137-uncertainty":8.0},"type":"Feature"},{"geometry":{"coordinates":[28.82663,61.13229],"type":"Point"},"properties":{"concentration_Be-7":1880.6,"concentration_Cs-137":2.2,"concentration_Pb-210":84.4,"concentration_air-volume":20877.0,"from_timestamp":"2016-12-05T04:40:00Z","id":"103430","site":"Imatra","to_timestamp":"2016-12-12T04:30:00Z","uncertainty_Be-7-uncertainty":6.0,"uncertainty_Cs-137-uncertainty":11.0,"uncertainty_Pb-210-uncertainty":22.0},"type":"Feature"},{"geometry":{"coordinates":[28.82663,61.13229],"type":"Point"},"properties":{"concentration_Be-7":1182.1,"concentration_Cs-137":2.0,"concentration_Pb-210":249.2,"concentration_air-volume":21382.0,"from_timestamp":"2016-11-28T07:00:00Z","id":"103430","site":"Imatra","to_timestamp":"2016-12-05T04:20:00Z","uncertainty_Be-7-uncertainty":5.0,"uncertainty_Cs-137-uncertainty":10.0,"uncertainty_Pb-210-uncertainty":5.0},"type":"Feature"},{"geometry":{"coordinates":[27.57,68.64],"type":"Point"},"properties":{"concentration_Be-7":1165.9,"concentration_Pb-210":183.2,"concentration_air-volume":26264.0,"from_timestamp":"2016-11-28T06:26:00Z","id":"103431","site":"Ivalo","to_timestamp":"2016-12-05T05:28:00Z","uncertainty_Be-7-uncertainty":5.0,"uncertainty_Pb-210-uncertainty":5.0},"type":"Feature"},{"geometry":{"coordinates":[27.57,68.64],"type":"Point"},"properties":{"concentration_Be-7":1688.5,"concentration_Pb-210":213.3,"concentration_air-volume":26318.0,"from_timestamp":"2016-12-05T05:31:00Z","id":"103431","site":"Ivalo","to_timestamp":"2016-12-12T05:20:00Z","uncertainty_Be-7-uncertainty":5.0,"uncertainty_Pb-210-uncertainty":5.0},"type":"Feature"},{"geometry":{"coordinates":[27.63414,62.89195],"type":"Point"},"properties":{"concentration_Be-7":1173.9,"concentration_Cs-137":0.5,"concentration_Pb-210":54.1,"concentration_air-volume":25430.0,"from_timestamp":"2016-11-28T06:32:00Z","id":"103432","site":"Kuopio","to_timestamp":"2016-12-05T05:40:00Z","uncertainty_Be-7-uncertainty":6.0,"uncertainty_Cs-137-uncertainty":25.0,"uncertainty_Pb-210-uncertainty":29.0},"type":"Feature"},{"geometry":{"coordinates":[27.63414,62.89195],"type":"Point"},"properties":{"concentration_Be-7":1703.5,"concentration_Cs-137":0.3,"concentration_Pb-210":251.6,"concentration_air-volume":25720.0,"from_timestamp":"2016-12-05T05:45:00Z","id":"103432","site":"Kuopio","to_timestamp":"2016-12-12T06:23:00Z","uncertainty_Be-7-uncertainty":5.0,"uncertainty_Cs-137-uncertainty":29.0,"uncertainty_Pb-210-uncertainty":5.0},"type":"Feature"},{"geometry":{"coordinates":[25.67774,66.51285],"type":"Point"},"properties":{"concentration_Be-7":1197.3,"concentration_Cs-137":0.3,"concentration_Pb-210":205.5,"concentration_air-volume":148452.0,"from_timestamp":"2016-11-28T07:48:00Z","id":"103433","site":"Rovaniemi","to_timestamp":"2016-12-05T07:53:00Z","uncertainty_Be-7-uncertainty":5.0,"uncertainty_Cs-137-uncertainty":9.0,"uncertainty_Pb-210-uncertainty":5.0},"type":"Feature"},{"geometry":{"coordinates":[25.67774,66.51285],"type":"Point"},"properties":{"concentration_Be-7":1303.2,"concentration_Cs-137":0.5,"concentration_Pb-210":454.2,"concentration_air-volume":105124.0,"from_timestamp":"2016-12-05T07:58:00Z","id":"103433","site":"Rovaniemi","to_timestamp":"2016-12-12T07:38:00Z","uncertainty_Be-7-uncertainty":7.0,"uncertainty_Cs-137-uncertainty":9.0,"uncertainty_Pb-210-uncertainty":29.0},"type":"Feature"},{"geometry":{"coordinates":[26.62807,67.36505],"type":"Point"},"properties":{"concentration_Be-7":981.2,"concentration_Pb-210":161.8,"concentration_air-volume":29834.0,"from_timestamp":"2016-11-28T06:41:00Z","id":"103434","site":"Sodankylä","to_timestamp":"2016-12-05T06:32:00Z","uncertainty_Be-7-uncertainty":5.0,"uncertainty_Pb-210-uncertainty":5.0},"type":"Feature"},{"geometry":{"coordinates":[26.62807,67.36505],"type":"Point"},"properties":{"concentration_Be-7":1559.8,"concentration_Pb-210":210.5,"concentration_air-volume":25681.0,"from_timestamp":"2016-12-05T06:32:00Z","id":"103434","site":"Sodankylä","to_timestamp":"2016-12-12T06:12:00Z","uncertainty_Be-7-uncertainty":5.0,"uncertainty_Pb-210-uncertainty":5.0},"type":"Feature"},{"geometry":{"coordinates":[27.70835,64.08474],"type":"Point"},"properties":{"concentration_Be-7":538.3,"concentration_Cs-137":0.2,"concentration_Pb-210":340.7,"concentration_air-volume":293917.0,"from_timestamp":"2016-11-21T09:50:00Z","id":"103435","site":"Kajaani","to_timestamp":"2016-12-05T06:15:00Z","uncertainty_Be-7-uncertainty":7.0,"uncertainty_Cs-137-uncertainty":11.0,"uncertainty_Pb-210-uncertainty":21.0},"type":"Feature"},{"geometry":{"coordinates":[27.70835,64.08474],"type":"Point"},"properties":{"concentration_Be-7":640.6,"concentration_Cs-137":0.2,"concentration_Pb-210":289.6,"concentration_air-volume":172876.0,"from_timestamp":"2016-12-05T06:20:00Z","id":"103435","site":"Kajaani","to_timestamp":"2016-12-13T06:20:00Z","uncertainty_Be-7-uncertainty":7.0,"uncertainty_Cs-137-uncertainty":12.0,"uncertainty_Pb-210-uncertainty":26.0},"type":"Feature"}],"name":"stuk_open_data_air_radionuclides","type":"FeatureCollection"}