{"crs":{"properties":{"name":"urn:ogc:def:crs:OGC:1.3:CRS84"},"type":"name"},"features":[{"geometry":{"coordinates":[25.05385,60.20905],"type":"Point"},"properties":{"concentration_Be-7":1606.3,"concentration_Cs-137":0.9,"concentration_Pb-210":262.6,"concentration_air-volume":25665.0,"from_timestamp":"2016-03-31T10:44:00Z","id":"103428","site":"Helsinki","to_timestamp":"2016-04-07T11:42:00Z","uncertainty_Be-7-uncertainty":6.0,"uncertainty_Cs-137-uncertainty":12.0,"uncertainty_Pb-210-uncertainty":20.0},"type":"Feature"},{"geometry":{"coordinates":[25.05385,60.20905],"type":"Point"},"properties":{"concentration_Be-7":2315.0,"concentration_Cs-137":1.0,"concentration_Pb-210":214.6,"concentration_air-volume":25086.0,"from_timestamp":"2016-04-07T11:44:00Z","id":"103428","site":"Helsinki","to_timestamp":"2016-04-14T12:07:00Z","uncertainty_Be-7-uncertainty":5.0,"uncertainty_Cs-137-uncertainty":12.0,"uncertainty_Pb-210-uncertainty":5.0},"type":"Feature"},{"geometry":{"coordinates":[25.05385,60.20905],"type":"Point"},"properties":{"concentration_Be-7":2504.2,"concentration_Cs-137":1.6,"concentration_Na-22":0.7,"concentration_Pb-210":242.5,"concentration_air-volume":25452.0,"from_timestamp":"2016-04-14T12:12:00Z","id":"103428","site":"Helsinki","to_timestamp":"2016-04-21T11:15:00Z","uncertainty_Be-7-uncertainty":5.0,"uncertainty_Cs-137-uncertainty":9.0,"uncertainty_Na-22-uncertainty":21.0,"uncertainty_Pb-210-uncertainty":5.0},"type":"Feature"},{"geometry":{"coordinates":[26.91808,60.48318],"type":"Point"},"properties":{"concentration_Be-7":1620.8,"concentration_Cs-137":1.1,"concentration_Na-22":0.2,"concentration_air-volume":171562.0,"from_timestamp":"2016-04-04T12:10:00Z","id":"103429","site":"Kotka","to_timestamp":"2016-04-19T05:25:00Z","uncertainty_Be-7-uncertainty":7.0,"uncertainty_Cs-137-uncertainty":8.0,"uncertainty_Na-22-uncertainty":14.0},"type":"Feature"},{"geometry":{"coordinates":[28.82663,61.13229],"type":"Point"},"properties":{"concentration_Be-7":2385.0,"concentration_Cs-137":1.0,"concentration_Pb-210":290.4,"concentration_air-volume":21009.0,"from_timestamp":"2016-04-04T06:45:00Z","id":"103430","site":"Imatra","to_timestamp":"2016-04-11T06:20:00Z","uncertainty_Be-7-uncertainty":5.0,"uncertainty_Cs-137-uncertainty":15.0,"uncertainty_Pb-210-uncertainty":5.0},"type":"Feature"},{"geometry":{"coordinates":[28.82663,61.13229],"type":"Point"},"properties":{"concentration_Be-7":3018.3,"concentration_Cs-137":1.6,"concentration_Pb-210":175.4,"concentration_air-volume":21038.0,"from_timestamp":"2016-04-11T06:25:00Z","id":"103430","site":"Imatra","to_timestamp":"2016-04-18T06:00:00Z","uncertainty_Be-7-uncertainty":6.0,"uncertainty_Cs-137-uncertainty":9.0,"uncertainty_Pb-210-uncertainty":20.0},"type":"Feature"},{"geometry":{"coordinates":[27.57,68.64],"type":"Point"},"properties":{"concentration_Be-7":1152.3,"concentration_Cs-137":0.3,"concentration_Pb-210":179.1,"concentration_air-volume":25817.0,"from_timestamp":"2016-04-04T05:18:00Z","id":"103431","site":"Ivalo","to_timestamp":"2016-04-11T05:11:00Z","uncertainty_Be-7-uncertainty":6.0,"uncertainty_Cs-137-uncertainty":14.0,"uncertainty_Pb-210-uncertainty":20.0},"type":"Feature"},{"geometry":{"coordinates":[27.57,68.64],"type":"Point"},"properties":{"concentration_Be-7":1910.1,"concentration_Cs-137":0.3,"concentration_Na-22":0.3,"concentration_Pb-210":166.6,"concentration_air-volume":25960.0,"from_timestamp":"2016-04-11T05:13:00Z","id":"103431","site":"Ivalo","to_timestamp":"2016-04-18T05:09:00Z","uncertainty_Be-7-uncertainty":6.0,"uncertainty_Cs-137-uncertainty":24.0,"uncertainty_Na-22-uncertainty":24.0,"uncertainty_Pb-210-uncertainty":20.0},"type":"Feature"},{"geometry":{"coordinates":[27.63414,62.89195],"type":"Point"},"properties":{"concentration_Be-7":1450.2,"concentration_Cs-137":0.7,"concentration_Pb-210":133.9,"concentration_air-volume":25036.0,"from_timestamp":"2016-04-04T06:20:00Z","id":"103432","site":"Kuopio","to_timestamp":"2016-04-11T06:17:00Z","uncertainty_Be-7-uncertainty":6.0,"uncertainty_Cs-137-uncertainty":14.0,"uncertainty_Pb-210-uncertainty":20.0},"type":"Feature"},{"geometry":{"coordinates":[27.63414,62.89195],"type":"Point"},"properties":{"concentration_Be-7":2635.7,"concentration_Cs-137":0.5,"concentration_Pb-210":230.6,"concentration_air-volume":25651.0,"from_timestamp":"2016-04-11T06:18:00Z","id":"103432","site":"Kuopio","to_timestamp":"2016-04-18T06:26:00Z","uncertainty_Be-7-uncertainty":5.0,"uncertainty_Cs-137-uncertainty":24.0,"uncertainty_Pb-210-uncertainty":5.0},"type":"Feature"},{"geometry":{"coordinates":[25.67774,66.51285],"type":"Point"},"properties":{"concentration_Be-7":1165.2,"concentration_Cs-137":0.3,"concentration_Na-22":0.1,"concentration_air-volume":149586.0,"from_timestamp":"2016-04-04T07:33:00Z","id":"103433","site":"Rovaniemi","to_timestamp":"2016-04-11T06:48:00Z","uncertainty_Be-7-uncertainty":7.0,"uncertainty_Cs-137-uncertainty":11.0,"uncertainty_Na-22-uncertainty":13.0},"type":"Feature"},{"geometry":{"coordinates":[25.67774,66.51285],"type":"Point"},"properties":{"concentration_Be-7":1834.1,"concentration_Cs-137":0.3,"concentration_Na-22":0.2,"concentration_air-volume":126819.0,"from_timestamp":"2016-04-11T06:54:00Z","id":"103433","site":"Rovaniemi","to_timestamp":"2016-04-18T06:55:00Z","uncertainty_Be-7-uncertainty":7.0,"uncertainty_Cs-137-uncertainty":13.0,"uncertainty_Na-22-uncertainty":18.0},"type":"Feature"},{"geometry":{"coordinates":[26.62807,67.36505],"type":"Point"},"properties":{"concentration_Be-7":1085.9,"concentration_Cs-137":0.3,"concentration_Pb-210":195.3,"concentration_air-volume":25233.0,"from_timestamp":"2016-04-04T06:42:00Z","id":"103434","site":"Sodankylä","to_timestamp":"2016-04-11T06:08:00Z","uncertainty_Be-7-uncertainty":6.0,"uncertainty_Cs-137-uncertainty":7.0,"uncertainty_Pb-210-uncertainty":20.0},"type":"Feature"},{"geometry":{"coordinates":[26.62807,67.36505],"type":"Point"},"properties":{"concentration_Be-7":2208.8,"concentration_Pb-210":197.6,"concentration_air-volume":25531.0,"from_timestamp":"2016-04-11T06:09:00Z","id":"103434","site":"Sodankylä","to_timestamp":"2016-04-18T05:51:00Z","uncertainty_Be-7-uncertainty":5.0,"uncertainty_Pb-210-uncertainty":5.0},"type":"Feature"},{"geometry":{"coordinates":[27.70835,64.08474],"type":"Point"},"properties":{"concentration_Be-7":1507.5,"concentration_Cs-137":0.2,"concentration_Na-22":0.2,"concentration_air-volume":141264.0,"from_timestamp":"2016-04-04T07:15:00Z","id":"103435","site":"Kajaani","to_timestamp":"2016-04-11T09:00:00Z","uncertainty_Be-7-uncertainty":7.0,"uncertainty_Cs-137-uncertainty":10.0,"uncertainty_Na-22-uncertainty":14.0},"type":"Feature"},{"geometry":{"coordinates":[27.70835,64.08474],"type":"Point"},"properties":{"concentration_Be-7":2630.0,"concentration_Cs-137":0.3,"concentration_Na-22":0.3,"concentration_Pb-210":232.8,"concentration_air-volume":175770.0,"from_timestamp":"2016-04-11T09:00:00Z","id":"103435","site":"Kajaani","to_timestamp":"2016-04-20T08:56:00Z","uncertainty_Be-7-uncertainty":5.0,"uncertainty_Cs-137-uncertainty":8.0,"uncertainty_Na-22-uncertainty":11.0,"uncertainty_Pb-210-uncertainty":5.0},"type":"Feature"},{"geometry":{"coordinates":[25.05385,60.20905],"type":"Point"},"properties":{"concentration_Be-7":1606.3,"concentration_Cs-137":0.9,"concentration_Pb-210":262.6,"concentration_air-volume":25665.0,"from_timestamp":"2016-03-31T10:44:00Z","id":"103428","site":"Helsinki","to_timestamp":"2016-04-07T11:42:00Z","uncertainty_Be-7-uncertainty":6.0,"uncertainty_Cs-137-uncertainty":12.0,"uncertainty_Pb-210-uncertainty":20.0},"type":"Feature"},{"geometry":{"coordinates":[25.05385,60.20905],"type":"Point"},"properties":{"concentration_Be-7":2315.0,"concentration_Cs-137":1.0,"concentration_Pb-210":214.6,"concentration_air-volume":25086.0,"from_timestamp":"2016-04-07T11:44:00Z","id":"103428","site":"Helsinki","to_timestamp":"2016-04-14T12:07:00Z","uncertainty_Be-7-uncertainty":5.0,"uncertainty_Cs-137-uncertainty":12.0,"uncertainty_Pb-210-uncertainty":5.0},"type":"Feature"},{"geometry":{"coordinates":[25.05385,60.20905],"type":"Point"},"properties":{"concentration_Be-7":2504.2,"concentration_Cs-137":1.6,"concentration_Na-22":0.7,"concentration_Pb-210":242.5,"concentration_air-volume":25452.0,"from_timestamp":"2016-04-14T12:12:00Z","id":"103428","site":"Helsinki","to_timestamp":"2016-04-21T11:15:00Z","uncertainty_Be-7-uncertainty":5.0,"uncertainty_Cs-137-uncertainty":9.0,"uncertainty_Na-22-uncertainty":21.0,"uncertainty_Pb-210-uncertainty":5.0},"type":"Feature"}],"name":"stuk_open_data_air_radionuclides","type":"FeatureCollection"}