{"crs":{"properties":{"name":"urn:ogc:def:crs:OGC:1.3:CRS84"},"type":"name"},"features":[{"geometry":{"coordinates":[25.05385,60.20905],"type":"Point"},"properties":{"concentration_Be-7":2504.7,"concentration_Na-22":0.6,"concentration_Pb-210":251.8,"concentration_air-volume":20407.0,"from_timestamp":"2017-08-04T13:56:00Z","id":"103428","site":"Helsinki","to_timestamp":"2017-08-10T12:29:00Z","uncertainty_Be-7-uncertainty":5.0,"uncertainty_Na-22-uncertainty":30.0,"uncertainty_Pb-210-uncertainty":5.0},"type":"Feature"},{"geometry":{"coordinates":[25.05385,60.20905],"type":"Point"},"properties":{"concentration_Be-7":4071.3,"concentration_Na-22":0.9,"concentration_Pb-210":419.0,"concentration_air-volume":24075.0,"from_timestamp":"2017-08-10T12:30:00Z","id":"103428","site":"Helsinki","to_timestamp":"2017-08-17T11:59:00Z","uncertainty_Be-7-uncertainty":5.0,"uncertainty_Na-22-uncertainty":23.0,"uncertainty_Pb-210-uncertainty":5.0},"type":"Feature"},{"geometry":{"coordinates":[26.91808,60.48318],"type":"Point"},"properties":{"concentration_Be-7":2510.0,"concentration_Cs-137":0.7,"concentration_Na-22":0.3,"concentration_Pb-210":465.9,"concentration_air-volume":153156.0,"from_timestamp":"2017-07-31T07:48:00Z","id":"103429","site":"Kotka","to_timestamp":"2017-08-08T09:52:00Z","uncertainty_Be-7-uncertainty":7.0,"uncertainty_Cs-137-uncertainty":8.0,"uncertainty_Na-22-uncertainty":13.0,"uncertainty_Pb-210-uncertainty":28.0},"type":"Feature"},{"geometry":{"coordinates":[26.91808,60.48318],"type":"Point"},"properties":{"concentration_Be-7":3977.1,"concentration_Cs-137":0.8,"concentration_Na-22":0.4,"concentration_Pb-210":869.5,"concentration_air-volume":126220.0,"from_timestamp":"2017-08-08T15:00:00Z","id":"103429","site":"Kotka","to_timestamp":"2017-08-15T06:56:00Z","uncertainty_Be-7-uncertainty":7.0,"uncertainty_Cs-137-uncertainty":8.0,"uncertainty_Na-22-uncertainty":12.0,"uncertainty_Pb-210-uncertainty":22.0},"type":"Feature"},{"geometry":{"coordinates":[26.91808,60.48318],"type":"Point"},"properties":{"concentration_Be-7":4043.3,"concentration_Cs-137":0.9,"concentration_Na-22":0.4,"concentration_Pb-210":328.7,"concentration_air-volume":129511.0,"from_timestamp":"2017-08-15T07:20:00Z","id":"103429","site":"Kotka","to_timestamp":"2017-08-22T07:10:00Z","uncertainty_Be-7-uncertainty":6.0,"uncertainty_Cs-137-uncertainty":10.0,"uncertainty_Na-22-uncertainty":26.0,"uncertainty_Pb-210-uncertainty":8.0},"type":"Feature"},{"geometry":{"coordinates":[28.82663,61.13229],"type":"Point"},"properties":{"concentration_Be-7":3979.9,"concentration_Cs-137":0.8,"concentration_Pb-210":381.1,"concentration_air-volume":19657.0,"from_timestamp":"2017-08-07T06:45:00Z","id":"103430","site":"Imatra","to_timestamp":"2017-08-14T06:50:00Z","uncertainty_Be-7-uncertainty":5.0,"uncertainty_Cs-137-uncertainty":21.0,"uncertainty_Pb-210-uncertainty":5.0},"type":"Feature"},{"geometry":{"coordinates":[28.82663,61.13229],"type":"Point"},"properties":{"concentration_Be-7":3876.0,"concentration_Cs-137":0.9,"concentration_Na-22":0.6,"concentration_Pb-210":359.1,"concentration_air-volume":29513.0,"from_timestamp":"2017-08-14T06:50:00Z","id":"103430","site":"Imatra","to_timestamp":"2017-08-22T04:16:00Z","uncertainty_Be-7-uncertainty":5.0,"uncertainty_Cs-137-uncertainty":11.0,"uncertainty_Na-22-uncertainty":20.0,"uncertainty_Pb-210-uncertainty":5.0},"type":"Feature"},{"geometry":{"coordinates":[27.57,68.64],"type":"Point"},"properties":{"concentration_Be-7":1631.3,"concentration_Pb-210":188.4,"concentration_air-volume":24731.0,"from_timestamp":"2017-08-07T05:42:00Z","id":"103431","site":"Ivalo","to_timestamp":"2017-08-14T06:26:00Z","uncertainty_Be-7-uncertainty":6.0,"uncertainty_Pb-210-uncertainty":8.0},"type":"Feature"},{"geometry":{"coordinates":[27.57,68.64],"type":"Point"},"properties":{"concentration_Be-7":2011.2,"concentration_Pb-210":150.8,"concentration_air-volume":24791.0,"from_timestamp":"2017-08-14T06:28:00Z","id":"103431","site":"Ivalo","to_timestamp":"2017-08-21T05:57:00Z","uncertainty_Be-7-uncertainty":5.0,"uncertainty_Pb-210-uncertainty":5.0},"type":"Feature"},{"geometry":{"coordinates":[27.63414,62.89195],"type":"Point"},"properties":{"concentration_Be-7":3457.2,"concentration_Cs-137":1.2,"concentration_Na-22":0.8,"concentration_air-volume":24498.0,"from_timestamp":"2017-08-07T07:23:00Z","id":"103432","site":"Kuopio","to_timestamp":"2017-08-14T06:54:00Z","uncertainty_Be-7-uncertainty":6.0,"uncertainty_Cs-137-uncertainty":14.0,"uncertainty_Na-22-uncertainty":25.0},"type":"Feature"},{"geometry":{"coordinates":[27.63414,62.89195],"type":"Point"},"properties":{"concentration_Be-7":4420.8,"concentration_Cs-137":1.5,"concentration_Na-22":0.8,"concentration_Pb-210":76.8,"concentration_air-volume":24014.0,"from_timestamp":"2017-08-14T06:56:00Z","id":"103432","site":"Kuopio","to_timestamp":"2017-08-21T06:24:00Z","uncertainty_Be-7-uncertainty":6.0,"uncertainty_Cs-137-uncertainty":12.0,"uncertainty_Na-22-uncertainty":25.0,"uncertainty_Pb-210-uncertainty":20.0},"type":"Feature"},{"geometry":{"coordinates":[25.67774,66.51285],"type":"Point"},"properties":{"concentration_Be-7":2569.3,"concentration_Cs-137":0.5,"concentration_Na-22":0.3,"concentration_air-volume":145246.0,"from_timestamp":"2017-08-07T06:57:00Z","id":"103433","site":"Rovaniemi","to_timestamp":"2017-08-14T06:56:00Z","uncertainty_Be-7-uncertainty":7.0,"uncertainty_Cs-137-uncertainty":9.0,"uncertainty_Na-22-uncertainty":15.0},"type":"Feature"},{"geometry":{"coordinates":[25.67774,66.51285],"type":"Point"},"properties":{"concentration_Be-7":3147.1,"concentration_Cs-137":0.4,"concentration_Na-22":0.2,"concentration_air-volume":93268.0,"from_timestamp":"2017-08-14T06:55:00Z","id":"103433","site":"Rovaniemi","to_timestamp":"2017-08-21T09:30:00Z","uncertainty_Be-7-uncertainty":7.0,"uncertainty_Cs-137-uncertainty":11.0,"uncertainty_Na-22-uncertainty":25.0},"type":"Feature"},{"geometry":{"coordinates":[26.62807,67.36505],"type":"Point"},"properties":{"concentration_Be-7":1866.5,"concentration_Pb-210":217.8,"concentration_air-volume":24382.0,"from_timestamp":"2017-08-07T06:32:00Z","id":"103434","site":"Sodankylä","to_timestamp":"2017-08-14T06:07:00Z","uncertainty_Be-7-uncertainty":6.0,"uncertainty_Pb-210-uncertainty":8.0},"type":"Feature"},{"geometry":{"coordinates":[26.62807,67.36505],"type":"Point"},"properties":{"concentration_Be-7":2575.3,"concentration_air-volume":10644.0,"from_timestamp":"2017-08-14T06:07:00Z","id":"103434","site":"Sodankylä","to_timestamp":"2017-08-17T06:37:00Z","uncertainty_Be-7-uncertainty":10.0},"type":"Feature"},{"geometry":{"coordinates":[25.05385,60.20905],"type":"Point"},"properties":{"concentration_Be-7":2504.7,"concentration_Na-22":0.6,"concentration_Pb-210":251.8,"concentration_air-volume":20407.0,"from_timestamp":"2017-08-04T13:56:00Z","id":"103428","site":"Helsinki","to_timestamp":"2017-08-10T12:29:00Z","uncertainty_Be-7-uncertainty":5.0,"uncertainty_Na-22-uncertainty":30.0,"uncertainty_Pb-210-uncertainty":5.0},"type":"Feature"},{"geometry":{"coordinates":[25.05385,60.20905],"type":"Point"},"properties":{"concentration_Be-7":4071.3,"concentration_Na-22":0.9,"concentration_Pb-210":419.0,"concentration_air-volume":24075.0,"from_timestamp":"2017-08-10T12:30:00Z","id":"103428","site":"Helsinki","to_timestamp":"2017-08-17T11:59:00Z","uncertainty_Be-7-uncertainty":5.0,"uncertainty_Na-22-uncertainty":23.0,"uncertainty_Pb-210-uncertainty":5.0},"type":"Feature"}],"name":"stuk_open_data_air_radionuclides","type":"FeatureCollection"}