{"crs":{"properties":{"name":"urn:ogc:def:crs:OGC:1.3:CRS84"},"type":"name"},"features":[{"geometry":{"coordinates":[25.05385,60.20905],"type":"Point"},"properties":{"concentration_Be-7":1094.8,"concentration_Cs-137":0.9,"concentration_air-volume":25152.0,"from_timestamp":"2017-10-16T11:15:00Z","id":"103428","site":"Helsinki","to_timestamp":"2017-10-23T10:14:00Z","uncertainty_Be-7-uncertainty":10.0,"uncertainty_Cs-137-uncertainty":20.0},"type":"Feature"},{"geometry":{"coordinates":[25.05385,60.20905],"type":"Point"},"properties":{"concentration_Be-7":1512.6,"concentration_air-volume":14453.0,"from_timestamp":"2017-10-23T10:15:00Z","id":"103428","site":"Helsinki","to_timestamp":"2017-10-27T08:15:00Z","uncertainty_Be-7-uncertainty":10.0},"type":"Feature"},{"geometry":{"coordinates":[26.91808,60.48318],"type":"Point"},"properties":{"concentration_Be-7":1031.5,"concentration_Cs-137":2.1,"concentration_Na-22":0.1,"concentration_Pb-210":422.5,"concentration_air-volume":253719.0,"from_timestamp":"2017-10-09T07:46:00Z","id":"103429","site":"Kotka","to_timestamp":"2017-10-25T09:55:00Z","uncertainty_Be-7-uncertainty":7.0,"uncertainty_Cs-137-uncertainty":7.0,"uncertainty_Na-22-uncertainty":25.0,"uncertainty_Pb-210-uncertainty":19.0},"type":"Feature"},{"geometry":{"coordinates":[26.91808,60.48318],"type":"Point"},"properties":{"concentration_Be-7":1752.3,"concentration_Cs-137":1.7,"concentration_Na-22":0.1,"concentration_Pb-210":365.0,"concentration_air-volume":250000.0,"from_timestamp":"2017-10-25T09:55:00Z","id":"103429","site":"Kotka","to_timestamp":"2017-11-08T11:30:00Z","uncertainty_Be-7-uncertainty":7.0,"uncertainty_Cs-137-uncertainty":7.0,"uncertainty_Na-22-uncertainty":18.0,"uncertainty_Pb-210-uncertainty":19.0},"type":"Feature"},{"geometry":{"coordinates":[28.82663,61.13229],"type":"Point"},"properties":{"concentration_Be-7":1449.2,"concentration_Cs-137":1.5,"concentration_Pb-210":200.1,"concentration_air-volume":21592.0,"from_timestamp":"2017-10-16T04:35:00Z","id":"103430","site":"Imatra","to_timestamp":"2017-10-23T04:30:00Z","uncertainty_Be-7-uncertainty":6.0,"uncertainty_Cs-137-uncertainty":11.0,"uncertainty_Pb-210-uncertainty":8.0},"type":"Feature"},{"geometry":{"coordinates":[28.82663,61.13229],"type":"Point"},"properties":{"concentration_Be-7":1336.2,"concentration_Cs-137":2.3,"concentration_Pb-210":396.3,"concentration_air-volume":30336.0,"from_timestamp":"2017-10-23T04:32:00Z","id":"103430","site":"Imatra","to_timestamp":"2017-11-02T05:20:00Z","uncertainty_Be-7-uncertainty":5.0,"uncertainty_Cs-137-uncertainty":8.0,"uncertainty_Pb-210-uncertainty":5.0},"type":"Feature"},{"geometry":{"coordinates":[27.57,68.64],"type":"Point"},"properties":{"concentration_Be-7":501.0,"concentration_Pb-210":207.8,"concentration_air-volume":10774.0,"from_timestamp":"2017-10-16T08:39:00Z","id":"103431","site":"Ivalo","to_timestamp":"2017-10-19T07:49:00Z","uncertainty_Be-7-uncertainty":5.0,"uncertainty_Pb-210-uncertainty":10.0},"type":"Feature"},{"geometry":{"coordinates":[27.57,68.64],"type":"Point"},"properties":{"concentration_Be-7":1514.3,"concentration_Pb-210":214.0,"concentration_air-volume":26033.0,"from_timestamp":"2017-10-19T07:51:00Z","id":"103431","site":"Ivalo","to_timestamp":"2017-10-26T07:29:00Z","uncertainty_Be-7-uncertainty":5.0,"uncertainty_Pb-210-uncertainty":5.0},"type":"Feature"},{"geometry":{"coordinates":[27.57,68.64],"type":"Point"},"properties":{"concentration_Be-7":1081.1,"concentration_Pb-210":169.3,"concentration_air-volume":25761.0,"from_timestamp":"2017-10-26T07:31:00Z","id":"103431","site":"Ivalo","to_timestamp":"2017-11-02T06:48:00Z","uncertainty_Be-7-uncertainty":6.0,"uncertainty_Pb-210-uncertainty":8.0},"type":"Feature"},{"geometry":{"coordinates":[27.63414,62.89195],"type":"Point"},"properties":{"concentration_Be-7":925.7,"concentration_Pb-210":133.5,"concentration_air-volume":10694.0,"from_timestamp":"2017-10-16T06:05:00Z","id":"103432","site":"Kuopio","to_timestamp":"2017-10-19T05:57:00Z","uncertainty_Be-7-uncertainty":5.0,"uncertainty_Pb-210-uncertainty":5.0},"type":"Feature"},{"geometry":{"coordinates":[27.63414,62.89195],"type":"Point"},"properties":{"concentration_Be-7":2348.3,"concentration_Pb-210":478.4,"concentration_air-volume":13650.0,"from_timestamp":"2017-10-26T08:08:00Z","id":"103432","site":"Kuopio","to_timestamp":"2017-10-30T08:16:00Z","uncertainty_Be-7-uncertainty":3.0,"uncertainty_Pb-210-uncertainty":9.0},"type":"Feature"},{"geometry":{"coordinates":[27.63414,62.89195],"type":"Point"},"properties":{"concentration_Be-7":1795.4,"concentration_Pb-210":153.1,"concentration_air-volume":14116.0,"from_timestamp":"2017-10-19T07:55:00Z","id":"103432","site":"Kuopio","to_timestamp":"2017-10-23T09:16:00Z","uncertainty_Be-7-uncertainty":3.0,"uncertainty_Pb-210-uncertainty":25.0},"type":"Feature"},{"geometry":{"coordinates":[27.63414,62.89195],"type":"Point"},"properties":{"concentration_Be-7":1188.1,"concentration_Pb-210":273.6,"concentration_air-volume":10272.0,"from_timestamp":"2017-10-23T09:18:00Z","id":"103432","site":"Kuopio","to_timestamp":"2017-10-26T08:07:00Z","uncertainty_Be-7-uncertainty":3.0,"uncertainty_Pb-210-uncertainty":18.0},"type":"Feature"},{"geometry":{"coordinates":[25.67774,66.51285],"type":"Point"},"properties":{"concentration_Be-7":1300.5,"concentration_air-volume":107216.0,"from_timestamp":"2017-10-18T07:06:00Z","id":"103433","site":"Rovaniemi","to_timestamp":"2017-10-23T06:50:00Z","uncertainty_Be-7-uncertainty":7.0},"type":"Feature"},{"geometry":{"coordinates":[25.67774,66.51285],"type":"Point"},"properties":{"concentration_Be-7":645.4,"concentration_Pb-210":175.0,"concentration_air-volume":150715.0,"from_timestamp":"2017-10-23T06:55:00Z","id":"103433","site":"Rovaniemi","to_timestamp":"2017-10-30T07:24:00Z","uncertainty_Be-7-uncertainty":5.0,"uncertainty_Pb-210-uncertainty":5.0},"type":"Feature"},{"geometry":{"coordinates":[26.62807,67.36505],"type":"Point"},"properties":{"concentration_Be-7":942.5,"concentration_Pb-210":84.9,"concentration_air-volume":25315.0,"from_timestamp":"2017-10-12T06:18:00Z","id":"103434","site":"Sodankylä","to_timestamp":"2017-10-19T06:15:00Z","uncertainty_Be-7-uncertainty":6.0,"uncertainty_Pb-210-uncertainty":17.0},"type":"Feature"},{"geometry":{"coordinates":[26.62807,67.36505],"type":"Point"},"properties":{"concentration_Be-7":677.9,"concentration_Pb-210":204.8,"concentration_air-volume":25912.0,"from_timestamp":"2017-10-26T06:27:00Z","id":"103434","site":"Sodankylä","to_timestamp":"2017-11-02T05:52:00Z","uncertainty_Be-7-uncertainty":6.0,"uncertainty_Pb-210-uncertainty":8.0},"type":"Feature"},{"geometry":{"coordinates":[26.62807,67.36505],"type":"Point"},"properties":{"concentration_Be-7":1308.9,"concentration_Pb-210":60.8,"concentration_air-volume":26056.0,"from_timestamp":"2017-10-19T06:16:00Z","id":"103434","site":"Sodankylä","to_timestamp":"2017-10-26T06:26:00Z","uncertainty_Be-7-uncertainty":6.0,"uncertainty_Pb-210-uncertainty":24.0},"type":"Feature"},{"geometry":{"coordinates":[27.70835,64.08474],"type":"Point"},"properties":{"concentration_Be-7":1129.9,"concentration_Cs-137":0.1,"concentration_Pb-210":148.9,"concentration_air-volume":69085.0,"from_timestamp":"2017-10-18T13:00:00Z","id":"103435","site":"Kajaani","to_timestamp":"2017-10-23T06:47:00Z","uncertainty_Be-7-uncertainty":6.0,"uncertainty_Cs-137-uncertainty":24.0,"uncertainty_Pb-210-uncertainty":8.0},"type":"Feature"},{"geometry":{"coordinates":[27.70835,64.08474],"type":"Point"},"properties":{"concentration_Be-7":1042.6,"concentration_Cs-137":0.4,"concentration_Pb-210":562.3,"concentration_air-volume":99391.0,"from_timestamp":"2017-10-23T06:50:00Z","id":"103435","site":"Kajaani","to_timestamp":"2017-10-30T07:39:00Z","uncertainty_Be-7-uncertainty":7.0,"uncertainty_Cs-137-uncertainty":12.0,"uncertainty_Pb-210-uncertainty":28.0},"type":"Feature"},{"geometry":{"coordinates":[25.05385,60.20905],"type":"Point"},"properties":{"concentration_Be-7":1094.8,"concentration_Cs-137":0.9,"concentration_air-volume":25152.0,"from_timestamp":"2017-10-16T11:15:00Z","id":"103428","site":"Helsinki","to_timestamp":"2017-10-23T10:14:00Z","uncertainty_Be-7-uncertainty":10.0,"uncertainty_Cs-137-uncertainty":20.0},"type":"Feature"},{"geometry":{"coordinates":[25.05385,60.20905],"type":"Point"},"properties":{"concentration_Be-7":1512.6,"concentration_air-volume":14453.0,"from_timestamp":"2017-10-23T10:15:00Z","id":"103428","site":"Helsinki","to_timestamp":"2017-10-27T08:15:00Z","uncertainty_Be-7-uncertainty":10.0},"type":"Feature"}],"name":"stuk_open_data_air_radionuclides","type":"FeatureCollection"}