{"crs":{"properties":{"name":"urn:ogc:def:crs:OGC:1.3:CRS84"},"type":"name"},"features":[{"geometry":{"coordinates":[25.05385,60.20905],"type":"Point"},"properties":{"concentration_Be-7":1835.7,"concentration_Cs-137":1.2,"concentration_Pb-210":70.6,"concentration_air-volume":28940.0,"from_timestamp":"2017-01-05T12:44:00Z","id":"103428","site":"Helsinki","to_timestamp":"2017-01-13T10:15:00Z","uncertainty_Be-7-uncertainty":6.0,"uncertainty_Cs-137-uncertainty":12.0,"uncertainty_Pb-210-uncertainty":20.0},"type":"Feature"},{"geometry":{"coordinates":[25.05385,60.20905],"type":"Point"},"properties":{"concentration_Be-7":1151.4,"concentration_Cs-137":0.9,"concentration_Pb-210":233.2,"concentration_air-volume":21747.0,"from_timestamp":"2017-01-13T10:16:00Z","id":"103428","site":"Helsinki","to_timestamp":"2017-01-19T08:11:00Z","uncertainty_Be-7-uncertainty":5.0,"uncertainty_Cs-137-uncertainty":14.0,"uncertainty_Pb-210-uncertainty":5.0},"type":"Feature"},{"geometry":{"coordinates":[25.05385,60.20905],"type":"Point"},"properties":{"concentration_Be-7":1548.7,"concentration_Cs-137":3.1,"concentration_air-volume":26315.0,"from_timestamp":"2017-01-19T08:12:00Z","id":"103428","site":"Helsinki","to_timestamp":"2017-01-26T12:07:00Z","uncertainty_Be-7-uncertainty":10.0,"uncertainty_Cs-137-uncertainty":11.0},"type":"Feature"},{"geometry":{"coordinates":[26.91808,60.48318],"type":"Point"},"properties":{"concentration_Be-7":1712.7,"concentration_Cs-137":2.0,"concentration_Na-22":0.2,"concentration_Pb-210":529.4,"concentration_air-volume":207796.0,"from_timestamp":"2017-01-02T06:25:00Z","id":"103429","site":"Kotka","to_timestamp":"2017-01-16T11:48:00Z","uncertainty_Be-7-uncertainty":7.0,"uncertainty_Cs-137-uncertainty":7.0,"uncertainty_Na-22-uncertainty":15.0,"uncertainty_Pb-210-uncertainty":16.0},"type":"Feature"},{"geometry":{"coordinates":[26.91808,60.48318],"type":"Point"},"properties":{"concentration_Be-7":1219.2,"concentration_Cs-137":1.5,"concentration_Pb-210":369.9,"concentration_air-volume":229641.0,"from_timestamp":"2017-01-16T11:50:00Z","id":"103429","site":"Kotka","to_timestamp":"2017-01-30T07:21:00Z","uncertainty_Be-7-uncertainty":7.0,"uncertainty_Cs-137-uncertainty":7.0,"uncertainty_Pb-210-uncertainty":28.0},"type":"Feature"},{"geometry":{"coordinates":[28.82663,61.13229],"type":"Point"},"properties":{"concentration_Be-7":1899.3,"concentration_Cs-137":1.9,"concentration_Pb-210":553.9,"concentration_air-volume":20501.0,"from_timestamp":"2017-01-09T04:35:00Z","id":"103430","site":"Imatra","to_timestamp":"2017-01-16T04:58:00Z","uncertainty_Be-7-uncertainty":5.0,"uncertainty_Cs-137-uncertainty":11.0,"uncertainty_Pb-210-uncertainty":5.0},"type":"Feature"},{"geometry":{"coordinates":[28.82663,61.13229],"type":"Point"},"properties":{"concentration_Be-7":1775.9,"concentration_Cs-137":2.3,"concentration_air-volume":22115.0,"from_timestamp":"2017-01-16T05:00:00Z","id":"103430","site":"Imatra","to_timestamp":"2017-01-23T04:20:00Z","uncertainty_Be-7-uncertainty":6.0,"uncertainty_Cs-137-uncertainty":10.0},"type":"Feature"},{"geometry":{"coordinates":[27.57,68.64],"type":"Point"},"properties":{"concentration_Be-7":1001.1,"concentration_Cs-137":0.5,"concentration_Pb-210":107.2,"concentration_air-volume":25712.0,"from_timestamp":"2017-01-09T05:18:00Z","id":"103431","site":"Ivalo","to_timestamp":"2017-01-16T05:11:00Z","uncertainty_Be-7-uncertainty":6.0,"uncertainty_Cs-137-uncertainty":26.0,"uncertainty_Pb-210-uncertainty":15.0},"type":"Feature"},{"geometry":{"coordinates":[27.57,68.64],"type":"Point"},"properties":{"concentration_Be-7":1357.4,"concentration_Pb-210":148.4,"concentration_air-volume":26714.0,"from_timestamp":"2017-01-16T05:12:00Z","id":"103431","site":"Ivalo","to_timestamp":"2017-01-23T08:09:00Z","uncertainty_Be-7-uncertainty":5.0,"uncertainty_Pb-210-uncertainty":5.0},"type":"Feature"},{"geometry":{"coordinates":[27.63414,62.89195],"type":"Point"},"properties":{"concentration_Be-7":1541.2,"concentration_Cs-137":0.6,"concentration_Pb-210":96.4,"concentration_air-volume":25173.0,"from_timestamp":"2017-01-09T06:27:00Z","id":"103432","site":"Kuopio","to_timestamp":"2017-01-16T06:31:00Z","uncertainty_Be-7-uncertainty":6.0,"uncertainty_Cs-137-uncertainty":18.0,"uncertainty_Pb-210-uncertainty":15.0},"type":"Feature"},{"geometry":{"coordinates":[27.63414,62.89195],"type":"Point"},"properties":{"concentration_Be-7":1666.3,"concentration_Cs-137":0.7,"concentration_Pb-210":216.5,"concentration_air-volume":25732.0,"from_timestamp":"2017-01-16T06:32:00Z","id":"103432","site":"Kuopio","to_timestamp":"2017-01-23T06:24:00Z","uncertainty_Be-7-uncertainty":5.0,"uncertainty_Cs-137-uncertainty":15.0,"uncertainty_Pb-210-uncertainty":5.0},"type":"Feature"},{"geometry":{"coordinates":[25.67774,66.51285],"type":"Point"},"properties":{"concentration_Be-7":1170.5,"concentration_Cs-137":0.5,"concentration_I-131":0.3,"concentration_Pb-210":347.0,"concentration_air-volume":135660.0,"from_timestamp":"2017-01-09T07:22:00Z","id":"103433","site":"Rovaniemi","to_timestamp":"2017-01-16T07:29:00Z","uncertainty_Be-7-uncertainty":7.0,"uncertainty_Cs-137-uncertainty":9.0,"uncertainty_I-131-uncertainty":19.0,"uncertainty_Pb-210-uncertainty":20.0},"type":"Feature"},{"geometry":{"coordinates":[25.67774,66.51285],"type":"Point"},"properties":{"concentration_Be-7":1579.6,"concentration_Cs-137":0.3,"concentration_Na-22":0.1,"concentration_Pb-210":527.7,"concentration_air-volume":144674.0,"from_timestamp":"2017-01-16T07:33:00Z","id":"103433","site":"Rovaniemi","to_timestamp":"2017-01-23T07:15:00Z","uncertainty_Be-7-uncertainty":7.0,"uncertainty_Cs-137-uncertainty":10.0,"uncertainty_Na-22-uncertainty":22.0,"uncertainty_Pb-210-uncertainty":24.0},"type":"Feature"},{"geometry":{"coordinates":[26.62807,67.36505],"type":"Point"},"properties":{"concentration_Be-7":1326.6,"concentration_Cs-137":0.6,"concentration_Pb-210":116.1,"concentration_air-volume":25197.0,"from_timestamp":"2017-01-09T06:23:00Z","id":"103434","site":"Sodankylä","to_timestamp":"2017-01-16T06:13:00Z","uncertainty_Be-7-uncertainty":6.0,"uncertainty_Cs-137-uncertainty":22.0,"uncertainty_Pb-210-uncertainty":14.0},"type":"Feature"},{"geometry":{"coordinates":[26.62807,67.36505],"type":"Point"},"properties":{"concentration_Be-7":1514.7,"concentration_Pb-210":169.3,"concentration_air-volume":25667.0,"from_timestamp":"2017-01-16T06:14:00Z","id":"103434","site":"Sodankylä","to_timestamp":"2017-01-23T06:20:00Z","uncertainty_Be-7-uncertainty":5.0,"uncertainty_Pb-210-uncertainty":5.0},"type":"Feature"},{"geometry":{"coordinates":[27.70835,64.08474],"type":"Point"},"properties":{"concentration_Be-7":691.6,"concentration_Cs-137":0.4,"concentration_Pb-210":316.7,"concentration_air-volume":144962.0,"from_timestamp":"2017-01-09T13:42:00Z","id":"103435","site":"Kajaani","to_timestamp":"2017-01-16T14:35:00Z","uncertainty_Be-7-uncertainty":6.0,"uncertainty_Cs-137-uncertainty":8.0,"uncertainty_Pb-210-uncertainty":8.0},"type":"Feature"},{"geometry":{"coordinates":[27.70835,64.08474],"type":"Point"},"properties":{"concentration_Be-7":831.7,"concentration_Cs-137":0.2,"concentration_Pb-210":150.1,"concentration_air-volume":143545.0,"from_timestamp":"2017-01-16T14:40:00Z","id":"103435","site":"Kajaani","to_timestamp":"2017-01-23T06:58:00Z","uncertainty_Be-7-uncertainty":6.0,"uncertainty_Cs-137-uncertainty":11.0,"uncertainty_Pb-210-uncertainty":8.0},"type":"Feature"},{"geometry":{"coordinates":[25.05385,60.20905],"type":"Point"},"properties":{"concentration_Be-7":1835.7,"concentration_Cs-137":1.2,"concentration_Pb-210":70.6,"concentration_air-volume":28940.0,"from_timestamp":"2017-01-05T12:44:00Z","id":"103428","site":"Helsinki","to_timestamp":"2017-01-13T10:15:00Z","uncertainty_Be-7-uncertainty":6.0,"uncertainty_Cs-137-uncertainty":12.0,"uncertainty_Pb-210-uncertainty":20.0},"type":"Feature"},{"geometry":{"coordinates":[25.05385,60.20905],"type":"Point"},"properties":{"concentration_Be-7":1151.4,"concentration_Cs-137":0.9,"concentration_Pb-210":233.2,"concentration_air-volume":21747.0,"from_timestamp":"2017-01-13T10:16:00Z","id":"103428","site":"Helsinki","to_timestamp":"2017-01-19T08:11:00Z","uncertainty_Be-7-uncertainty":5.0,"uncertainty_Cs-137-uncertainty":14.0,"uncertainty_Pb-210-uncertainty":5.0},"type":"Feature"},{"geometry":{"coordinates":[25.05385,60.20905],"type":"Point"},"properties":{"concentration_Be-7":1548.7,"concentration_Cs-137":3.1,"concentration_air-volume":26315.0,"from_timestamp":"2017-01-19T08:12:00Z","id":"103428","site":"Helsinki","to_timestamp":"2017-01-26T12:07:00Z","uncertainty_Be-7-uncertainty":10.0,"uncertainty_Cs-137-uncertainty":11.0},"type":"Feature"}],"name":"stuk_open_data_air_radionuclides","type":"FeatureCollection"}