{"crs":{"properties":{"name":"urn:ogc:def:crs:OGC:1.3:CRS84"},"type":"name"},"features":[{"geometry":{"coordinates":[25.05385,60.20905],"type":"Point"},"properties":{"concentration_Be-7":4442.8,"concentration_Cs-137":0.5,"concentration_Pb-210":349.8,"concentration_air-volume":23859.0,"from_timestamp":"2017-07-06T12:31:00Z","id":"103428","site":"Helsinki","to_timestamp":"2017-07-13T12:25:00Z","uncertainty_Be-7-uncertainty":5.0,"uncertainty_Cs-137-uncertainty":21.0,"uncertainty_Pb-210-uncertainty":10.0},"type":"Feature"},{"geometry":{"coordinates":[25.05385,60.20905],"type":"Point"},"properties":{"concentration_Be-7":2331.3,"concentration_Pb-210":177.7,"concentration_air-volume":24155.0,"from_timestamp":"2017-07-13T12:28:00Z","id":"103428","site":"Helsinki","to_timestamp":"2017-07-20T13:34:00Z","uncertainty_Be-7-uncertainty":5.0,"uncertainty_Pb-210-uncertainty":5.0},"type":"Feature"},{"geometry":{"coordinates":[26.91808,60.48318],"type":"Point"},"properties":{"concentration_Be-7":2146.9,"concentration_Cs-137":3.0,"concentration_Na-22":0.3,"concentration_Pb-210":28.1,"concentration_air-volume":250323.0,"from_timestamp":"2017-06-26T17:50:00Z","id":"103429","site":"Kotka","to_timestamp":"2017-07-10T11:27:00Z","uncertainty_Be-7-uncertainty":5.0,"uncertainty_Cs-137-uncertainty":5.0,"uncertainty_Na-22-uncertainty":12.0,"uncertainty_Pb-210-uncertainty":13.0},"type":"Feature"},{"geometry":{"coordinates":[26.91808,60.48318],"type":"Point"},"properties":{"concentration_Be-7":2621.7,"concentration_Co-60":0.2,"concentration_Cs-137":1.1,"concentration_Na-22":0.3,"concentration_Pb-210":44.5,"concentration_air-volume":129793.0,"from_timestamp":"2017-07-12T13:47:00Z","id":"103429","site":"Kotka","to_timestamp":"2017-07-19T13:47:00Z","uncertainty_Be-7-uncertainty":5.0,"uncertainty_Co-60-uncertainty":10.0,"uncertainty_Cs-137-uncertainty":6.0,"uncertainty_Na-22-uncertainty":12.0,"uncertainty_Pb-210-uncertainty":9.0},"type":"Feature"},{"geometry":{"coordinates":[26.91808,60.48318],"type":"Point"},"properties":{"concentration_Be-7":1721.3,"concentration_Cs-137":1.1,"concentration_Na-22":0.3,"concentration_Pb-210":145.6,"concentration_air-volume":133474.0,"from_timestamp":"2017-07-12T13:47:00Z","id":"103429","site":"Kotka","to_timestamp":"2017-07-24T12:39:00Z","uncertainty_Be-7-uncertainty":6.0,"uncertainty_Cs-137-uncertainty":7.0,"uncertainty_Na-22-uncertainty":21.0,"uncertainty_Pb-210-uncertainty":8.0},"type":"Feature"},{"geometry":{"coordinates":[28.82663,61.13229],"type":"Point"},"properties":{"concentration_Be-7":320.7,"concentration_Cs-137":0.3,"concentration_Pb-210":30.1,"concentration_air-volume":90399.0,"from_timestamp":"2017-07-03T07:01:00Z","id":"103430","site":"Imatra","to_timestamp":"2017-07-10T04:38:00Z","uncertainty_Be-7-uncertainty":6.0,"uncertainty_Cs-137-uncertainty":14.0,"uncertainty_Pb-210-uncertainty":8.0},"type":"Feature"},{"geometry":{"coordinates":[28.82663,61.13229],"type":"Point"},"properties":{"concentration_Be-7":2331.2,"concentration_Cs-137":1.1,"concentration_Pb-210":226.4,"concentration_air-volume":28753.0,"from_timestamp":"2017-07-10T04:39:00Z","id":"103430","site":"Imatra","to_timestamp":"2017-07-20T04:30:00Z","uncertainty_Be-7-uncertainty":6.0,"uncertainty_Cs-137-uncertainty":11.0,"uncertainty_Pb-210-uncertainty":8.0},"type":"Feature"},{"geometry":{"coordinates":[27.57,68.64],"type":"Point"},"properties":{"concentration_Be-7":2887.5,"concentration_Cs-137":0.9,"concentration_air-volume":24966.0,"from_timestamp":"2017-07-03T05:30:00Z","id":"103431","site":"Ivalo","to_timestamp":"2017-07-10T05:03:00Z","uncertainty_Be-7-uncertainty":6.0,"uncertainty_Cs-137-uncertainty":15.0},"type":"Feature"},{"geometry":{"coordinates":[27.63414,62.89195],"type":"Point"},"properties":{"concentration_Be-7":1928.1,"concentration_Pb-210":127.1,"concentration_air-volume":24367.0,"from_timestamp":"2017-07-03T06:30:00Z","id":"103432","site":"Kuopio","to_timestamp":"2017-07-10T06:00:00Z","uncertainty_Be-7-uncertainty":5.0,"uncertainty_Pb-210-uncertainty":5.0},"type":"Feature"},{"geometry":{"coordinates":[27.63414,62.89195],"type":"Point"},"properties":{"concentration_Be-7":2904.2,"concentration_Cs-137":0.6,"concentration_Pb-210":241.4,"concentration_air-volume":24380.0,"from_timestamp":"2017-07-10T06:01:00Z","id":"103432","site":"Kuopio","to_timestamp":"2017-07-17T07:36:00Z","uncertainty_Be-7-uncertainty":5.0,"uncertainty_Cs-137-uncertainty":14.0,"uncertainty_Pb-210-uncertainty":5.0},"type":"Feature"},{"geometry":{"coordinates":[25.67774,66.51285],"type":"Point"},"properties":{"concentration_Be-7":2118.9,"concentration_Cs-137":0.1,"concentration_Na-22":0.3,"concentration_Pb-210":105.3,"concentration_air-volume":141390.0,"from_timestamp":"2017-07-03T10:29:00Z","id":"103433","site":"Rovaniemi","to_timestamp":"2017-07-10T09:20:00Z","uncertainty_Be-7-uncertainty":5.0,"uncertainty_Cs-137-uncertainty":20.0,"uncertainty_Na-22-uncertainty":15.0,"uncertainty_Pb-210-uncertainty":5.0},"type":"Feature"},{"geometry":{"coordinates":[25.67774,66.51285],"type":"Point"},"properties":{"concentration_Be-7":2364.8,"concentration_Cs-137":0.3,"concentration_Na-22":0.3,"concentration_Pb-210":32.7,"concentration_air-volume":159870.0,"from_timestamp":"2017-07-10T09:28:00Z","id":"103433","site":"Rovaniemi","to_timestamp":"2017-07-17T08:03:00Z","uncertainty_Be-7-uncertainty":5.0,"uncertainty_Cs-137-uncertainty":11.0,"uncertainty_Na-22-uncertainty":12.0,"uncertainty_Pb-210-uncertainty":13.0},"type":"Feature"},{"geometry":{"coordinates":[26.62807,67.36505],"type":"Point"},"properties":{"concentration_Be-7":1998.0,"concentration_Cs-137":1.1,"concentration_Pb-210":114.4,"concentration_air-volume":26989.0,"from_timestamp":"2017-07-03T06:18:00Z","id":"103434","site":"Sodankylä","to_timestamp":"2017-07-10T06:15:00Z","uncertainty_Be-7-uncertainty":6.0,"uncertainty_Cs-137-uncertainty":11.0,"uncertainty_Pb-210-uncertainty":8.0},"type":"Feature"},{"geometry":{"coordinates":[26.62807,67.36505],"type":"Point"},"properties":{"concentration_Be-7":1903.0,"concentration_Cs-137":0.4,"concentration_Pb-210":152.8,"concentration_air-volume":29717.0,"from_timestamp":"2017-07-10T06:16:00Z","id":"103434","site":"Sodankylä","to_timestamp":"2017-07-17T06:39:00Z","uncertainty_Be-7-uncertainty":6.0,"uncertainty_Cs-137-uncertainty":20.0,"uncertainty_Pb-210-uncertainty":8.0},"type":"Feature"}],"name":"stuk_open_data_air_radionuclides","type":"FeatureCollection"}