{"crs":{"properties":{"name":"urn:ogc:def:crs:OGC:1.3:CRS84"},"type":"name"},"features":[{"geometry":{"coordinates":[25.05385,60.20905],"type":"Point"},"properties":{"concentration_Be-7":3585.4,"concentration_Cs-137":1.6,"concentration_Pb-210":66.2,"concentration_air-volume":24946.0,"from_timestamp":"2017-02-09T10:15:00Z","id":"103428","site":"Helsinki","to_timestamp":"2017-02-16T10:29:00Z","uncertainty_Be-7-uncertainty":6.0,"uncertainty_Cs-137-uncertainty":11.0,"uncertainty_Pb-210-uncertainty":21.0},"type":"Feature"},{"geometry":{"coordinates":[25.05385,60.20905],"type":"Point"},"properties":{"concentration_Be-7":2520.0,"concentration_Cs-137":1.0,"concentration_air-volume":24452.0,"from_timestamp":"2017-02-16T10:30:00Z","id":"103428","site":"Helsinki","to_timestamp":"2017-02-23T10:05:00Z","uncertainty_Be-7-uncertainty":6.0,"uncertainty_Cs-137-uncertainty":16.0},"type":"Feature"},{"geometry":{"coordinates":[26.91808,60.48318],"type":"Point"},"properties":{"concentration_Be-7":3045.8,"concentration_Cs-137":4.4,"concentration_Na-22":0.3,"concentration_Pb-210":488.0,"concentration_air-volume":137478.0,"from_timestamp":"2017-02-07T05:40:00Z","id":"103429","site":"Kotka","to_timestamp":"2017-02-14T05:39:00Z","uncertainty_Be-7-uncertainty":7.0,"uncertainty_Cs-137-uncertainty":7.0,"uncertainty_Na-22-uncertainty":18.0,"uncertainty_Pb-210-uncertainty":24.0},"type":"Feature"},{"geometry":{"coordinates":[26.91808,60.48318],"type":"Point"},"properties":{"concentration_Be-7":1909.4,"concentration_Cs-137":1.4,"concentration_Na-22":0.2,"concentration_Pb-210":637.6,"concentration_air-volume":193252.0,"from_timestamp":"2017-02-14T05:41:00Z","id":"103429","site":"Kotka","to_timestamp":"2017-02-27T06:16:00Z","uncertainty_Be-7-uncertainty":7.0,"uncertainty_Cs-137-uncertainty":8.0,"uncertainty_Na-22-uncertainty":19.0,"uncertainty_Pb-210-uncertainty":22.0},"type":"Feature"},{"geometry":{"coordinates":[28.82663,61.13229],"type":"Point"},"properties":{"concentration_Be-7":3624.3,"concentration_Cs-137":2.3,"concentration_Pb-210":579.4,"concentration_air-volume":22297.0,"from_timestamp":"2017-02-06T04:50:00Z","id":"103430","site":"Imatra","to_timestamp":"2017-02-13T04:50:00Z","uncertainty_Be-7-uncertainty":5.0,"uncertainty_Cs-137-uncertainty":9.0,"uncertainty_Pb-210-uncertainty":5.0},"type":"Feature"},{"geometry":{"coordinates":[28.82663,61.13229],"type":"Point"},"properties":{"concentration_Be-7":836.0,"concentration_Cs-137":1.8,"concentration_Pb-210":114.0,"concentration_air-volume":54190.0,"from_timestamp":"2017-02-13T04:52:00Z","id":"103430","site":"Imatra","to_timestamp":"2017-02-20T04:30:00Z","uncertainty_Be-7-uncertainty":5.0,"uncertainty_Cs-137-uncertainty":6.0,"uncertainty_Pb-210-uncertainty":5.0},"type":"Feature"},{"geometry":{"coordinates":[28.82663,61.13229],"type":"Point"},"properties":{"concentration_Be-7":2320.9,"concentration_Cs-137":2.5,"concentration_air-volume":22369.0,"from_timestamp":"2017-02-20T04:32:00Z","id":"103430","site":"Imatra","to_timestamp":"2017-02-27T04:45:00Z","uncertainty_Be-7-uncertainty":6.0,"uncertainty_Cs-137-uncertainty":10.0},"type":"Feature"},{"geometry":{"coordinates":[27.57,68.64],"type":"Point"},"properties":{"concentration_Be-7":1592.6,"concentration_Pb-210":126.6,"concentration_air-volume":26234.0,"from_timestamp":"2017-02-13T05:14:00Z","id":"103431","site":"Ivalo","to_timestamp":"2017-02-20T05:52:00Z","uncertainty_Be-7-uncertainty":5.0,"uncertainty_Pb-210-uncertainty":5.0},"type":"Feature"},{"geometry":{"coordinates":[27.57,68.64],"type":"Point"},"properties":{"concentration_Be-7":2781.9,"concentration_Cs-137":0.3,"concentration_Pb-210":355.7,"concentration_air-volume":27117.0,"from_timestamp":"2017-02-06T05:18:00Z","id":"103431","site":"Ivalo","to_timestamp":"2017-02-13T05:13:00Z","uncertainty_Be-7-uncertainty":5.0,"uncertainty_Cs-137-uncertainty":29.0,"uncertainty_Pb-210-uncertainty":5.0},"type":"Feature"},{"geometry":{"coordinates":[27.57,68.64],"type":"Point"},"properties":{"concentration_Be-7":1393.6,"concentration_Cs-137":0.4,"concentration_Pb-210":238.4,"concentration_air-volume":26041.0,"from_timestamp":"2017-02-20T05:53:00Z","id":"103431","site":"Ivalo","to_timestamp":"2017-02-27T05:05:00Z","uncertainty_Be-7-uncertainty":6.0,"uncertainty_Cs-137-uncertainty":25.0,"uncertainty_Pb-210-uncertainty":8.0},"type":"Feature"},{"geometry":{"coordinates":[27.63414,62.89195],"type":"Point"},"properties":{"concentration_Be-7":1880.2,"concentration_Cs-137":0.5,"concentration_air-volume":25659.0,"from_timestamp":"2017-02-13T06:20:00Z","id":"103432","site":"Kuopio","to_timestamp":"2017-02-20T06:23:00Z","uncertainty_Be-7-uncertainty":6.0,"uncertainty_Cs-137-uncertainty":27.0},"type":"Feature"},{"geometry":{"coordinates":[27.63414,62.89195],"type":"Point"},"properties":{"concentration_Be-7":2042.2,"concentration_Cs-137":2.0,"concentration_Pb-210":381.5,"concentration_air-volume":26419.0,"from_timestamp":"2017-02-06T06:28:00Z","id":"103432","site":"Kuopio","to_timestamp":"2017-02-13T06:19:00Z","uncertainty_Be-7-uncertainty":6.0,"uncertainty_Cs-137-uncertainty":9.0,"uncertainty_Pb-210-uncertainty":8.0},"type":"Feature"},{"geometry":{"coordinates":[27.63414,62.89195],"type":"Point"},"properties":{"concentration_Be-7":1849.9,"concentration_Cs-137":0.5,"concentration_Pb-210":239.1,"concentration_air-volume":25807.0,"from_timestamp":"2017-02-20T06:25:00Z","id":"103432","site":"Kuopio","to_timestamp":"2017-02-27T06:25:00Z","uncertainty_Be-7-uncertainty":5.0,"uncertainty_Cs-137-uncertainty":23.0,"uncertainty_Pb-210-uncertainty":5.0},"type":"Feature"},{"geometry":{"coordinates":[25.67774,66.51285],"type":"Point"},"properties":{"concentration_Be-7":1989.8,"concentration_Cs-137":0.3,"concentration_Na-22":0.2,"concentration_air-volume":142405.0,"from_timestamp":"2017-02-13T06:53:00Z","id":"103433","site":"Rovaniemi","to_timestamp":"2017-02-20T06:51:00Z","uncertainty_Be-7-uncertainty":7.0,"uncertainty_Cs-137-uncertainty":12.0,"uncertainty_Na-22-uncertainty":24.0},"type":"Feature"},{"geometry":{"coordinates":[25.67774,66.51285],"type":"Point"},"properties":{"concentration_Be-7":2777.3,"concentration_Cs-137":0.5,"concentration_Na-22":0.3,"concentration_Pb-210":1056.1,"concentration_air-volume":156505.0,"from_timestamp":"2017-02-06T07:03:00Z","id":"103433","site":"Rovaniemi","to_timestamp":"2017-02-13T06:50:00Z","uncertainty_Be-7-uncertainty":7.0,"uncertainty_Cs-137-uncertainty":8.0,"uncertainty_Na-22-uncertainty":13.0,"uncertainty_Pb-210-uncertainty":17.0},"type":"Feature"},{"geometry":{"coordinates":[25.67774,66.51285],"type":"Point"},"properties":{"concentration_Be-7":2085.1,"concentration_Cs-137":0.2,"concentration_I-131":0.3,"concentration_Na-22":0.2,"concentration_Pb-210":324.9,"concentration_air-volume":147136.0,"from_timestamp":"2017-02-20T06:55:00Z","id":"103433","site":"Rovaniemi","to_timestamp":"2017-02-27T07:07:00Z","uncertainty_Be-7-uncertainty":5.0,"uncertainty_Cs-137-uncertainty":13.0,"uncertainty_I-131-uncertainty":14.0,"uncertainty_Na-22-uncertainty":22.0,"uncertainty_Pb-210-uncertainty":5.0},"type":"Feature"},{"geometry":{"coordinates":[26.62807,67.36505],"type":"Point"},"properties":{"concentration_Be-7":2881.2,"concentration_Pb-210":123.3,"concentration_air-volume":26428.0,"from_timestamp":"2017-02-06T06:25:00Z","id":"103434","site":"Sodankylä","to_timestamp":"2017-02-13T06:10:00Z","uncertainty_Be-7-uncertainty":6.0,"uncertainty_Pb-210-uncertainty":14.0},"type":"Feature"},{"geometry":{"coordinates":[26.62807,67.36505],"type":"Point"},"properties":{"concentration_Be-7":1214.1,"concentration_Pb-210":141.0,"concentration_air-volume":21836.0,"from_timestamp":"2017-02-13T06:11:00Z","id":"103434","site":"Sodankylä","to_timestamp":"2017-02-23T06:35:00Z","uncertainty_Be-7-uncertainty":6.0,"uncertainty_Pb-210-uncertainty":8.0},"type":"Feature"}],"name":"stuk_open_data_air_radionuclides","type":"FeatureCollection"}