{"crs":{"properties":{"name":"urn:ogc:def:crs:OGC:1.3:CRS84"},"type":"name"},"features":[{"geometry":{"coordinates":[25.05385,60.20905],"type":"Point"},"properties":{"concentration_Be-7":1059.3,"concentration_Cs-137":0.5,"concentration_air-volume":26108.0,"from_timestamp":"2017-11-30T10:57:00Z","id":"103428","site":"Helsinki","to_timestamp":"2017-12-07T12:43:00Z","uncertainty_Be-7-uncertainty":6.0,"uncertainty_Cs-137-uncertainty":22.0},"type":"Feature"},{"geometry":{"coordinates":[25.05385,60.20905],"type":"Point"},"properties":{"concentration_Be-7":1555.7,"concentration_Pb-210":140.7,"concentration_air-volume":24338.0,"from_timestamp":"2017-12-07T12:44:00Z","id":"103428","site":"Helsinki","to_timestamp":"2017-12-14T10:05:00Z","uncertainty_Be-7-uncertainty":5.0,"uncertainty_Pb-210-uncertainty":5.0},"type":"Feature"},{"geometry":{"coordinates":[26.91808,60.48318],"type":"Point"},"properties":{"concentration_Be-7":943.9,"concentration_Cs-137":1.0,"concentration_Pb-210":490.4,"concentration_air-volume":135523.0,"from_timestamp":"2017-12-04T08:01:00Z","id":"103429","site":"Kotka","to_timestamp":"2017-12-11T08:30:00Z","uncertainty_Be-7-uncertainty":7.0,"uncertainty_Cs-137-uncertainty":8.0,"uncertainty_Pb-210-uncertainty":26.0},"type":"Feature"},{"geometry":{"coordinates":[26.91808,60.48318],"type":"Point"},"properties":{"concentration_Be-7":987.8,"concentration_Cs-137":0.6,"concentration_Pb-210":118.9,"concentration_air-volume":141139.0,"from_timestamp":"2017-12-11T08:30:00Z","id":"103429","site":"Kotka","to_timestamp":"2017-12-18T12:30:00Z","uncertainty_Be-7-uncertainty":6.0,"uncertainty_Cs-137-uncertainty":8.0,"uncertainty_Pb-210-uncertainty":8.0},"type":"Feature"},{"geometry":{"coordinates":[28.82663,61.13229],"type":"Point"},"properties":{"concentration_Be-7":1770.9,"concentration_Cs-137":0.9,"concentration_Pb-210":87.6,"concentration_air-volume":21119.0,"from_timestamp":"2017-12-07T04:31:00Z","id":"103430","site":"Imatra","to_timestamp":"2017-12-14T04:30:00Z","uncertainty_Be-7-uncertainty":6.0,"uncertainty_Cs-137-uncertainty":19.0,"uncertainty_Pb-210-uncertainty":20.0},"type":"Feature"},{"geometry":{"coordinates":[27.57,68.64],"type":"Point"},"properties":{"concentration_Be-7":1009.6,"concentration_Cs-137":0.3,"concentration_Pb-210":218.6,"concentration_air-volume":25461.0,"from_timestamp":"2017-11-30T08:57:00Z","id":"103431","site":"Ivalo","to_timestamp":"2017-12-07T08:13:00Z","uncertainty_Be-7-uncertainty":6.0,"uncertainty_Cs-137-uncertainty":29.0,"uncertainty_Pb-210-uncertainty":8.0},"type":"Feature"},{"geometry":{"coordinates":[27.57,68.64],"type":"Point"},"properties":{"concentration_Be-7":739.9,"concentration_Pb-210":138.6,"concentration_air-volume":25925.0,"from_timestamp":"2017-12-07T08:16:00Z","id":"103431","site":"Ivalo","to_timestamp":"2017-12-14T07:08:00Z","uncertainty_Be-7-uncertainty":6.0,"uncertainty_Pb-210-uncertainty":8.0},"type":"Feature"},{"geometry":{"coordinates":[27.63414,62.89195],"type":"Point"},"properties":{"concentration_Be-7":1187.2,"concentration_air-volume":10455.0,"from_timestamp":"2017-12-04T08:25:00Z","id":"103432","site":"Kuopio","to_timestamp":"2017-12-07T09:02:00Z","uncertainty_Be-7-uncertainty":3.0},"type":"Feature"},{"geometry":{"coordinates":[27.63414,62.89195],"type":"Point"},"properties":{"concentration_Be-7":1566.1,"concentration_air-volume":13539.0,"from_timestamp":"2017-12-07T09:04:00Z","id":"103432","site":"Kuopio","to_timestamp":"2017-12-11T08:31:00Z","uncertainty_Be-7-uncertainty":3.0},"type":"Feature"},{"geometry":{"coordinates":[27.63414,62.89195],"type":"Point"},"properties":{"concentration_Be-7":1769.6,"concentration_Pb-210":214.4,"concentration_air-volume":10178.0,"from_timestamp":"2017-12-11T08:32:00Z","id":"103432","site":"Kuopio","to_timestamp":"2017-12-14T08:31:00Z","uncertainty_Be-7-uncertainty":3.0,"uncertainty_Pb-210-uncertainty":22.0},"type":"Feature"},{"geometry":{"coordinates":[25.67774,66.51285],"type":"Point"},"properties":{"concentration_Be-7":743.0,"concentration_Cs-137":0.3,"concentration_Pb-210":237.0,"concentration_air-volume":141074.0,"from_timestamp":"2017-12-04T07:17:00Z","id":"103433","site":"Rovaniemi","to_timestamp":"2017-12-11T07:20:00Z","uncertainty_Be-7-uncertainty":6.0,"uncertainty_Cs-137-uncertainty":10.0,"uncertainty_Pb-210-uncertainty":8.0},"type":"Feature"},{"geometry":{"coordinates":[25.67774,66.51285],"type":"Point"},"properties":{"concentration_Be-7":10138.3,"concentration_Cs-137":2.2,"concentration_Pb-210":381.4,"concentration_air-volume":16436.0,"from_timestamp":"2017-12-11T07:35:00Z","id":"103433","site":"Rovaniemi","to_timestamp":"2017-12-18T06:53:00Z","uncertainty_Be-7-uncertainty":5.0,"uncertainty_Cs-137-uncertainty":12.0,"uncertainty_Pb-210-uncertainty":10.0},"type":"Feature"},{"geometry":{"coordinates":[26.62807,67.36505],"type":"Point"},"properties":{"concentration_Be-7":1110.4,"concentration_Pb-210":76.2,"concentration_air-volume":26189.0,"from_timestamp":"2017-11-30T06:25:00Z","id":"103434","site":"Sodankylä","to_timestamp":"2017-12-07T06:00:00Z","uncertainty_Be-7-uncertainty":6.0,"uncertainty_Pb-210-uncertainty":18.0},"type":"Feature"},{"geometry":{"coordinates":[26.62807,67.36505],"type":"Point"},"properties":{"concentration_Be-7":1400.0,"concentration_Cs-137":0.4,"concentration_Pb-210":63.4,"concentration_air-volume":25834.0,"from_timestamp":"2017-12-07T06:00:00Z","id":"103434","site":"Sodankylä","to_timestamp":"2017-12-14T06:38:00Z","uncertainty_Be-7-uncertainty":6.0,"uncertainty_Cs-137-uncertainty":26.0,"uncertainty_Pb-210-uncertainty":19.0},"type":"Feature"},{"geometry":{"coordinates":[27.70835,64.08474],"type":"Point"},"properties":{"concentration_Be-7":1132.5,"concentration_Cs-137":0.2,"concentration_air-volume":107686.0,"from_timestamp":"2017-12-04T07:50:00Z","id":"103435","site":"Kajaani","to_timestamp":"2017-12-11T21:00:00Z","uncertainty_Be-7-uncertainty":7.0,"uncertainty_Cs-137-uncertainty":14.0},"type":"Feature"},{"geometry":{"coordinates":[27.70835,64.08474],"type":"Point"},"properties":{"concentration_Be-7":1152.0,"concentration_Cs-137":0.3,"concentration_air-volume":103099.0,"from_timestamp":"2017-12-11T21:04:00Z","id":"103435","site":"Kajaani","to_timestamp":"2017-12-18T07:00:00Z","uncertainty_Be-7-uncertainty":7.0,"uncertainty_Cs-137-uncertainty":13.0},"type":"Feature"},{"geometry":{"coordinates":[25.05385,60.20905],"type":"Point"},"properties":{"concentration_Be-7":1059.3,"concentration_Cs-137":0.5,"concentration_air-volume":26108.0,"from_timestamp":"2017-11-30T10:57:00Z","id":"103428","site":"Helsinki","to_timestamp":"2017-12-07T12:43:00Z","uncertainty_Be-7-uncertainty":6.0,"uncertainty_Cs-137-uncertainty":22.0},"type":"Feature"},{"geometry":{"coordinates":[25.05385,60.20905],"type":"Point"},"properties":{"concentration_Be-7":1555.7,"concentration_Pb-210":140.7,"concentration_air-volume":24338.0,"from_timestamp":"2017-12-07T12:44:00Z","id":"103428","site":"Helsinki","to_timestamp":"2017-12-14T10:05:00Z","uncertainty_Be-7-uncertainty":5.0,"uncertainty_Pb-210-uncertainty":5.0},"type":"Feature"}],"name":"stuk_open_data_air_radionuclides","type":"FeatureCollection"}