{"crs":{"properties":{"name":"urn:ogc:def:crs:OGC:1.3:CRS84"},"type":"name"},"features":[{"geometry":{"coordinates":[25.05385,60.20905],"type":"Point"},"properties":{"concentration_Be-7":2520.0,"concentration_Cs-137":1.0,"concentration_air-volume":24452.0,"from_timestamp":"2017-02-16T10:30:00Z","id":"103428","site":"Helsinki","to_timestamp":"2017-02-23T10:05:00Z","uncertainty_Be-7-uncertainty":6.0,"uncertainty_Cs-137-uncertainty":16.0},"type":"Feature"},{"geometry":{"coordinates":[25.05385,60.20905],"type":"Point"},"properties":{"concentration_Be-7":2107.0,"concentration_Cs-137":0.5,"concentration_Pb-210":216.3,"concentration_air-volume":25181.0,"from_timestamp":"2017-02-23T10:05:00Z","id":"103428","site":"Helsinki","to_timestamp":"2017-03-02T12:24:00Z","uncertainty_Be-7-uncertainty":5.0,"uncertainty_Cs-137-uncertainty":21.0,"uncertainty_Pb-210-uncertainty":5.0},"type":"Feature"},{"geometry":{"coordinates":[26.91808,60.48318],"type":"Point"},"properties":{"concentration_Be-7":1909.4,"concentration_Cs-137":1.4,"concentration_Na-22":0.2,"concentration_Pb-210":637.6,"concentration_air-volume":193252.0,"from_timestamp":"2017-02-14T05:41:00Z","id":"103429","site":"Kotka","to_timestamp":"2017-02-27T06:16:00Z","uncertainty_Be-7-uncertainty":7.0,"uncertainty_Cs-137-uncertainty":8.0,"uncertainty_Na-22-uncertainty":19.0,"uncertainty_Pb-210-uncertainty":22.0},"type":"Feature"},{"geometry":{"coordinates":[26.91808,60.48318],"type":"Point"},"properties":{"concentration_Be-7":1233.5,"concentration_Cs-137":0.9,"concentration_Na-22":0.1,"concentration_Pb-210":685.8,"concentration_air-volume":144532.0,"from_timestamp":"2017-02-27T06:18:00Z","id":"103429","site":"Kotka","to_timestamp":"2017-03-06T14:35:00Z","uncertainty_Be-7-uncertainty":7.0,"uncertainty_Cs-137-uncertainty":8.0,"uncertainty_Na-22-uncertainty":23.0,"uncertainty_Pb-210-uncertainty":19.0},"type":"Feature"},{"geometry":{"coordinates":[28.82663,61.13229],"type":"Point"},"properties":{"concentration_Be-7":2320.9,"concentration_Cs-137":2.5,"concentration_air-volume":22369.0,"from_timestamp":"2017-02-20T04:32:00Z","id":"103430","site":"Imatra","to_timestamp":"2017-02-27T04:45:00Z","uncertainty_Be-7-uncertainty":6.0,"uncertainty_Cs-137-uncertainty":10.0},"type":"Feature"},{"geometry":{"coordinates":[28.82663,61.13229],"type":"Point"},"properties":{"concentration_Be-7":2070.1,"concentration_Cs-137":2.0,"concentration_Pb-210":76.8,"concentration_air-volume":22133.0,"from_timestamp":"2017-02-27T04:45:00Z","id":"103430","site":"Imatra","to_timestamp":"2017-03-06T07:00:00Z","uncertainty_Be-7-uncertainty":6.0,"uncertainty_Cs-137-uncertainty":9.0,"uncertainty_Pb-210-uncertainty":17.0},"type":"Feature"},{"geometry":{"coordinates":[27.57,68.64],"type":"Point"},"properties":{"concentration_Be-7":1393.6,"concentration_Cs-137":0.4,"concentration_Pb-210":238.4,"concentration_air-volume":26041.0,"from_timestamp":"2017-02-20T05:53:00Z","id":"103431","site":"Ivalo","to_timestamp":"2017-02-27T05:05:00Z","uncertainty_Be-7-uncertainty":6.0,"uncertainty_Cs-137-uncertainty":25.0,"uncertainty_Pb-210-uncertainty":8.0},"type":"Feature"},{"geometry":{"coordinates":[27.57,68.64],"type":"Point"},"properties":{"concentration_Be-7":1599.6,"concentration_Pb-210":98.2,"concentration_air-volume":26864.0,"from_timestamp":"2017-02-27T05:07:00Z","id":"103431","site":"Ivalo","to_timestamp":"2017-03-05T05:10:00Z","uncertainty_Be-7-uncertainty":6.0,"uncertainty_Pb-210-uncertainty":17.0},"type":"Feature"},{"geometry":{"coordinates":[27.63414,62.89195],"type":"Point"},"properties":{"concentration_Be-7":1849.9,"concentration_Cs-137":0.5,"concentration_Pb-210":239.1,"concentration_air-volume":25807.0,"from_timestamp":"2017-02-20T06:25:00Z","id":"103432","site":"Kuopio","to_timestamp":"2017-02-27T06:25:00Z","uncertainty_Be-7-uncertainty":5.0,"uncertainty_Cs-137-uncertainty":23.0,"uncertainty_Pb-210-uncertainty":5.0},"type":"Feature"},{"geometry":{"coordinates":[27.63414,62.89195],"type":"Point"},"properties":{"concentration_Be-7":1594.0,"concentration_Pb-210":325.3,"concentration_air-volume":25489.0,"from_timestamp":"2017-02-27T06:26:00Z","id":"103432","site":"Kuopio","to_timestamp":"2017-03-06T06:27:00Z","uncertainty_Be-7-uncertainty":5.0,"uncertainty_Pb-210-uncertainty":5.0},"type":"Feature"},{"geometry":{"coordinates":[25.67774,66.51285],"type":"Point"},"properties":{"concentration_Be-7":2085.1,"concentration_Cs-137":0.2,"concentration_I-131":0.3,"concentration_Na-22":0.2,"concentration_Pb-210":324.9,"concentration_air-volume":147136.0,"from_timestamp":"2017-02-20T06:55:00Z","id":"103433","site":"Rovaniemi","to_timestamp":"2017-02-27T07:07:00Z","uncertainty_Be-7-uncertainty":5.0,"uncertainty_Cs-137-uncertainty":13.0,"uncertainty_I-131-uncertainty":14.0,"uncertainty_Na-22-uncertainty":22.0,"uncertainty_Pb-210-uncertainty":5.0},"type":"Feature"},{"geometry":{"coordinates":[25.67774,66.51285],"type":"Point"},"properties":{"concentration_Be-7":1547.5,"concentration_Cs-137":0.3,"concentration_Na-22":0.2,"concentration_Pb-210":929.8,"concentration_air-volume":149447.0,"from_timestamp":"2017-02-27T07:10:00Z","id":"103433","site":"Rovaniemi","to_timestamp":"2017-03-06T07:18:00Z","uncertainty_Be-7-uncertainty":7.0,"uncertainty_Cs-137-uncertainty":12.0,"uncertainty_Na-22-uncertainty":21.0,"uncertainty_Pb-210-uncertainty":20.0},"type":"Feature"},{"geometry":{"coordinates":[26.62807,67.36505],"type":"Point"},"properties":{"concentration_Be-7":1214.1,"concentration_Pb-210":141.0,"concentration_air-volume":21836.0,"from_timestamp":"2017-02-13T06:11:00Z","id":"103434","site":"Sodankylä","to_timestamp":"2017-02-23T06:35:00Z","uncertainty_Be-7-uncertainty":6.0,"uncertainty_Pb-210-uncertainty":8.0},"type":"Feature"},{"geometry":{"coordinates":[26.62807,67.36505],"type":"Point"},"properties":{"concentration_Be-7":2229.7,"concentration_Pb-210":65.3,"concentration_air-volume":25412.0,"from_timestamp":"2017-02-23T06:36:00Z","id":"103434","site":"Sodankylä","to_timestamp":"2017-03-02T06:31:00Z","uncertainty_Be-7-uncertainty":6.0,"uncertainty_Pb-210-uncertainty":21.0},"type":"Feature"},{"geometry":{"coordinates":[26.62807,67.36505],"type":"Point"},"properties":{"concentration_Be-7":1798.5,"concentration_Pb-210":379.1,"concentration_air-volume":25540.0,"from_timestamp":"2017-02-27T04:27:00Z","id":"103434","site":"Sodankylä","to_timestamp":"2017-03-06T06:27:00Z","uncertainty_Be-7-uncertainty":5.0,"uncertainty_Pb-210-uncertainty":5.0},"type":"Feature"},{"geometry":{"coordinates":[27.70835,64.08474],"type":"Point"},"properties":{"concentration_Be-7":943.5,"concentration_Cs-137":0.2,"concentration_Na-22":0.1,"concentration_Pb-210":515.0,"concentration_air-volume":421028.0,"from_timestamp":"2017-02-28T10:02:00Z","id":"103435","site":"Kajaani","to_timestamp":"2017-03-20T10:20:00Z","uncertainty_Be-7-uncertainty":7.0,"uncertainty_Cs-137-uncertainty":8.0,"uncertainty_Na-22-uncertainty":18.0,"uncertainty_Pb-210-uncertainty":16.0},"type":"Feature"},{"geometry":{"coordinates":[25.05385,60.20905],"type":"Point"},"properties":{"concentration_Be-7":2520.0,"concentration_Cs-137":1.0,"concentration_air-volume":24452.0,"from_timestamp":"2017-02-16T10:30:00Z","id":"103428","site":"Helsinki","to_timestamp":"2017-02-23T10:05:00Z","uncertainty_Be-7-uncertainty":6.0,"uncertainty_Cs-137-uncertainty":16.0},"type":"Feature"},{"geometry":{"coordinates":[25.05385,60.20905],"type":"Point"},"properties":{"concentration_Be-7":2107.0,"concentration_Cs-137":0.5,"concentration_Pb-210":216.3,"concentration_air-volume":25181.0,"from_timestamp":"2017-02-23T10:05:00Z","id":"103428","site":"Helsinki","to_timestamp":"2017-03-02T12:24:00Z","uncertainty_Be-7-uncertainty":5.0,"uncertainty_Cs-137-uncertainty":21.0,"uncertainty_Pb-210-uncertainty":5.0},"type":"Feature"}],"name":"stuk_open_data_air_radionuclides","type":"FeatureCollection"}