{"crs":{"properties":{"name":"urn:ogc:def:crs:OGC:1.3:CRS84"},"type":"name"},"features":[{"geometry":{"coordinates":[25.05385,60.20905],"type":"Point"},"properties":{"concentration_Be-7":2594.0,"concentration_Pb-210":327.7,"concentration_air-volume":23776.0,"from_timestamp":"2017-11-02T10:16:00Z","id":"103428","site":"Helsinki","to_timestamp":"2017-11-09T09:41:00Z","uncertainty_Be-7-uncertainty":5.0,"uncertainty_Pb-210-uncertainty":5.0},"type":"Feature"},{"geometry":{"coordinates":[25.05385,60.20905],"type":"Point"},"properties":{"concentration_Be-7":908.5,"concentration_Cs-137":0.3,"concentration_Pb-210":136.2,"concentration_air-volume":25514.0,"from_timestamp":"2017-11-09T09:42:00Z","id":"103428","site":"Helsinki","to_timestamp":"2017-11-16T10:34:00Z","uncertainty_Be-7-uncertainty":6.0,"uncertainty_Cs-137-uncertainty":27.0,"uncertainty_Pb-210-uncertainty":8.0},"type":"Feature"},{"geometry":{"coordinates":[26.91808,60.48318],"type":"Point"},"properties":{"concentration_Be-7":1752.3,"concentration_Cs-137":1.7,"concentration_Na-22":0.1,"concentration_Pb-210":365.0,"concentration_air-volume":250000.0,"from_timestamp":"2017-10-25T09:55:00Z","id":"103429","site":"Kotka","to_timestamp":"2017-11-08T11:30:00Z","uncertainty_Be-7-uncertainty":7.0,"uncertainty_Cs-137-uncertainty":7.0,"uncertainty_Na-22-uncertainty":18.0,"uncertainty_Pb-210-uncertainty":19.0},"type":"Feature"},{"geometry":{"coordinates":[26.91808,60.48318],"type":"Point"},"properties":{"concentration_Be-7":1048.0,"concentration_Cs-137":0.6,"concentration_air-volume":102143.0,"from_timestamp":"2017-11-08T11:30:00Z","id":"103429","site":"Kotka","to_timestamp":"2017-11-15T15:03:00Z","uncertainty_Be-7-uncertainty":7.0,"uncertainty_Cs-137-uncertainty":9.0},"type":"Feature"},{"geometry":{"coordinates":[28.82663,61.13229],"type":"Point"},"properties":{"concentration_Be-7":2214.1,"concentration_Cs-137":1.1,"concentration_Pb-210":283.0,"concentration_air-volume":23218.0,"from_timestamp":"2017-11-02T05:20:00Z","id":"103430","site":"Imatra","to_timestamp":"2017-11-09T04:27:00Z","uncertainty_Be-7-uncertainty":5.0,"uncertainty_Cs-137-uncertainty":12.0,"uncertainty_Pb-210-uncertainty":5.0},"type":"Feature"},{"geometry":{"coordinates":[28.82663,61.13229],"type":"Point"},"properties":{"concentration_Be-7":1141.3,"concentration_Cs-137":0.5,"concentration_Pb-210":257.5,"concentration_air-volume":21859.0,"from_timestamp":"2017-11-09T04:28:00Z","id":"103430","site":"Imatra","to_timestamp":"2017-11-16T12:00:00Z","uncertainty_Be-7-uncertainty":5.0,"uncertainty_Cs-137-uncertainty":29.0,"uncertainty_Pb-210-uncertainty":5.0},"type":"Feature"},{"geometry":{"coordinates":[27.57,68.64],"type":"Point"},"properties":{"concentration_Be-7":662.3,"concentration_Pb-210":66.1,"concentration_air-volume":25691.0,"from_timestamp":"2017-11-02T06:51:00Z","id":"103431","site":"Ivalo","to_timestamp":"2017-11-09T07:30:00Z","uncertainty_Be-7-uncertainty":6.0,"uncertainty_Pb-210-uncertainty":8.0},"type":"Feature"},{"geometry":{"coordinates":[27.57,68.64],"type":"Point"},"properties":{"concentration_Be-7":398.7,"concentration_Pb-210":184.8,"concentration_air-volume":25623.0,"from_timestamp":"2017-11-09T07:31:00Z","id":"103431","site":"Ivalo","to_timestamp":"2017-11-16T08:35:00Z","uncertainty_Be-7-uncertainty":5.0,"uncertainty_Pb-210-uncertainty":5.0},"type":"Feature"},{"geometry":{"coordinates":[27.63414,62.89195],"type":"Point"},"properties":{"concentration_Be-7":2971.7,"concentration_Pb-210":249.5,"concentration_air-volume":13674.0,"from_timestamp":"2017-11-02T08:10:00Z","id":"103432","site":"Kuopio","to_timestamp":"2017-11-06T08:22:00Z","uncertainty_Be-7-uncertainty":3.0,"uncertainty_Pb-210-uncertainty":16.0},"type":"Feature"},{"geometry":{"coordinates":[27.63414,62.89195],"type":"Point"},"properties":{"concentration_Be-7":1512.7,"concentration_air-volume":10309.0,"from_timestamp":"2017-11-06T08:23:00Z","id":"103432","site":"Kuopio","to_timestamp":"2017-11-09T08:22:00Z","uncertainty_Be-7-uncertainty":3.0},"type":"Feature"},{"geometry":{"coordinates":[27.63414,62.89195],"type":"Point"},"properties":{"concentration_Be-7":1365.4,"concentration_air-volume":13483.0,"from_timestamp":"2017-11-09T08:23:00Z","id":"103432","site":"Kuopio","to_timestamp":"2017-11-13T08:11:00Z","uncertainty_Be-7-uncertainty":3.0},"type":"Feature"},{"geometry":{"coordinates":[25.67774,66.51285],"type":"Point"},"properties":{"concentration_Be-7":1552.3,"concentration_Cs-137":0.4,"concentration_air-volume":135607.0,"from_timestamp":"2017-10-30T07:28:00Z","id":"103433","site":"Rovaniemi","to_timestamp":"2017-11-06T07:45:00Z","uncertainty_Be-7-uncertainty":7.0,"uncertainty_Cs-137-uncertainty":10.0},"type":"Feature"},{"geometry":{"coordinates":[25.67774,66.51285],"type":"Point"},"properties":{"concentration_Be-7":861.3,"concentration_Cs-137":0.2,"concentration_Na-22":0.1,"concentration_Pb-210":193.7,"concentration_air-volume":189300.0,"from_timestamp":"2017-11-06T07:55:00Z","id":"103433","site":"Rovaniemi","to_timestamp":"2017-11-15T09:30:00Z","uncertainty_Be-7-uncertainty":7.0,"uncertainty_Cs-137-uncertainty":12.0,"uncertainty_Na-22-uncertainty":21.0,"uncertainty_Pb-210-uncertainty":24.0},"type":"Feature"},{"geometry":{"coordinates":[26.62807,67.36505],"type":"Point"},"properties":{"concentration_Be-7":1306.0,"concentration_Pb-210":124.8,"concentration_air-volume":25430.0,"from_timestamp":"2017-11-02T06:53:00Z","id":"103434","site":"Sodankylä","to_timestamp":"2017-11-09T06:25:00Z","uncertainty_Be-7-uncertainty":6.0,"uncertainty_Pb-210-uncertainty":8.0},"type":"Feature"},{"geometry":{"coordinates":[26.62807,67.36505],"type":"Point"},"properties":{"concentration_Be-7":570.4,"concentration_Pb-210":146.6,"concentration_air-volume":25298.0,"from_timestamp":"2017-11-09T06:26:00Z","id":"103434","site":"Sodankylä","to_timestamp":"2017-11-16T06:15:00Z","uncertainty_Be-7-uncertainty":6.0,"uncertainty_Pb-210-uncertainty":8.0},"type":"Feature"},{"geometry":{"coordinates":[27.70835,64.08474],"type":"Point"},"properties":{"concentration_Be-7":1434.3,"concentration_Cs-137":0.4,"concentration_Pb-210":141.6,"concentration_air-volume":114023.0,"from_timestamp":"2017-10-30T07:39:00Z","id":"103435","site":"Kajaani","to_timestamp":"2017-11-07T08:41:00Z","uncertainty_Be-7-uncertainty":6.0,"uncertainty_Cs-137-uncertainty":11.0,"uncertainty_Pb-210-uncertainty":8.0},"type":"Feature"},{"geometry":{"coordinates":[27.70835,64.08474],"type":"Point"},"properties":{"concentration_Be-7":1175.1,"concentration_Cs-137":0.3,"concentration_air-volume":124059.0,"from_timestamp":"2017-11-07T09:05:00Z","id":"103435","site":"Kajaani","to_timestamp":"2017-11-13T07:00:00Z","uncertainty_Be-7-uncertainty":7.0,"uncertainty_Cs-137-uncertainty":12.0},"type":"Feature"},{"geometry":{"coordinates":[25.05385,60.20905],"type":"Point"},"properties":{"concentration_Be-7":2594.0,"concentration_Pb-210":327.7,"concentration_air-volume":23776.0,"from_timestamp":"2017-11-02T10:16:00Z","id":"103428","site":"Helsinki","to_timestamp":"2017-11-09T09:41:00Z","uncertainty_Be-7-uncertainty":5.0,"uncertainty_Pb-210-uncertainty":5.0},"type":"Feature"},{"geometry":{"coordinates":[25.05385,60.20905],"type":"Point"},"properties":{"concentration_Be-7":908.5,"concentration_Cs-137":0.3,"concentration_Pb-210":136.2,"concentration_air-volume":25514.0,"from_timestamp":"2017-11-09T09:42:00Z","id":"103428","site":"Helsinki","to_timestamp":"2017-11-16T10:34:00Z","uncertainty_Be-7-uncertainty":6.0,"uncertainty_Cs-137-uncertainty":27.0,"uncertainty_Pb-210-uncertainty":8.0},"type":"Feature"}],"name":"stuk_open_data_air_radionuclides","type":"FeatureCollection"}