{"crs":{"properties":{"name":"urn:ogc:def:crs:OGC:1.3:CRS84"},"type":"name"},"features":[{"geometry":{"coordinates":[25.05385,60.20905],"type":"Point"},"properties":{"concentration_Be-7":3777.0,"concentration_Cs-137":0.4,"concentration_Pb-210":340.0,"concentration_air-volume":23752.0,"from_timestamp":"2017-08-17T12:00:00Z","id":"103428","site":"Helsinki","to_timestamp":"2017-08-24T10:54:00Z","uncertainty_Be-7-uncertainty":6.0,"uncertainty_Cs-137-uncertainty":24.0,"uncertainty_Pb-210-uncertainty":8.0},"type":"Feature"},{"geometry":{"coordinates":[25.05385,60.20905],"type":"Point"},"properties":{"concentration_Be-7":2259.4,"concentration_Pb-210":310.7,"concentration_air-volume":27241.0,"from_timestamp":"2017-08-24T10:55:00Z","id":"103428","site":"Helsinki","to_timestamp":"2017-09-01T08:34:00Z","uncertainty_Be-7-uncertainty":5.0,"uncertainty_Pb-210-uncertainty":5.0},"type":"Feature"},{"geometry":{"coordinates":[26.91808,60.48318],"type":"Point"},"properties":{"concentration_Be-7":1709.5,"concentration_Cs-137":1.5,"concentration_air-volume":115365.0,"from_timestamp":"2017-08-22T07:15:00Z","id":"103429","site":"Kotka","to_timestamp":"2017-08-28T07:15:00Z","uncertainty_Be-7-uncertainty":7.0,"uncertainty_Cs-137-uncertainty":8.0},"type":"Feature"},{"geometry":{"coordinates":[26.91808,60.48318],"type":"Point"},"properties":{"concentration_Be-7":2384.5,"concentration_Cs-137":2.6,"concentration_Na-22":0.2,"concentration_Pb-210":636.6,"concentration_air-volume":134777.0,"from_timestamp":"2017-08-28T07:19:00Z","id":"103429","site":"Kotka","to_timestamp":"2017-09-04T08:45:00Z","uncertainty_Be-7-uncertainty":7.0,"uncertainty_Cs-137-uncertainty":7.0,"uncertainty_Na-22-uncertainty":16.0,"uncertainty_Pb-210-uncertainty":23.0},"type":"Feature"},{"geometry":{"coordinates":[28.82663,61.13229],"type":"Point"},"properties":{"concentration_Be-7":1825.6,"concentration_Cs-137":2.5,"concentration_Pb-210":202.6,"concentration_air-volume":16992.0,"from_timestamp":"2017-08-22T04:17:00Z","id":"103430","site":"Imatra","to_timestamp":"2017-08-28T04:17:00Z","uncertainty_Be-7-uncertainty":5.0,"uncertainty_Cs-137-uncertainty":9.0,"uncertainty_Pb-210-uncertainty":5.0},"type":"Feature"},{"geometry":{"coordinates":[28.82663,61.13229],"type":"Point"},"properties":{"concentration_Be-7":2896.3,"concentration_Cs-137":4.5,"concentration_air-volume":20673.0,"from_timestamp":"2017-08-28T04:20:00Z","id":"103430","site":"Imatra","to_timestamp":"2017-09-04T11:15:00Z","uncertainty_Be-7-uncertainty":10.0,"uncertainty_Cs-137-uncertainty":11.0},"type":"Feature"},{"geometry":{"coordinates":[27.57,68.64],"type":"Point"},"properties":{"concentration_Be-7":886.8,"concentration_Pb-210":65.4,"concentration_air-volume":26060.0,"from_timestamp":"2017-08-21T05:59:00Z","id":"103431","site":"Ivalo","to_timestamp":"2017-08-28T05:35:00Z","uncertainty_Be-7-uncertainty":5.0,"uncertainty_Pb-210-uncertainty":6.0},"type":"Feature"},{"geometry":{"coordinates":[27.57,68.64],"type":"Point"},"properties":{"concentration_Be-7":1500.5,"concentration_Pb-210":136.0,"concentration_air-volume":25033.0,"from_timestamp":"2017-08-28T05:37:00Z","id":"103431","site":"Ivalo","to_timestamp":"2017-09-04T06:22:00Z","uncertainty_Be-7-uncertainty":5.0,"uncertainty_Pb-210-uncertainty":5.0},"type":"Feature"},{"geometry":{"coordinates":[27.63414,62.89195],"type":"Point"},"properties":{"concentration_Be-7":1142.6,"concentration_Cs-137":0.6,"concentration_air-volume":24638.0,"from_timestamp":"2017-08-21T06:25:00Z","id":"103432","site":"Kuopio","to_timestamp":"2017-08-28T06:23:00Z","uncertainty_Be-7-uncertainty":6.0,"uncertainty_Cs-137-uncertainty":25.0},"type":"Feature"},{"geometry":{"coordinates":[27.63414,62.89195],"type":"Point"},"properties":{"concentration_Be-7":2543.7,"concentration_Cs-137":0.9,"concentration_Pb-210":279.5,"concentration_air-volume":24592.0,"from_timestamp":"2017-08-28T06:24:00Z","id":"103432","site":"Kuopio","to_timestamp":"2017-09-04T06:30:00Z","uncertainty_Be-7-uncertainty":5.0,"uncertainty_Cs-137-uncertainty":16.0,"uncertainty_Pb-210-uncertainty":5.0},"type":"Feature"},{"geometry":{"coordinates":[25.67774,66.51285],"type":"Point"},"properties":{"concentration_Be-7":872.9,"concentration_air-volume":80658.0,"from_timestamp":"2017-08-21T09:33:00Z","id":"103433","site":"Rovaniemi","to_timestamp":"2017-08-28T07:03:00Z","uncertainty_Be-7-uncertainty":7.0},"type":"Feature"},{"geometry":{"coordinates":[25.67774,66.51285],"type":"Point"},"properties":{"concentration_Be-7":904.1,"concentration_Cs-137":0.2,"concentration_Pb-210":150.5,"concentration_air-volume":91559.0,"from_timestamp":"2017-08-28T07:06:00Z","id":"103433","site":"Rovaniemi","to_timestamp":"2017-09-04T09:12:00Z","uncertainty_Be-7-uncertainty":5.0,"uncertainty_Cs-137-uncertainty":16.0,"uncertainty_Pb-210-uncertainty":5.0},"type":"Feature"},{"geometry":{"coordinates":[26.62807,67.36505],"type":"Point"},"properties":{"concentration_Be-7":1849.9,"concentration_Cs-137":0.5,"concentration_air-volume":24592.0,"from_timestamp":"2017-08-17T06:38:00Z","id":"103434","site":"Sodankylä","to_timestamp":"2017-08-24T06:09:00Z","uncertainty_Be-7-uncertainty":6.0,"uncertainty_Cs-137-uncertainty":29.0},"type":"Feature"},{"geometry":{"coordinates":[26.62807,67.36505],"type":"Point"},"properties":{"concentration_Be-7":879.8,"concentration_air-volume":14370.0,"from_timestamp":"2017-08-24T06:09:00Z","id":"103434","site":"Sodankylä","to_timestamp":"2017-08-28T06:25:00Z","uncertainty_Be-7-uncertainty":10.0},"type":"Feature"},{"geometry":{"coordinates":[26.62807,67.36505],"type":"Point"},"properties":{"concentration_Be-7":1472.6,"concentration_Cs-137":0.4,"concentration_air-volume":24907.0,"from_timestamp":"2017-08-28T06:26:00Z","id":"103434","site":"Sodankylä","to_timestamp":"2017-09-04T07:02:00Z","uncertainty_Be-7-uncertainty":6.0,"uncertainty_Cs-137-uncertainty":17.0},"type":"Feature"},{"geometry":{"coordinates":[25.05385,60.20905],"type":"Point"},"properties":{"concentration_Be-7":3777.0,"concentration_Cs-137":0.4,"concentration_Pb-210":340.0,"concentration_air-volume":23752.0,"from_timestamp":"2017-08-17T12:00:00Z","id":"103428","site":"Helsinki","to_timestamp":"2017-08-24T10:54:00Z","uncertainty_Be-7-uncertainty":6.0,"uncertainty_Cs-137-uncertainty":24.0,"uncertainty_Pb-210-uncertainty":8.0},"type":"Feature"},{"geometry":{"coordinates":[25.05385,60.20905],"type":"Point"},"properties":{"concentration_Be-7":2259.4,"concentration_Pb-210":310.7,"concentration_air-volume":27241.0,"from_timestamp":"2017-08-24T10:55:00Z","id":"103428","site":"Helsinki","to_timestamp":"2017-09-01T08:34:00Z","uncertainty_Be-7-uncertainty":5.0,"uncertainty_Pb-210-uncertainty":5.0},"type":"Feature"}],"name":"stuk_open_data_air_radionuclides","type":"FeatureCollection"}