{"crs":{"properties":{"name":"urn:ogc:def:crs:OGC:1.3:CRS84"},"type":"name"},"features":[{"geometry":{"coordinates":[25.05385,60.20905],"type":"Point"},"properties":{"concentration_Be-7":2259.4,"concentration_Pb-210":310.7,"concentration_air-volume":27241.0,"from_timestamp":"2017-08-24T10:55:00Z","id":"103428","site":"Helsinki","to_timestamp":"2017-09-01T08:34:00Z","uncertainty_Be-7-uncertainty":5.0,"uncertainty_Pb-210-uncertainty":5.0},"type":"Feature"},{"geometry":{"coordinates":[25.05385,60.20905],"type":"Point"},"properties":{"concentration_Be-7":2125.2,"concentration_Cs-137":0.6,"concentration_Pb-210":177.1,"concentration_air-volume":24170.0,"from_timestamp":"2017-09-01T08:35:00Z","id":"103428","site":"Helsinki","to_timestamp":"2017-09-08T06:09:00Z","uncertainty_Be-7-uncertainty":6.0,"uncertainty_Cs-137-uncertainty":19.0,"uncertainty_Pb-210-uncertainty":8.0},"type":"Feature"},{"geometry":{"coordinates":[25.05385,60.20905],"type":"Point"},"properties":{"concentration_Be-7":2893.1,"concentration_Pb-210":412.4,"concentration_air-volume":21292.0,"from_timestamp":"2017-09-08T06:10:00Z","id":"103428","site":"Helsinki","to_timestamp":"2017-09-14T12:11:00Z","uncertainty_Be-7-uncertainty":5.0,"uncertainty_Pb-210-uncertainty":5.0},"type":"Feature"},{"geometry":{"coordinates":[26.91808,60.48318],"type":"Point"},"properties":{"concentration_Be-7":2353.4,"concentration_Cs-137":1.9,"concentration_Na-22":0.2,"concentration_Pb-210":281.4,"concentration_air-volume":138234.0,"from_timestamp":"2017-09-04T08:55:00Z","id":"103429","site":"Kotka","to_timestamp":"2017-09-11T13:48:00Z","uncertainty_Be-7-uncertainty":5.0,"uncertainty_Cs-137-uncertainty":6.0,"uncertainty_Na-22-uncertainty":22.0,"uncertainty_Pb-210-uncertainty":5.0},"type":"Feature"},{"geometry":{"coordinates":[26.91808,60.48318],"type":"Point"},"properties":{"concentration_Be-7":2384.5,"concentration_Cs-137":2.6,"concentration_Na-22":0.2,"concentration_Pb-210":636.6,"concentration_air-volume":134777.0,"from_timestamp":"2017-08-28T07:19:00Z","id":"103429","site":"Kotka","to_timestamp":"2017-09-04T08:45:00Z","uncertainty_Be-7-uncertainty":7.0,"uncertainty_Cs-137-uncertainty":7.0,"uncertainty_Na-22-uncertainty":16.0,"uncertainty_Pb-210-uncertainty":23.0},"type":"Feature"},{"geometry":{"coordinates":[28.82663,61.13229],"type":"Point"},"properties":{"concentration_Be-7":2246.3,"concentration_Cs-137":1.2,"concentration_Pb-210":268.8,"concentration_air-volume":19237.0,"from_timestamp":"2017-09-04T11:15:00Z","id":"103430","site":"Imatra","to_timestamp":"2017-09-11T04:50:00Z","uncertainty_Be-7-uncertainty":6.0,"uncertainty_Cs-137-uncertainty":15.0,"uncertainty_Pb-210-uncertainty":8.0},"type":"Feature"},{"geometry":{"coordinates":[28.82663,61.13229],"type":"Point"},"properties":{"concentration_Be-7":2896.3,"concentration_Cs-137":4.5,"concentration_air-volume":20673.0,"from_timestamp":"2017-08-28T04:20:00Z","id":"103430","site":"Imatra","to_timestamp":"2017-09-04T11:15:00Z","uncertainty_Be-7-uncertainty":10.0,"uncertainty_Cs-137-uncertainty":11.0},"type":"Feature"},{"geometry":{"coordinates":[27.57,68.64],"type":"Point"},"properties":{"concentration_Be-7":1500.5,"concentration_Pb-210":136.0,"concentration_air-volume":25033.0,"from_timestamp":"2017-08-28T05:37:00Z","id":"103431","site":"Ivalo","to_timestamp":"2017-09-04T06:22:00Z","uncertainty_Be-7-uncertainty":5.0,"uncertainty_Pb-210-uncertainty":5.0},"type":"Feature"},{"geometry":{"coordinates":[27.57,68.64],"type":"Point"},"properties":{"concentration_Be-7":2710.4,"concentration_air-volume":25292.0,"from_timestamp":"2017-09-04T06:25:00Z","id":"103431","site":"Ivalo","to_timestamp":"2017-09-11T07:49:00Z","uncertainty_Be-7-uncertainty":6.0},"type":"Feature"},{"geometry":{"coordinates":[27.63414,62.89195],"type":"Point"},"properties":{"concentration_Be-7":2543.7,"concentration_Cs-137":0.9,"concentration_Pb-210":279.5,"concentration_air-volume":24592.0,"from_timestamp":"2017-08-28T06:24:00Z","id":"103432","site":"Kuopio","to_timestamp":"2017-09-04T06:30:00Z","uncertainty_Be-7-uncertainty":5.0,"uncertainty_Cs-137-uncertainty":16.0,"uncertainty_Pb-210-uncertainty":5.0},"type":"Feature"},{"geometry":{"coordinates":[27.63414,62.89195],"type":"Point"},"properties":{"concentration_Be-7":2583.3,"concentration_Cs-137":0.7,"concentration_air-volume":24783.0,"from_timestamp":"2017-09-04T06:31:00Z","id":"103432","site":"Kuopio","to_timestamp":"2017-09-11T06:28:00Z","uncertainty_Be-7-uncertainty":6.0,"uncertainty_Cs-137-uncertainty":21.0},"type":"Feature"},{"geometry":{"coordinates":[25.67774,66.51285],"type":"Point"},"properties":{"concentration_Be-7":904.1,"concentration_Cs-137":0.2,"concentration_Pb-210":150.5,"concentration_air-volume":91559.0,"from_timestamp":"2017-08-28T07:06:00Z","id":"103433","site":"Rovaniemi","to_timestamp":"2017-09-04T09:12:00Z","uncertainty_Be-7-uncertainty":5.0,"uncertainty_Cs-137-uncertainty":16.0,"uncertainty_Pb-210-uncertainty":5.0},"type":"Feature"},{"geometry":{"coordinates":[25.67774,66.51285],"type":"Point"},"properties":{"concentration_Be-7":1986.7,"concentration_Cs-137":0.2,"concentration_Na-22":0.3,"concentration_Pb-210":26.4,"concentration_air-volume":96195.0,"from_timestamp":"2017-09-04T09:12:00Z","id":"103433","site":"Rovaniemi","to_timestamp":"2017-09-11T06:57:00Z","uncertainty_Be-7-uncertainty":5.0,"uncertainty_Cs-137-uncertainty":16.0,"uncertainty_Na-22-uncertainty":19.0,"uncertainty_Pb-210-uncertainty":15.0},"type":"Feature"},{"geometry":{"coordinates":[26.62807,67.36505],"type":"Point"},"properties":{"concentration_Be-7":1472.6,"concentration_Cs-137":0.4,"concentration_air-volume":24907.0,"from_timestamp":"2017-08-28T06:26:00Z","id":"103434","site":"Sodankylä","to_timestamp":"2017-09-04T07:02:00Z","uncertainty_Be-7-uncertainty":6.0,"uncertainty_Cs-137-uncertainty":17.0},"type":"Feature"},{"geometry":{"coordinates":[26.62807,67.36505],"type":"Point"},"properties":{"concentration_Be-7":2356.1,"concentration_Cs-137":0.4,"concentration_air-volume":25079.0,"from_timestamp":"2017-09-04T07:04:00Z","id":"103434","site":"Sodankylä","to_timestamp":"2017-09-11T06:55:00Z","uncertainty_Be-7-uncertainty":6.0,"uncertainty_Cs-137-uncertainty":19.0},"type":"Feature"}],"name":"stuk_open_data_air_radionuclides","type":"FeatureCollection"}