{"crs":{"properties":{"name":"urn:ogc:def:crs:OGC:1.3:CRS84"},"type":"name"},"features":[{"geometry":{"coordinates":[25.05385,60.20905],"type":"Point"},"properties":{"concentration_Be-7":2283.5,"concentration_Cs-137":0.4,"concentration_Pb-210":632.1,"concentration_air-volume":26701.0,"from_timestamp":"2018-11-01T10:55:00Z","id":"103428","site":"Helsinki","to_timestamp":"2018-11-09T08:46:00Z","uncertainty_Be-7-uncertainty":5.0,"uncertainty_Cs-137-uncertainty":27.0,"uncertainty_Pb-210-uncertainty":5.0},"type":"Feature"},{"geometry":{"coordinates":[25.05385,60.20905],"type":"Point"},"properties":{"concentration_Be-7":1302.4,"concentration_Cs-137":0.4,"concentration_Pb-210":170.9,"concentration_air-volume":18139.0,"from_timestamp":"2018-11-09T08:47:00Z","id":"103428","site":"Helsinki","to_timestamp":"2018-11-14T09:01:00Z","uncertainty_Be-7-uncertainty":6.0,"uncertainty_Cs-137-uncertainty":19.0,"uncertainty_Pb-210-uncertainty":20.0},"type":"Feature"},{"geometry":{"coordinates":[25.05385,60.20905],"type":"Point"},"properties":{"concentration_Be-7":3181.8,"concentration_Cs-137":0.6,"concentration_air-volume":29140.0,"from_timestamp":"2018-11-14T09:10:00Z","id":"103428","site":"Helsinki","to_timestamp":"2018-11-22T11:19:00Z","uncertainty_Be-7-uncertainty":6.0,"uncertainty_Cs-137-uncertainty":14.0},"type":"Feature"},{"geometry":{"coordinates":[26.91808,60.48318],"type":"Point"},"properties":{"concentration_Be-7":1480.7,"concentration_Cs-137":0.6,"concentration_Na-22":0.2,"concentration_Pb-210":667.5,"concentration_air-volume":100089.0,"from_timestamp":"2018-11-05T13:11:00Z","id":"103429","site":"Kotka","to_timestamp":"2018-11-12T11:43:00Z","uncertainty_Be-7-uncertainty":5.0,"uncertainty_Cs-137-uncertainty":9.0,"uncertainty_Na-22-uncertainty":30.0,"uncertainty_Pb-210-uncertainty":5.0},"type":"Feature"},{"geometry":{"coordinates":[26.91808,60.48318],"type":"Point"},"properties":{"concentration_Be-7":2017.1,"concentration_Cs-137":0.8,"concentration_Na-22":0.2,"concentration_Pb-210":268.0,"concentration_air-volume":103941.0,"from_timestamp":"2018-11-12T11:48:00Z","id":"103429","site":"Kotka","to_timestamp":"2018-11-19T12:43:00Z","uncertainty_Be-7-uncertainty":5.0,"uncertainty_Cs-137-uncertainty":7.0,"uncertainty_Na-22-uncertainty":21.0,"uncertainty_Pb-210-uncertainty":5.0},"type":"Feature"},{"geometry":{"coordinates":[28.82663,61.13229],"type":"Point"},"properties":{"concentration_Be-7":2473.3,"concentration_Cs-137":1.6,"concentration_Pb-210":588.4,"concentration_air-volume":22230.0,"from_timestamp":"2018-11-09T10:58:00Z","id":"103430","site":"Imatra","to_timestamp":"2018-11-20T05:20:00Z","uncertainty_Be-7-uncertainty":6.0,"uncertainty_Cs-137-uncertainty":10.0,"uncertainty_Pb-210-uncertainty":8.0},"type":"Feature"},{"geometry":{"coordinates":[27.57,68.64],"type":"Point"},"properties":{"concentration_Be-7":841.2,"concentration_Pb-210":179.7,"concentration_air-volume":25246.0,"from_timestamp":"2018-11-05T08:18:00Z","id":"103431","site":"Ivalo","to_timestamp":"2018-11-12T05:48:00Z","uncertainty_Be-7-uncertainty":6.0,"uncertainty_Pb-210-uncertainty":8.0},"type":"Feature"},{"geometry":{"coordinates":[27.57,68.64],"type":"Point"},"properties":{"concentration_Be-7":1412.9,"concentration_Pb-210":190.6,"concentration_air-volume":25820.0,"from_timestamp":"2018-11-12T05:50:00Z","id":"103431","site":"Ivalo","to_timestamp":"2018-11-19T06:11:00Z","uncertainty_Be-7-uncertainty":6.0,"uncertainty_Pb-210-uncertainty":20.0},"type":"Feature"},{"geometry":{"coordinates":[27.63414,62.89195],"type":"Point"},"properties":{"concentration_Be-7":1544.5,"concentration_air-volume":9925.0,"from_timestamp":"2018-11-05T10:29:00Z","id":"103432","site":"Kuopio","to_timestamp":"2018-11-08T08:14:00Z","uncertainty_Be-7-uncertainty":3.0},"type":"Feature"},{"geometry":{"coordinates":[27.63414,62.89195],"type":"Point"},"properties":{"concentration_Be-7":924.7,"concentration_Pb-210":380.6,"concentration_air-volume":13711.0,"from_timestamp":"2018-11-08T08:15:00Z","id":"103432","site":"Kuopio","to_timestamp":"2018-11-12T08:15:00Z","uncertainty_Be-7-uncertainty":3.0,"uncertainty_Pb-210-uncertainty":11.0},"type":"Feature"},{"geometry":{"coordinates":[27.63414,62.89195],"type":"Point"},"properties":{"concentration_Be-7":747.0,"concentration_Pb-210":253.4,"concentration_air-volume":10240.0,"from_timestamp":"2018-11-12T08:16:00Z","id":"103432","site":"Kuopio","to_timestamp":"2018-11-15T08:11:00Z","uncertainty_Be-7-uncertainty":3.0,"uncertainty_Pb-210-uncertainty":18.0},"type":"Feature"},{"geometry":{"coordinates":[25.67774,66.51285],"type":"Point"},"properties":{"concentration_Be-7":956.8,"concentration_Cs-137":0.2,"concentration_Pb-210":279.5,"concentration_air-volume":150594.0,"from_timestamp":"2018-11-05T07:16:00Z","id":"103433","site":"Rovaniemi","to_timestamp":"2018-11-12T07:21:00Z","uncertainty_Be-7-uncertainty":5.0,"uncertainty_Cs-137-uncertainty":14.0,"uncertainty_Pb-210-uncertainty":5.0},"type":"Feature"},{"geometry":{"coordinates":[25.67774,66.51285],"type":"Point"},"properties":{"concentration_Be-7":751.4,"concentration_Cs-137":0.2,"concentration_Pb-210":199.9,"concentration_air-volume":131828.0,"from_timestamp":"2018-11-12T07:23:00Z","id":"103433","site":"Rovaniemi","to_timestamp":"2018-11-18T07:17:00Z","uncertainty_Be-7-uncertainty":5.0,"uncertainty_Cs-137-uncertainty":13.0,"uncertainty_Pb-210-uncertainty":5.0},"type":"Feature"},{"geometry":{"coordinates":[26.62807,67.36505],"type":"Point"},"properties":{"concentration_Be-7":1480.6,"concentration_air-volume":26101.0,"from_timestamp":"2018-11-12T06:27:00Z","id":"103434","site":"Sodankylä","to_timestamp":"2018-11-19T06:34:00Z","uncertainty_Be-7-uncertainty":6.0},"type":"Feature"},{"geometry":{"coordinates":[26.62807,67.36505],"type":"Point"},"properties":{"concentration_Be-7":1201.3,"concentration_Pb-210":235.9,"concentration_air-volume":25880.0,"from_timestamp":"2018-11-05T06:29:00Z","id":"103434","site":"Sodankylä","to_timestamp":"2018-11-12T06:25:00Z","uncertainty_Be-7-uncertainty":6.0,"uncertainty_Pb-210-uncertainty":20.0},"type":"Feature"},{"geometry":{"coordinates":[27.70835,64.08474],"type":"Point"},"properties":{"concentration_Be-7":983.4,"concentration_Cs-137":0.3,"concentration_Pb-210":857.6,"concentration_air-volume":101060.0,"from_timestamp":"2018-11-05T07:25:00Z","id":"103435","site":"Kajaani","to_timestamp":"2018-11-12T09:26:00Z","uncertainty_Be-7-uncertainty":7.0,"uncertainty_Cs-137-uncertainty":12.0,"uncertainty_Pb-210-uncertainty":19.0},"type":"Feature"},{"geometry":{"coordinates":[27.70835,64.08474],"type":"Point"},"properties":{"concentration_Be-7":690.5,"concentration_Cs-137":0.1,"concentration_Pb-210":254.9,"concentration_air-volume":167685.0,"from_timestamp":"2018-11-12T09:30:00Z","id":"103435","site":"Kajaani","to_timestamp":"2018-11-19T16:10:00Z","uncertainty_Be-7-uncertainty":7.0,"uncertainty_Cs-137-uncertainty":21.0,"uncertainty_Pb-210-uncertainty":29.0},"type":"Feature"},{"geometry":{"coordinates":[25.05385,60.20905],"type":"Point"},"properties":{"concentration_Be-7":2283.5,"concentration_Cs-137":0.4,"concentration_Pb-210":632.1,"concentration_air-volume":26701.0,"from_timestamp":"2018-11-01T10:55:00Z","id":"103428","site":"Helsinki","to_timestamp":"2018-11-09T08:46:00Z","uncertainty_Be-7-uncertainty":5.0,"uncertainty_Cs-137-uncertainty":27.0,"uncertainty_Pb-210-uncertainty":5.0},"type":"Feature"},{"geometry":{"coordinates":[25.05385,60.20905],"type":"Point"},"properties":{"concentration_Be-7":1302.4,"concentration_Cs-137":0.4,"concentration_Pb-210":170.9,"concentration_air-volume":18139.0,"from_timestamp":"2018-11-09T08:47:00Z","id":"103428","site":"Helsinki","to_timestamp":"2018-11-14T09:01:00Z","uncertainty_Be-7-uncertainty":6.0,"uncertainty_Cs-137-uncertainty":19.0,"uncertainty_Pb-210-uncertainty":20.0},"type":"Feature"},{"geometry":{"coordinates":[25.05385,60.20905],"type":"Point"},"properties":{"concentration_Be-7":3181.8,"concentration_Cs-137":0.6,"concentration_air-volume":29140.0,"from_timestamp":"2018-11-14T09:10:00Z","id":"103428","site":"Helsinki","to_timestamp":"2018-11-22T11:19:00Z","uncertainty_Be-7-uncertainty":6.0,"uncertainty_Cs-137-uncertainty":14.0},"type":"Feature"}],"name":"stuk_open_data_air_radionuclides","type":"FeatureCollection"}