{"crs":{"properties":{"name":"urn:ogc:def:crs:OGC:1.3:CRS84"},"type":"name"},"features":[{"geometry":{"coordinates":[25.05385,60.20905],"type":"Point"},"properties":{"concentration_Be-7":2007.9,"concentration_Cs-137":0.5,"concentration_Pb-210":296.5,"concentration_air-volume":24629.0,"from_timestamp":"2018-10-18T13:38:00Z","id":"103428","site":"Helsinki","to_timestamp":"2018-10-25T08:36:00Z","uncertainty_Be-7-uncertainty":6.0,"uncertainty_Cs-137-uncertainty":19.0,"uncertainty_Pb-210-uncertainty":8.0},"type":"Feature"},{"geometry":{"coordinates":[26.91808,60.48318],"type":"Point"},"properties":{"concentration_Be-7":1463.2,"concentration_Cs-137":1.8,"concentration_Pb-210":199.1,"concentration_air-volume":100757.0,"from_timestamp":"2018-10-22T17:16:00Z","id":"103429","site":"Kotka","to_timestamp":"2018-10-30T05:30:00Z","uncertainty_Be-7-uncertainty":5.0,"uncertainty_Cs-137-uncertainty":6.0,"uncertainty_Pb-210-uncertainty":5.0},"type":"Feature"},{"geometry":{"coordinates":[26.91808,60.48318],"type":"Point"},"properties":{"concentration_Be-7":2802.7,"concentration_Cs-137":1.7,"concentration_Na-22":0.3,"concentration_Pb-210":500.8,"concentration_air-volume":93845.0,"from_timestamp":"2018-10-15T15:40:00Z","id":"103429","site":"Kotka","to_timestamp":"2018-10-22T17:04:00Z","uncertainty_Be-7-uncertainty":5.0,"uncertainty_Cs-137-uncertainty":6.0,"uncertainty_Na-22-uncertainty":14.0,"uncertainty_Pb-210-uncertainty":5.0},"type":"Feature"},{"geometry":{"coordinates":[28.82663,61.13229],"type":"Point"},"properties":{"concentration_Be-7":2252.2,"concentration_Cs-137":1.7,"concentration_air-volume":20649.0,"from_timestamp":"2018-10-18T04:31:00Z","id":"103430","site":"Imatra","to_timestamp":"2018-10-25T04:52:00Z","uncertainty_Be-7-uncertainty":6.0,"uncertainty_Cs-137-uncertainty":12.0},"type":"Feature"},{"geometry":{"coordinates":[28.82663,61.13229],"type":"Point"},"properties":{"concentration_Be-7":2024.3,"concentration_Cs-137":1.7,"concentration_air-volume":21509.0,"from_timestamp":"2018-10-25T04:52:00Z","id":"103430","site":"Imatra","to_timestamp":"2018-11-01T04:43:00Z","uncertainty_Be-7-uncertainty":6.0,"uncertainty_Cs-137-uncertainty":11.0},"type":"Feature"},{"geometry":{"coordinates":[27.57,68.64],"type":"Point"},"properties":{"concentration_Be-7":735.0,"concentration_Pb-210":57.0,"concentration_air-volume":25412.0,"from_timestamp":"2018-10-29T07:07:00Z","id":"103431","site":"Ivalo","to_timestamp":"2018-11-05T08:16:00Z","uncertainty_Be-7-uncertainty":6.0,"uncertainty_Pb-210-uncertainty":20.0},"type":"Feature"},{"geometry":{"coordinates":[27.57,68.64],"type":"Point"},"properties":{"concentration_Be-7":1367.0,"concentration_air-volume":24562.0,"from_timestamp":"2018-10-15T08:01:00Z","id":"103431","site":"Ivalo","to_timestamp":"2018-10-22T07:07:00Z","uncertainty_Be-7-uncertainty":6.0},"type":"Feature"},{"geometry":{"coordinates":[27.57,68.64],"type":"Point"},"properties":{"concentration_Be-7":866.4,"concentration_Pb-210":179.6,"concentration_air-volume":25484.0,"from_timestamp":"2018-10-22T07:09:00Z","id":"103431","site":"Ivalo","to_timestamp":"2018-10-29T07:06:00Z","uncertainty_Be-7-uncertainty":5.0,"uncertainty_Pb-210-uncertainty":5.0},"type":"Feature"},{"geometry":{"coordinates":[27.63414,62.89195],"type":"Point"},"properties":{"concentration_Be-7":1330.4,"concentration_air-volume":13826.0,"from_timestamp":"2018-10-25T08:25:00Z","id":"103432","site":"Kuopio","to_timestamp":"2018-10-29T08:15:00Z","uncertainty_Be-7-uncertainty":3.0},"type":"Feature"},{"geometry":{"coordinates":[27.63414,62.89195],"type":"Point"},"properties":{"concentration_Be-7":1625.8,"concentration_air-volume":13331.0,"from_timestamp":"2018-10-18T09:37:00Z","id":"103432","site":"Kuopio","to_timestamp":"2018-10-22T08:01:00Z","uncertainty_Be-7-uncertainty":3.0},"type":"Feature"},{"geometry":{"coordinates":[27.63414,62.89195],"type":"Point"},"properties":{"concentration_Be-7":993.6,"concentration_air-volume":10150.0,"from_timestamp":"2018-10-22T08:02:00Z","id":"103432","site":"Kuopio","to_timestamp":"2018-10-25T08:24:00Z","uncertainty_Be-7-uncertainty":3.0},"type":"Feature"},{"geometry":{"coordinates":[27.63414,62.89195],"type":"Point"},"properties":{"concentration_Be-7":2076.7,"concentration_Pb-210":287.1,"concentration_air-volume":10346.0,"from_timestamp":"2018-10-29T08:16:00Z","id":"103432","site":"Kuopio","to_timestamp":"2018-11-01T08:18:00Z","uncertainty_Be-7-uncertainty":3.0,"uncertainty_Pb-210-uncertainty":18.0},"type":"Feature"},{"geometry":{"coordinates":[25.67774,66.51285],"type":"Point"},"properties":{"concentration_Be-7":1151.9,"concentration_Cs-137":0.2,"concentration_Na-22":0.2,"concentration_Pb-210":192.3,"concentration_air-volume":144764.0,"from_timestamp":"2018-10-15T07:40:00Z","id":"103433","site":"Rovaniemi","to_timestamp":"2018-10-22T11:20:00Z","uncertainty_Be-7-uncertainty":5.0,"uncertainty_Cs-137-uncertainty":15.0,"uncertainty_Na-22-uncertainty":20.0,"uncertainty_Pb-210-uncertainty":5.0},"type":"Feature"},{"geometry":{"coordinates":[25.67774,66.51285],"type":"Point"},"properties":{"concentration_Be-7":758.1,"concentration_Cs-137":0.2,"concentration_Pb-210":503.9,"concentration_air-volume":141977.0,"from_timestamp":"2018-10-22T11:23:00Z","id":"103433","site":"Rovaniemi","to_timestamp":"2018-10-29T07:17:00Z","uncertainty_Be-7-uncertainty":7.0,"uncertainty_Cs-137-uncertainty":15.0,"uncertainty_Pb-210-uncertainty":26.0},"type":"Feature"},{"geometry":{"coordinates":[25.67774,66.51285],"type":"Point"},"properties":{"concentration_Be-7":615.5,"concentration_Cs-137":0.2,"concentration_Pb-210":156.6,"concentration_air-volume":149729.0,"from_timestamp":"2018-10-29T07:20:00Z","id":"103433","site":"Rovaniemi","to_timestamp":"2018-11-05T07:11:00Z","uncertainty_Be-7-uncertainty":6.0,"uncertainty_Cs-137-uncertainty":13.0,"uncertainty_Pb-210-uncertainty":8.0},"type":"Feature"},{"geometry":{"coordinates":[26.62807,67.36505],"type":"Point"},"properties":{"concentration_Be-7":1015.8,"concentration_Pb-210":51.8,"concentration_air-volume":26392.0,"from_timestamp":"2018-10-22T06:39:00Z","id":"103434","site":"Sodankylä","to_timestamp":"2018-10-29T06:32:00Z","uncertainty_Be-7-uncertainty":6.0,"uncertainty_Pb-210-uncertainty":28.0},"type":"Feature"},{"geometry":{"coordinates":[26.62807,67.36505],"type":"Point"},"properties":{"concentration_Be-7":808.8,"concentration_Pb-210":53.1,"concentration_air-volume":26315.0,"from_timestamp":"2018-10-29T06:33:00Z","id":"103434","site":"Sodankylä","to_timestamp":"2018-11-05T06:27:00Z","uncertainty_Be-7-uncertainty":6.0,"uncertainty_Pb-210-uncertainty":21.0},"type":"Feature"},{"geometry":{"coordinates":[26.62807,67.36505],"type":"Point"},"properties":{"concentration_Be-7":1192.4,"concentration_Cs-137":0.2,"concentration_Pb-210":61.9,"concentration_air-volume":25751.0,"from_timestamp":"2018-10-15T06:27:00Z","id":"103434","site":"Sodankylä","to_timestamp":"2018-10-22T06:39:00Z","uncertainty_Be-7-uncertainty":6.0,"uncertainty_Cs-137-uncertainty":29.0,"uncertainty_Pb-210-uncertainty":20.0},"type":"Feature"},{"geometry":{"coordinates":[27.70835,64.08474],"type":"Point"},"properties":{"concentration_Be-7":1197.5,"concentration_Cs-137":0.4,"concentration_Pb-210":206.6,"concentration_air-volume":133270.0,"from_timestamp":"2018-10-29T10:12:00Z","id":"103435","site":"Kajaani","to_timestamp":"2018-11-05T07:20:00Z","uncertainty_Be-7-uncertainty":5.0,"uncertainty_Cs-137-uncertainty":8.0,"uncertainty_Pb-210-uncertainty":5.0},"type":"Feature"},{"geometry":{"coordinates":[27.70835,64.08474],"type":"Point"},"properties":{"concentration_Be-7":667.9,"concentration_Cs-137":0.2,"concentration_air-volume":144387.0,"from_timestamp":"2018-10-22T16:35:00Z","id":"103435","site":"Kajaani","to_timestamp":"2018-10-29T10:12:00Z","uncertainty_Be-7-uncertainty":7.0,"uncertainty_Cs-137-uncertainty":13.0},"type":"Feature"},{"geometry":{"coordinates":[27.70835,64.08474],"type":"Point"},"properties":{"concentration_Be-7":1203.9,"concentration_Cs-137":0.4,"concentration_Na-22":0.1,"concentration_Pb-210":823.1,"concentration_air-volume":144306.0,"from_timestamp":"2018-10-15T16:40:00Z","id":"103435","site":"Kajaani","to_timestamp":"2018-10-22T16:32:00Z","uncertainty_Be-7-uncertainty":7.0,"uncertainty_Cs-137-uncertainty":9.0,"uncertainty_Na-22-uncertainty":29.0,"uncertainty_Pb-210-uncertainty":17.0},"type":"Feature"},{"geometry":{"coordinates":[25.05385,60.20905],"type":"Point"},"properties":{"concentration_Be-7":2007.9,"concentration_Cs-137":0.5,"concentration_Pb-210":296.5,"concentration_air-volume":24629.0,"from_timestamp":"2018-10-18T13:38:00Z","id":"103428","site":"Helsinki","to_timestamp":"2018-10-25T08:36:00Z","uncertainty_Be-7-uncertainty":6.0,"uncertainty_Cs-137-uncertainty":19.0,"uncertainty_Pb-210-uncertainty":8.0},"type":"Feature"}],"name":"stuk_open_data_air_radionuclides","type":"FeatureCollection"}