{"crs":{"properties":{"name":"urn:ogc:def:crs:OGC:1.3:CRS84"},"type":"name"},"features":[{"geometry":{"coordinates":[25.05385,60.20905],"type":"Point"},"properties":{"concentration_Be-7":1310.2,"concentration_Cs-137":0.8,"concentration_Pb-210":725.2,"concentration_air-volume":26154.0,"from_timestamp":"2018-12-14T08:16:00Z","id":"103428","site":"Helsinki","to_timestamp":"2018-12-21T08:31:00Z","uncertainty_Be-7-uncertainty":6.0,"uncertainty_Cs-137-uncertainty":11.0,"uncertainty_Pb-210-uncertainty":8.0},"type":"Feature"},{"geometry":{"coordinates":[25.05385,60.20905],"type":"Point"},"properties":{"concentration_Be-7":677.3,"concentration_Cs-137":0.8,"concentration_Pb-210":647.5,"concentration_air-volume":37279.0,"from_timestamp":"2018-12-21T08:31:00Z","id":"103428","site":"Helsinki","to_timestamp":"2018-12-31T14:05:00Z","uncertainty_Be-7-uncertainty":6.0,"uncertainty_Cs-137-uncertainty":12.0,"uncertainty_Pb-210-uncertainty":8.0},"type":"Feature"},{"geometry":{"coordinates":[26.91808,60.48318],"type":"Point"},"properties":{"concentration_Be-7":1437.5,"concentration_Cs-137":1.2,"concentration_air-volume":99244.0,"from_timestamp":"2018-12-10T18:10:00Z","id":"103429","site":"Kotka","to_timestamp":"2018-12-17T08:15:00Z","uncertainty_Be-7-uncertainty":5.0,"uncertainty_Cs-137-uncertainty":7.0},"type":"Feature"},{"geometry":{"coordinates":[26.91808,60.48318],"type":"Point"},"properties":{"concentration_Be-7":999.2,"concentration_Cs-137":1.8,"concentration_Pb-210":331999.0,"concentration_air-volume":224551.0,"from_timestamp":"2018-12-17T08:17:00Z","id":"103429","site":"Kotka","to_timestamp":"2019-01-07T12:00:00Z","uncertainty_Be-7-uncertainty":7.0,"uncertainty_Cs-137-uncertainty":7.0,"uncertainty_Pb-210-uncertainty":13.0},"type":"Feature"},{"geometry":{"coordinates":[28.82663,61.13229],"type":"Point"},"properties":{"concentration_Be-7":2706.8,"concentration_Cs-137":1.8,"concentration_Pb-210":861.2,"concentration_air-volume":19088.0,"from_timestamp":"2018-12-14T04:20:00Z","id":"103430","site":"Imatra","to_timestamp":"2018-12-20T11:30:00Z","uncertainty_Be-7-uncertainty":6.0,"uncertainty_Cs-137-uncertainty":12.0,"uncertainty_Pb-210-uncertainty":20.0},"type":"Feature"},{"geometry":{"coordinates":[28.82663,61.13229],"type":"Point"},"properties":{"concentration_Be-7":1046.4,"concentration_Cs-137":2.4,"concentration_Pb-210":880.4,"concentration_air-volume":12094.0,"from_timestamp":"2018-12-24T04:30:00Z","id":"103430","site":"Imatra","to_timestamp":"2018-12-28T06:30:00Z","uncertainty_Be-7-uncertainty":6.0,"uncertainty_Cs-137-uncertainty":11.0,"uncertainty_Pb-210-uncertainty":20.0},"type":"Feature"},{"geometry":{"coordinates":[28.82663,61.13229],"type":"Point"},"properties":{"concentration_Be-7":923.3,"concentration_Cs-137":2.4,"concentration_Pb-210":1625.2,"concentration_air-volume":11171.0,"from_timestamp":"2018-12-20T11:35:00Z","id":"103430","site":"Imatra","to_timestamp":"2018-12-24T04:30:00Z","uncertainty_Be-7-uncertainty":6.0,"uncertainty_Cs-137-uncertainty":11.0,"uncertainty_Pb-210-uncertainty":20.0},"type":"Feature"},{"geometry":{"coordinates":[27.57,68.64],"type":"Point"},"properties":{"concentration_Be-7":1113.4,"concentration_Cs-137":0.2,"concentration_Pb-210":303.8,"concentration_air-volume":26340.0,"from_timestamp":"2018-12-10T06:56:00Z","id":"103431","site":"Ivalo","to_timestamp":"2018-12-17T04:43:00Z","uncertainty_Be-7-uncertainty":6.0,"uncertainty_Cs-137-uncertainty":26.0,"uncertainty_Pb-210-uncertainty":20.0},"type":"Feature"},{"geometry":{"coordinates":[27.57,68.64],"type":"Point"},"properties":{"concentration_Be-7":1348.6,"concentration_Cs-137":0.3,"concentration_Pb-210":511.4,"concentration_air-volume":48523.0,"from_timestamp":"2018-12-17T04:44:00Z","id":"103431","site":"Ivalo","to_timestamp":"2018-12-27T08:25:00Z","uncertainty_Be-7-uncertainty":6.0,"uncertainty_Cs-137-uncertainty":17.0,"uncertainty_Pb-210-uncertainty":20.0},"type":"Feature"},{"geometry":{"coordinates":[27.63414,62.89195],"type":"Point"},"properties":{"concentration_Be-7":1177.4,"concentration_Pb-210":161.2,"concentration_air-volume":14397.0,"from_timestamp":"2018-12-13T08:20:00Z","id":"103432","site":"Kuopio","to_timestamp":"2018-12-17T08:16:00Z","uncertainty_Be-7-uncertainty":3.0,"uncertainty_Pb-210-uncertainty":21.0},"type":"Feature"},{"geometry":{"coordinates":[27.63414,62.89195],"type":"Point"},"properties":{"concentration_Be-7":1129.9,"concentration_Cs-137":0.7,"concentration_Pb-210":683.4,"concentration_air-volume":37110.0,"from_timestamp":"2018-12-17T06:17:00Z","id":"103432","site":"Kuopio","to_timestamp":"2018-12-27T06:33:00Z","uncertainty_Be-7-uncertainty":6.0,"uncertainty_Cs-137-uncertainty":17.0,"uncertainty_Pb-210-uncertainty":8.0},"type":"Feature"},{"geometry":{"coordinates":[25.67774,66.51285],"type":"Point"},"properties":{"concentration_Be-7":959.3,"concentration_Cs-137":0.3,"concentration_Na-22":0.1,"concentration_Pb-210":317.2,"concentration_air-volume":143568.0,"from_timestamp":"2018-12-10T07:16:00Z","id":"103433","site":"Rovaniemi","to_timestamp":"2018-12-17T07:03:00Z","uncertainty_Be-7-uncertainty":5.0,"uncertainty_Cs-137-uncertainty":8.0,"uncertainty_Na-22-uncertainty":24.0,"uncertainty_Pb-210-uncertainty":5.0},"type":"Feature"},{"geometry":{"coordinates":[25.67774,66.51285],"type":"Point"},"properties":{"concentration_Be-7":824.4,"concentration_Cs-137":0.5,"concentration_Pb-210":728.1,"concentration_air-volume":128628.0,"from_timestamp":"2018-12-24T08:08:00Z","id":"103433","site":"Rovaniemi","to_timestamp":"2018-12-31T09:00:00Z","uncertainty_Be-7-uncertainty":7.0,"uncertainty_Cs-137-uncertainty":10.0,"uncertainty_Pb-210-uncertainty":21.0},"type":"Feature"},{"geometry":{"coordinates":[25.67774,66.51285],"type":"Point"},"properties":{"concentration_Be-7":1071.1,"concentration_Cs-137":0.5,"concentration_Pb-210":563.8,"concentration_air-volume":130193.0,"from_timestamp":"2018-12-17T07:06:00Z","id":"103433","site":"Rovaniemi","to_timestamp":"2018-12-23T10:15:00Z","uncertainty_Be-7-uncertainty":6.0,"uncertainty_Cs-137-uncertainty":9.0,"uncertainty_Pb-210-uncertainty":8.0},"type":"Feature"},{"geometry":{"coordinates":[26.62807,67.36505],"type":"Point"},"properties":{"concentration_Be-7":1299.4,"concentration_Pb-210":302.1,"concentration_air-volume":26845.0,"from_timestamp":"2018-12-10T06:13:00Z","id":"103434","site":"Sodankylä","to_timestamp":"2018-12-17T06:24:00Z","uncertainty_Be-7-uncertainty":5.0,"uncertainty_Pb-210-uncertainty":10.0},"type":"Feature"},{"geometry":{"coordinates":[26.62807,67.36505],"type":"Point"},"properties":{"concentration_Be-7":1214.5,"concentration_Pb-210":574.2,"concentration_air-volume":33489.0,"from_timestamp":"2018-12-17T06:25:00Z","id":"103434","site":"Sodankylä","to_timestamp":"2018-12-24T08:31:00Z","uncertainty_Be-7-uncertainty":6.0,"uncertainty_Pb-210-uncertainty":20.0},"type":"Feature"},{"geometry":{"coordinates":[26.62807,67.36505],"type":"Point"},"properties":{"concentration_Be-7":697.1,"concentration_Pb-210":303.0,"concentration_air-volume":36232.0,"from_timestamp":"2018-12-24T08:32:00Z","id":"103434","site":"Sodankylä","to_timestamp":"2019-01-03T06:35:00Z","uncertainty_Be-7-uncertainty":6.0,"uncertainty_Pb-210-uncertainty":8.0},"type":"Feature"},{"geometry":{"coordinates":[27.70835,64.08474],"type":"Point"},"properties":{"concentration_Be-7":726.2,"concentration_Cs-137":0.3,"concentration_Na-22":0.1,"concentration_Pb-210":446.1,"concentration_air-volume":323062.0,"from_timestamp":"2018-12-10T15:34:00Z","id":"103435","site":"Kajaani","to_timestamp":"2018-12-24T08:00:00Z","uncertainty_Be-7-uncertainty":6.0,"uncertainty_Cs-137-uncertainty":10.0,"uncertainty_Na-22-uncertainty":25.0,"uncertainty_Pb-210-uncertainty":8.0},"type":"Feature"},{"geometry":{"coordinates":[27.70835,64.08474],"type":"Point"},"properties":{"concentration_Be-7":669.4,"concentration_Cs-137":0.4,"concentration_Pb-210":395.9,"concentration_air-volume":117895.0,"from_timestamp":"2018-12-24T08:02:00Z","id":"103435","site":"Kajaani","to_timestamp":"2019-01-01T12:33:00Z","uncertainty_Be-7-uncertainty":7.0,"uncertainty_Cs-137-uncertainty":11.0,"uncertainty_Pb-210-uncertainty":22.0},"type":"Feature"}],"name":"stuk_open_data_air_radionuclides","type":"FeatureCollection"}