{"crs":{"properties":{"name":"urn:ogc:def:crs:OGC:1.3:CRS84"},"type":"name"},"features":[{"geometry":{"coordinates":[25.05385,60.20905],"type":"Point"},"properties":{"concentration_Be-7":7499.7,"concentration_Co-60":1.7,"concentration_Cs-137":1.0,"concentration_Na-22":1.5,"concentration_Pb-210":445.7,"concentration_air-volume":26169.0,"from_timestamp":"2018-05-09T12:18:00Z","id":"103428","site":"Helsinki","to_timestamp":"2018-05-17T10:51:00Z","uncertainty_Be-7-uncertainty":5.0,"uncertainty_Co-60-uncertainty":8.0,"uncertainty_Cs-137-uncertainty":13.0,"uncertainty_Na-22-uncertainty":15.0,"uncertainty_Pb-210-uncertainty":5.0},"type":"Feature"},{"geometry":{"coordinates":[25.05385,60.20905],"type":"Point"},"properties":{"concentration_Be-7":5229.4,"concentration_Cs-137":2.7,"concentration_Na-22":1.0,"concentration_air-volume":25855.0,"from_timestamp":"2018-05-17T10:52:00Z","id":"103428","site":"Helsinki","to_timestamp":"2018-05-25T07:53:00Z","uncertainty_Be-7-uncertainty":10.0,"uncertainty_Cs-137-uncertainty":12.0,"uncertainty_Na-22-uncertainty":22.0},"type":"Feature"},{"geometry":{"coordinates":[26.91808,60.48318],"type":"Point"},"properties":{"concentration_Be-7":8388.4,"concentration_Cs-137":4.8,"concentration_Na-22":1.3,"concentration_Pb-210":97.7,"concentration_air-volume":27056.0,"from_timestamp":"2018-05-14T11:53:00Z","id":"103429","site":"Kotka","to_timestamp":"2018-05-16T13:10:00Z","uncertainty_Be-7-uncertainty":5.0,"uncertainty_Cs-137-uncertainty":6.0,"uncertainty_Na-22-uncertainty":15.0,"uncertainty_Pb-210-uncertainty":20.0},"type":"Feature"},{"geometry":{"coordinates":[26.91808,60.48318],"type":"Point"},"properties":{"concentration_Be-7":4015.4,"concentration_Co-60":0.2,"concentration_Cs-137":4.2,"concentration_Na-22":0.7,"concentration_air-volume":216389.0,"from_timestamp":"2018-05-16T13:20:00Z","id":"103429","site":"Kotka","to_timestamp":"2018-05-29T11:32:00Z","uncertainty_Be-7-uncertainty":7.0,"uncertainty_Co-60-uncertainty":10.0,"uncertainty_Cs-137-uncertainty":7.0,"uncertainty_Na-22-uncertainty":9.0},"type":"Feature"},{"geometry":{"coordinates":[28.82663,61.13229],"type":"Point"},"properties":{"concentration_Be-7":6797.8,"concentration_Cs-137":1.0,"concentration_Na-22":0.9,"concentration_Pb-210":137.0,"concentration_air-volume":23170.0,"from_timestamp":"2018-05-07T06:30:00Z","id":"103430","site":"Imatra","to_timestamp":"2018-05-15T04:41:00Z","uncertainty_Be-7-uncertainty":6.0,"uncertainty_Cs-137-uncertainty":15.0,"uncertainty_Na-22-uncertainty":24.0,"uncertainty_Pb-210-uncertainty":20.0},"type":"Feature"},{"geometry":{"coordinates":[28.82663,61.13229],"type":"Point"},"properties":{"concentration_Be-7":5791.4,"concentration_Cs-137":1.2,"concentration_Na-22":0.8,"concentration_Pb-210":363.0,"concentration_air-volume":23708.0,"from_timestamp":"2018-05-15T04:43:00Z","id":"103430","site":"Imatra","to_timestamp":"2018-05-21T05:07:00Z","uncertainty_Be-7-uncertainty":6.0,"uncertainty_Cs-137-uncertainty":10.0,"uncertainty_Na-22-uncertainty":18.0,"uncertainty_Pb-210-uncertainty":20.0},"type":"Feature"},{"geometry":{"coordinates":[28.82663,61.13229],"type":"Point"},"properties":{"concentration_Be-7":6856.1,"concentration_Cs-137":2.4,"concentration_Na-22":1.0,"concentration_air-volume":20255.0,"from_timestamp":"2018-05-21T05:10:00Z","id":"103430","site":"Imatra","to_timestamp":"2018-05-28T04:30:00Z","uncertainty_Be-7-uncertainty":6.0,"uncertainty_Cs-137-uncertainty":10.0,"uncertainty_Na-22-uncertainty":20.0},"type":"Feature"},{"geometry":{"coordinates":[27.57,68.64],"type":"Point"},"properties":{"concentration_Be-7":3604.7,"concentration_Pb-210":237.0,"concentration_air-volume":24406.0,"from_timestamp":"2018-05-14T05:31:00Z","id":"103431","site":"Ivalo","to_timestamp":"2018-05-21T06:08:00Z","uncertainty_Be-7-uncertainty":6.0,"uncertainty_Pb-210-uncertainty":8.0},"type":"Feature"},{"geometry":{"coordinates":[27.57,68.64],"type":"Point"},"properties":{"concentration_Be-7":2196.5,"concentration_Pb-210":114.6,"concentration_air-volume":24490.0,"from_timestamp":"2018-05-21T06:10:00Z","id":"103431","site":"Ivalo","to_timestamp":"2018-05-28T06:12:00Z","uncertainty_Be-7-uncertainty":6.0,"uncertainty_Pb-210-uncertainty":8.0},"type":"Feature"},{"geometry":{"coordinates":[27.63414,62.89195],"type":"Point"},"properties":{"concentration_Be-7":5389.8,"concentration_Pb-210":246.0,"concentration_air-volume":13304.0,"from_timestamp":"2018-05-17T08:29:00Z","id":"103432","site":"Kuopio","to_timestamp":"2018-05-21T08:27:00Z","uncertainty_Be-7-uncertainty":3.0,"uncertainty_Pb-210-uncertainty":19.0},"type":"Feature"},{"geometry":{"coordinates":[27.63414,62.89195],"type":"Point"},"properties":{"concentration_Be-7":11174.7,"concentration_Na-22":2.8,"concentration_Pb-210":433.1,"concentration_air-volume":9620.0,"from_timestamp":"2018-05-14T08:27:00Z","id":"103432","site":"Kuopio","to_timestamp":"2018-05-17T08:28:00Z","uncertainty_Be-7-uncertainty":3.0,"uncertainty_Na-22-uncertainty":25.0,"uncertainty_Pb-210-uncertainty":17.0},"type":"Feature"},{"geometry":{"coordinates":[27.63414,62.89195],"type":"Point"},"properties":{"concentration_Be-7":7892.0,"concentration_Cs-137":7.1,"concentration_I-131":2.4,"concentration_Pb-210":422.9,"concentration_air-volume":9899.0,"from_timestamp":"2018-05-21T08:28:00Z","id":"103432","site":"Kuopio","to_timestamp":"2018-05-24T08:33:00Z","uncertainty_Be-7-uncertainty":3.0,"uncertainty_Cs-137-uncertainty":8.0,"uncertainty_I-131-uncertainty":26.0,"uncertainty_Pb-210-uncertainty":17.0},"type":"Feature"},{"geometry":{"coordinates":[25.67774,66.51285],"type":"Point"},"properties":{"concentration_Be-7":4515.1,"concentration_Cs-137":0.3,"concentration_Na-22":0.9,"concentration_Pb-210":49.1,"concentration_air-volume":130108.0,"from_timestamp":"2018-05-14T07:31:00Z","id":"103433","site":"Rovaniemi","to_timestamp":"2018-05-21T07:06:00Z","uncertainty_Be-7-uncertainty":5.0,"uncertainty_Cs-137-uncertainty":13.0,"uncertainty_Na-22-uncertainty":8.0,"uncertainty_Pb-210-uncertainty":13.0},"type":"Feature"},{"geometry":{"coordinates":[25.67774,66.51285],"type":"Point"},"properties":{"concentration_Be-7":2824.4,"concentration_Cs-137":0.2,"concentration_Na-22":0.5,"concentration_Pb-210":143.3,"concentration_air-volume":143887.0,"from_timestamp":"2018-05-21T07:09:00Z","id":"103433","site":"Rovaniemi","to_timestamp":"2018-05-28T07:06:00Z","uncertainty_Be-7-uncertainty":6.0,"uncertainty_Cs-137-uncertainty":14.0,"uncertainty_Na-22-uncertainty":11.0,"uncertainty_Pb-210-uncertainty":8.0},"type":"Feature"},{"geometry":{"coordinates":[26.62807,67.36505],"type":"Point"},"properties":{"concentration_Be-7":3897.5,"concentration_Pb-210":317.3,"concentration_air-volume":30806.0,"from_timestamp":"2018-05-14T06:22:00Z","id":"103434","site":"Sodankylä","to_timestamp":"2018-05-21T06:43:00Z","uncertainty_Be-7-uncertainty":6.0,"uncertainty_Pb-210-uncertainty":20.0},"type":"Feature"},{"geometry":{"coordinates":[26.62807,67.36505],"type":"Point"},"properties":{"concentration_Be-7":3548.0,"concentration_air-volume":25045.0,"from_timestamp":"2018-05-21T06:43:00Z","id":"103434","site":"Sodankylä","to_timestamp":"2018-05-28T03:16:00Z","uncertainty_Be-7-uncertainty":6.0},"type":"Feature"},{"geometry":{"coordinates":[27.70835,64.08474],"type":"Point"},"properties":{"concentration_Be-7":4474.0,"concentration_Cs-137":0.4,"concentration_Na-22":0.6,"concentration_Pb-210":228.9,"concentration_air-volume":206027.0,"from_timestamp":"2018-05-07T08:38:00Z","id":"103435","site":"Kajaani","to_timestamp":"2018-05-21T08:15:00Z","uncertainty_Be-7-uncertainty":6.0,"uncertainty_Cs-137-uncertainty":7.0,"uncertainty_Na-22-uncertainty":8.0,"uncertainty_Pb-210-uncertainty":8.0},"type":"Feature"},{"geometry":{"coordinates":[27.70835,64.08474],"type":"Point"},"properties":{"concentration_Be-7":4096.9,"concentration_Cs-137":0.6,"concentration_Na-22":0.6,"concentration_Pb-210":209.1,"concentration_air-volume":110401.0,"from_timestamp":"2018-05-21T08:20:00Z","id":"103435","site":"Kajaani","to_timestamp":"2018-05-29T08:00:00Z","uncertainty_Be-7-uncertainty":6.0,"uncertainty_Cs-137-uncertainty":8.0,"uncertainty_Na-22-uncertainty":10.0,"uncertainty_Pb-210-uncertainty":8.0},"type":"Feature"},{"geometry":{"coordinates":[25.05385,60.20905],"type":"Point"},"properties":{"concentration_Be-7":7499.7,"concentration_Co-60":1.7,"concentration_Cs-137":1.0,"concentration_Na-22":1.5,"concentration_Pb-210":445.7,"concentration_air-volume":26169.0,"from_timestamp":"2018-05-09T12:18:00Z","id":"103428","site":"Helsinki","to_timestamp":"2018-05-17T10:51:00Z","uncertainty_Be-7-uncertainty":5.0,"uncertainty_Co-60-uncertainty":8.0,"uncertainty_Cs-137-uncertainty":13.0,"uncertainty_Na-22-uncertainty":15.0,"uncertainty_Pb-210-uncertainty":5.0},"type":"Feature"},{"geometry":{"coordinates":[25.05385,60.20905],"type":"Point"},"properties":{"concentration_Be-7":5229.4,"concentration_Cs-137":2.7,"concentration_Na-22":1.0,"concentration_air-volume":25855.0,"from_timestamp":"2018-05-17T10:52:00Z","id":"103428","site":"Helsinki","to_timestamp":"2018-05-25T07:53:00Z","uncertainty_Be-7-uncertainty":10.0,"uncertainty_Cs-137-uncertainty":12.0,"uncertainty_Na-22-uncertainty":22.0},"type":"Feature"}],"name":"stuk_open_data_air_radionuclides","type":"FeatureCollection"}