{"crs":{"properties":{"name":"urn:ogc:def:crs:OGC:1.3:CRS84"},"type":"name"},"features":[{"geometry":{"coordinates":[25.05385,60.20905],"type":"Point"},"properties":{"concentration_Be-7":3644.5,"concentration_Cs-137":0.5,"concentration_Na-22":0.7,"concentration_Tl-207":109.2,"concentration_air-volume":23090.0,"from_timestamp":"2018-06-14T09:00:00Z","id":"103428","site":"Helsinki","to_timestamp":"2018-06-21T06:14:00Z","uncertainty_Be-7-uncertainty":10.0,"uncertainty_Cs-137-uncertainty":22.0,"uncertainty_Na-22-uncertainty":23.0,"uncertainty_Tl-207-uncertainty":29.0},"type":"Feature"},{"geometry":{"coordinates":[25.05385,60.20905],"type":"Point"},"properties":{"concentration_Be-7":1611.4,"concentration_Cs-137":0.5,"concentration_air-volume":24782.0,"from_timestamp":"2018-06-21T06:15:00Z","id":"103428","site":"Helsinki","to_timestamp":"2018-06-28T10:46:00Z","uncertainty_Be-7-uncertainty":6.0,"uncertainty_Cs-137-uncertainty":18.0},"type":"Feature"},{"geometry":{"coordinates":[26.91808,60.48318],"type":"Point"},"properties":{"concentration_Be-7":3402.5,"concentration_Co-60":0.2,"concentration_Cs-137":0.9,"concentration_Na-22":0.5,"concentration_Pb-210":458.5,"concentration_air-volume":91899.0,"from_timestamp":"2018-06-11T18:23:00Z","id":"103429","site":"Kotka","to_timestamp":"2018-06-18T06:45:00Z","uncertainty_Be-7-uncertainty":7.0,"uncertainty_Co-60-uncertainty":13.0,"uncertainty_Cs-137-uncertainty":8.0,"uncertainty_Na-22-uncertainty":13.0,"uncertainty_Pb-210-uncertainty":24.0},"type":"Feature"},{"geometry":{"coordinates":[26.91808,60.48318],"type":"Point"},"properties":{"concentration_Be-7":1512.1,"concentration_Cs-137":0.6,"concentration_Na-22":0.2,"concentration_Pb-210":112.7,"concentration_air-volume":139066.0,"from_timestamp":"2018-06-18T06:50:00Z","id":"103429","site":"Kotka","to_timestamp":"2018-06-25T12:10:00Z","uncertainty_Be-7-uncertainty":5.0,"uncertainty_Cs-137-uncertainty":7.0,"uncertainty_Na-22-uncertainty":14.0,"uncertainty_Pb-210-uncertainty":5.0},"type":"Feature"},{"geometry":{"coordinates":[28.82663,61.13229],"type":"Point"},"properties":{"concentration_Be-7":1913.9,"concentration_Cs-137":0.7,"concentration_air-volume":32131.0,"from_timestamp":"2018-06-18T11:55:00Z","id":"103430","site":"Imatra","to_timestamp":"2018-06-25T06:45:00Z","uncertainty_Be-7-uncertainty":6.0,"uncertainty_Cs-137-uncertainty":14.0},"type":"Feature"},{"geometry":{"coordinates":[28.82663,61.13229],"type":"Point"},"properties":{"concentration_Be-7":4205.5,"concentration_Co-60":0.6,"concentration_Cs-137":1.1,"concentration_Na-22":1.2,"concentration_Pb-210":329.7,"concentration_air-volume":20239.0,"from_timestamp":"2018-06-11T12:05:00Z","id":"103430","site":"Imatra","to_timestamp":"2018-06-18T11:55:00Z","uncertainty_Be-7-uncertainty":6.0,"uncertainty_Co-60-uncertainty":18.0,"uncertainty_Cs-137-uncertainty":13.0,"uncertainty_Na-22-uncertainty":20.0,"uncertainty_Pb-210-uncertainty":8.0},"type":"Feature"},{"geometry":{"coordinates":[27.57,68.64],"type":"Point"},"properties":{"concentration_Be-7":1645.8,"concentration_Pb-210":75.0,"concentration_air-volume":23672.0,"from_timestamp":"2018-06-18T06:59:00Z","id":"103431","site":"Ivalo","to_timestamp":"2018-06-25T05:43:00Z","uncertainty_Be-7-uncertainty":6.0,"uncertainty_Pb-210-uncertainty":22.0},"type":"Feature"},{"geometry":{"coordinates":[27.57,68.64],"type":"Point"},"properties":{"concentration_Be-7":2360.8,"concentration_Pb-210":122.2,"concentration_air-volume":24010.0,"from_timestamp":"2018-06-11T09:01:00Z","id":"103431","site":"Ivalo","to_timestamp":"2018-06-18T06:58:00Z","uncertainty_Be-7-uncertainty":6.0,"uncertainty_Pb-210-uncertainty":20.0},"type":"Feature"},{"geometry":{"coordinates":[27.63414,62.89195],"type":"Point"},"properties":{"concentration_Be-7":3890.3,"concentration_air-volume":10013.0,"from_timestamp":"2018-06-18T08:22:00Z","id":"103432","site":"Kuopio","to_timestamp":"2018-06-21T08:21:00Z","uncertainty_Be-7-uncertainty":3.0},"type":"Feature"},{"geometry":{"coordinates":[27.63414,62.89195],"type":"Point"},"properties":{"concentration_Be-7":1922.8,"concentration_air-volume":13640.0,"from_timestamp":"2018-06-21T08:22:00Z","id":"103432","site":"Kuopio","to_timestamp":"2018-06-25T08:20:00Z","uncertainty_Be-7-uncertainty":3.0},"type":"Feature"},{"geometry":{"coordinates":[27.63414,62.89195],"type":"Point"},"properties":{"concentration_Be-7":4524.3,"concentration_air-volume":13225.0,"from_timestamp":"2018-06-14T08:10:00Z","id":"103432","site":"Kuopio","to_timestamp":"2018-06-18T08:21:00Z","uncertainty_Be-7-uncertainty":3.0},"type":"Feature"},{"geometry":{"coordinates":[25.67774,66.51285],"type":"Point"},"properties":{"concentration_Be-7":1964.9,"concentration_Cs-137":0.2,"concentration_Na-22":0.2,"concentration_air-volume":145902.0,"from_timestamp":"2018-06-18T06:24:00Z","id":"103433","site":"Rovaniemi","to_timestamp":"2018-06-25T06:52:00Z","uncertainty_Be-7-uncertainty":7.0,"uncertainty_Cs-137-uncertainty":16.0,"uncertainty_Na-22-uncertainty":18.0},"type":"Feature"},{"geometry":{"coordinates":[25.67774,66.51285],"type":"Point"},"properties":{"concentration_Be-7":2545.4,"concentration_Cs-137":0.2,"concentration_Na-22":0.4,"concentration_Pb-210":23.1,"concentration_air-volume":139052.0,"from_timestamp":"2018-06-11T10:51:00Z","id":"103433","site":"Rovaniemi","to_timestamp":"2018-06-18T06:21:00Z","uncertainty_Be-7-uncertainty":5.0,"uncertainty_Cs-137-uncertainty":18.0,"uncertainty_Na-22-uncertainty":14.0,"uncertainty_Pb-210-uncertainty":24.0},"type":"Feature"},{"geometry":{"coordinates":[26.62807,67.36505],"type":"Point"},"properties":{"concentration_Be-7":3301.8,"concentration_Na-22":0.6,"concentration_air-volume":24650.0,"from_timestamp":"2018-06-11T06:30:00Z","id":"103434","site":"Sodankylä","to_timestamp":"2018-06-18T06:40:00Z","uncertainty_Be-7-uncertainty":6.0,"uncertainty_Na-22-uncertainty":30.0},"type":"Feature"},{"geometry":{"coordinates":[26.62807,67.36505],"type":"Point"},"properties":{"concentration_Be-7":1402.3,"concentration_Na-22":0.6,"concentration_Pb-210":114.2,"concentration_air-volume":24548.0,"from_timestamp":"2018-06-18T06:40:00Z","id":"103434","site":"Sodankylä","to_timestamp":"2018-06-25T06:20:00Z","uncertainty_Be-7-uncertainty":6.0,"uncertainty_Na-22-uncertainty":30.0,"uncertainty_Pb-210-uncertainty":8.0},"type":"Feature"},{"geometry":{"coordinates":[27.70835,64.08474],"type":"Point"},"properties":{"concentration_Be-7":3076.3,"concentration_Cs-137":0.4,"concentration_Na-22":0.5,"concentration_Pb-210":180.8,"concentration_air-volume":138363.0,"from_timestamp":"2018-06-11T15:00:00Z","id":"103435","site":"Kajaani","to_timestamp":"2018-06-18T11:39:00Z","uncertainty_Be-7-uncertainty":5.0,"uncertainty_Cs-137-uncertainty":9.0,"uncertainty_Na-22-uncertainty":11.0,"uncertainty_Pb-210-uncertainty":5.0},"type":"Feature"},{"geometry":{"coordinates":[27.70835,64.08474],"type":"Point"},"properties":{"concentration_Be-7":1726.8,"concentration_Cs-137":0.3,"concentration_Na-22":0.2,"concentration_Pb-210":476.6,"concentration_air-volume":140082.0,"from_timestamp":"2018-06-18T11:44:00Z","id":"103435","site":"Kajaani","to_timestamp":"2018-06-25T06:42:00Z","uncertainty_Be-7-uncertainty":7.0,"uncertainty_Cs-137-uncertainty":10.0,"uncertainty_Na-22-uncertainty":15.0,"uncertainty_Pb-210-uncertainty":26.0},"type":"Feature"},{"geometry":{"coordinates":[25.05385,60.20905],"type":"Point"},"properties":{"concentration_Be-7":3644.5,"concentration_Cs-137":0.5,"concentration_Na-22":0.7,"concentration_Tl-207":109.2,"concentration_air-volume":23090.0,"from_timestamp":"2018-06-14T09:00:00Z","id":"103428","site":"Helsinki","to_timestamp":"2018-06-21T06:14:00Z","uncertainty_Be-7-uncertainty":10.0,"uncertainty_Cs-137-uncertainty":22.0,"uncertainty_Na-22-uncertainty":23.0,"uncertainty_Tl-207-uncertainty":29.0},"type":"Feature"},{"geometry":{"coordinates":[25.05385,60.20905],"type":"Point"},"properties":{"concentration_Be-7":1611.4,"concentration_Cs-137":0.5,"concentration_air-volume":24782.0,"from_timestamp":"2018-06-21T06:15:00Z","id":"103428","site":"Helsinki","to_timestamp":"2018-06-28T10:46:00Z","uncertainty_Be-7-uncertainty":6.0,"uncertainty_Cs-137-uncertainty":18.0},"type":"Feature"}],"name":"stuk_open_data_air_radionuclides","type":"FeatureCollection"}