{"crs":{"properties":{"name":"urn:ogc:def:crs:OGC:1.3:CRS84"},"type":"name"},"features":[{"geometry":{"coordinates":[25.05385,60.20905],"type":"Point"},"properties":{"concentration_Be-7":896.1,"concentration_Cs-137":0.4,"concentration_Na-22":0.9,"concentration_air-volume":59489.0,"from_timestamp":"2018-07-13T09:38:00Z","id":"103428","site":"Helsinki","to_timestamp":"2018-07-23T12:28:00Z","uncertainty_Be-7-uncertainty":10.0,"uncertainty_Cs-137-uncertainty":18.0,"uncertainty_Na-22-uncertainty":19.0},"type":"Feature"},{"geometry":{"coordinates":[25.05385,60.20905],"type":"Point"},"properties":{"concentration_Be-7":5347.0,"concentration_Pb-210":779.5,"concentration_air-volume":23144.0,"from_timestamp":"2018-07-23T12:29:00Z","id":"103428","site":"Helsinki","to_timestamp":"2018-07-30T09:41:00Z","uncertainty_Be-7-uncertainty":6.0,"uncertainty_Pb-210-uncertainty":20.0},"type":"Feature"},{"geometry":{"coordinates":[26.91808,60.48318],"type":"Point"},"properties":{"concentration_Be-7":4628.5,"concentration_Cs-137":3.3,"concentration_Na-22":0.8,"concentration_Pb-210":355.8,"concentration_air-volume":269487.0,"from_timestamp":"2018-07-09T08:21:00Z","id":"103429","site":"Kotka","to_timestamp":"2018-07-30T14:08:00Z","uncertainty_Be-7-uncertainty":6.0,"uncertainty_Cs-137-uncertainty":6.0,"uncertainty_Na-22-uncertainty":8.0,"uncertainty_Pb-210-uncertainty":8.0},"type":"Feature"},{"geometry":{"coordinates":[28.82663,61.13229],"type":"Point"},"properties":{"concentration_Be-7":7460.7,"concentration_Na-22":1.4,"concentration_Pb-210":580.1,"concentration_air-volume":16941.0,"from_timestamp":"2018-07-17T04:31:00Z","id":"103430","site":"Imatra","to_timestamp":"2018-07-23T05:40:00Z","uncertainty_Be-7-uncertainty":5.0,"uncertainty_Na-22-uncertainty":20.0,"uncertainty_Pb-210-uncertainty":10.0},"type":"Feature"},{"geometry":{"coordinates":[28.82663,61.13229],"type":"Point"},"properties":{"concentration_Be-7":6772.8,"concentration_air-volume":19879.0,"from_timestamp":"2018-07-23T05:40:00Z","id":"103430","site":"Imatra","to_timestamp":"2018-07-30T04:15:00Z","uncertainty_Be-7-uncertainty":10.0},"type":"Feature"},{"geometry":{"coordinates":[27.57,68.64],"type":"Point"},"properties":{"concentration_Be-7":3503.9,"concentration_Pb-210":274.3,"concentration_air-volume":33193.0,"from_timestamp":"2018-07-16T05:25:00Z","id":"103431","site":"Ivalo","to_timestamp":"2018-07-23T05:16:00Z","uncertainty_Be-7-uncertainty":5.0,"uncertainty_Pb-210-uncertainty":10.0},"type":"Feature"},{"geometry":{"coordinates":[27.57,68.64],"type":"Point"},"properties":{"concentration_Be-7":2966.3,"concentration_Pb-210":238.8,"concentration_air-volume":34243.0,"from_timestamp":"2018-07-23T05:18:00Z","id":"103431","site":"Ivalo","to_timestamp":"2018-07-30T06:53:00Z","uncertainty_Be-7-uncertainty":5.0,"uncertainty_Pb-210-uncertainty":10.0},"type":"Feature"},{"geometry":{"coordinates":[27.63414,62.89195],"type":"Point"},"properties":{"concentration_Be-7":7377.1,"concentration_Pb-210":401.3,"concentration_air-volume":9808.0,"from_timestamp":"2018-07-16T08:19:00Z","id":"103432","site":"Kuopio","to_timestamp":"2018-07-19T08:30:00Z","uncertainty_Be-7-uncertainty":3.0,"uncertainty_Pb-210-uncertainty":16.0},"type":"Feature"},{"geometry":{"coordinates":[27.63414,62.89195],"type":"Point"},"properties":{"concentration_Be-7":6239.6,"concentration_Pb-210":529.5,"concentration_air-volume":13353.0,"from_timestamp":"2018-07-19T08:32:00Z","id":"103432","site":"Kuopio","to_timestamp":"2018-07-23T09:30:00Z","uncertainty_Be-7-uncertainty":3.0,"uncertainty_Pb-210-uncertainty":11.0},"type":"Feature"},{"geometry":{"coordinates":[27.63414,62.89195],"type":"Point"},"properties":{"concentration_Be-7":7516.0,"concentration_Pb-210":494.1,"concentration_air-volume":9749.0,"from_timestamp":"2018-07-23T09:32:00Z","id":"103432","site":"Kuopio","to_timestamp":"2018-07-26T08:40:00Z","uncertainty_Be-7-uncertainty":3.0,"uncertainty_Pb-210-uncertainty":14.0},"type":"Feature"},{"geometry":{"coordinates":[25.67774,66.51285],"type":"Point"},"properties":{"concentration_Be-7":4544.2,"concentration_Na-22":0.9,"concentration_air-volume":61003.0,"from_timestamp":"2018-07-16T06:28:00Z","id":"103433","site":"Rovaniemi","to_timestamp":"2018-07-19T10:44:00Z","uncertainty_Be-7-uncertainty":7.0,"uncertainty_Na-22-uncertainty":17.0},"type":"Feature"},{"geometry":{"coordinates":[25.67774,66.51285],"type":"Point"},"properties":{"concentration_Be-7":4518.8,"concentration_Cs-137":0.2,"concentration_Na-22":0.7,"concentration_Pb-210":371.6,"concentration_air-volume":214208.0,"from_timestamp":"2018-07-19T10:46:00Z","id":"103433","site":"Rovaniemi","to_timestamp":"2018-08-01T07:39:00Z","uncertainty_Be-7-uncertainty":6.0,"uncertainty_Cs-137-uncertainty":10.0,"uncertainty_Na-22-uncertainty":8.0,"uncertainty_Pb-210-uncertainty":8.0},"type":"Feature"},{"geometry":{"coordinates":[26.62807,67.36505],"type":"Point"},"properties":{"concentration_Be-7":2843.0,"concentration_Na-22":0.5,"concentration_Pb-210":229.9,"concentration_air-volume":29288.0,"from_timestamp":"2018-07-17T06:37:00Z","id":"103434","site":"Sodankylä","to_timestamp":"2018-07-23T06:14:00Z","uncertainty_Be-7-uncertainty":6.0,"uncertainty_Na-22-uncertainty":27.0,"uncertainty_Pb-210-uncertainty":8.0},"type":"Feature"},{"geometry":{"coordinates":[26.62807,67.36505],"type":"Point"},"properties":{"concentration_Be-7":3101.3,"concentration_Cs-137":0.2,"concentration_Na-22":0.3,"concentration_Pb-210":299.1,"concentration_air-volume":34377.0,"from_timestamp":"2018-07-23T06:14:00Z","id":"103434","site":"Sodankylä","to_timestamp":"2018-07-30T06:25:00Z","uncertainty_Be-7-uncertainty":6.0,"uncertainty_Cs-137-uncertainty":30.0,"uncertainty_Na-22-uncertainty":26.0,"uncertainty_Pb-210-uncertainty":20.0},"type":"Feature"},{"geometry":{"coordinates":[27.70835,64.08474],"type":"Point"},"properties":{"concentration_Be-7":3728.4,"concentration_Cs-137":0.3,"concentration_Na-22":0.7,"concentration_Pb-210":286.6,"concentration_air-volume":104959.0,"from_timestamp":"2018-07-16T15:08:00Z","id":"103435","site":"Kajaani","to_timestamp":"2018-07-23T10:40:00Z","uncertainty_Be-7-uncertainty":6.0,"uncertainty_Cs-137-uncertainty":11.0,"uncertainty_Na-22-uncertainty":11.0,"uncertainty_Pb-210-uncertainty":8.0},"type":"Feature"},{"geometry":{"coordinates":[27.70835,64.08474],"type":"Point"},"properties":{"concentration_Be-7":2025.4,"concentration_Cs-137":0.1,"concentration_Na-22":0.2,"concentration_Pb-210":265.6,"concentration_air-volume":269476.0,"from_timestamp":"2018-07-23T10:45:00Z","id":"103435","site":"Kajaani","to_timestamp":"2018-07-30T10:20:00Z","uncertainty_Be-7-uncertainty":7.0,"uncertainty_Cs-137-uncertainty":11.0,"uncertainty_Na-22-uncertainty":11.0,"uncertainty_Pb-210-uncertainty":21.0},"type":"Feature"},{"geometry":{"coordinates":[25.05385,60.20905],"type":"Point"},"properties":{"concentration_Be-7":896.1,"concentration_Cs-137":0.4,"concentration_Na-22":0.9,"concentration_air-volume":59489.0,"from_timestamp":"2018-07-13T09:38:00Z","id":"103428","site":"Helsinki","to_timestamp":"2018-07-23T12:28:00Z","uncertainty_Be-7-uncertainty":10.0,"uncertainty_Cs-137-uncertainty":18.0,"uncertainty_Na-22-uncertainty":19.0},"type":"Feature"},{"geometry":{"coordinates":[25.05385,60.20905],"type":"Point"},"properties":{"concentration_Be-7":5347.0,"concentration_Pb-210":779.5,"concentration_air-volume":23144.0,"from_timestamp":"2018-07-23T12:29:00Z","id":"103428","site":"Helsinki","to_timestamp":"2018-07-30T09:41:00Z","uncertainty_Be-7-uncertainty":6.0,"uncertainty_Pb-210-uncertainty":20.0},"type":"Feature"}],"name":"stuk_open_data_air_radionuclides","type":"FeatureCollection"}