{"crs":{"properties":{"name":"urn:ogc:def:crs:OGC:1.3:CRS84"},"type":"name"},"features":[{"geometry":{"coordinates":[25.05385,60.20905],"type":"Point"},"properties":{"concentration_Be-7":1308.9,"concentration_Cs-137":0.5,"concentration_air-volume":24602.0,"from_timestamp":"2018-04-26T10:19:00Z","id":"103428","site":"Helsinki","to_timestamp":"2018-05-03T11:01:00Z","uncertainty_Be-7-uncertainty":6.0,"uncertainty_Cs-137-uncertainty":25.0},"type":"Feature"},{"geometry":{"coordinates":[25.05385,60.20905],"type":"Point"},"properties":{"concentration_Be-7":1633.5,"concentration_Co-60":0.6,"concentration_Cs-137":0.5,"concentration_Pb-210":238.4,"concentration_air-volume":21241.0,"from_timestamp":"2018-05-03T11:02:00Z","id":"103428","site":"Helsinki","to_timestamp":"2018-05-09T12:17:00Z","uncertainty_Be-7-uncertainty":6.0,"uncertainty_Co-60-uncertainty":18.0,"uncertainty_Cs-137-uncertainty":22.0,"uncertainty_Pb-210-uncertainty":8.0},"type":"Feature"},{"geometry":{"coordinates":[26.91808,60.48318],"type":"Point"},"properties":{"concentration_Be-7":1024.2,"concentration_Ce-141":0.2,"concentration_Co-60":0.9,"concentration_Cs-134":0.9,"concentration_Cs-137":1.9,"concentration_Fe-59":0.5,"concentration_Mn-54":0.4,"concentration_Na-22":0.1,"concentration_Nb-95":0.5,"concentration_Pb-210":25.7,"concentration_Ru-103":0.4,"concentration_Zr-95":0.3,"concentration_air-volume":150834.0,"from_timestamp":"2018-04-23T07:37:00Z","id":"103429","site":"Kotka","to_timestamp":"2018-05-03T13:25:00Z","uncertainty_Be-7-uncertainty":5.0,"uncertainty_Ce-141-uncertainty":15.0,"uncertainty_Co-60-uncertainty":4.0,"uncertainty_Cs-134-uncertainty":4.0,"uncertainty_Cs-137-uncertainty":5.0,"uncertainty_Fe-59-uncertainty":6.0,"uncertainty_Mn-54-uncertainty":7.0,"uncertainty_Na-22-uncertainty":23.0,"uncertainty_Nb-95-uncertainty":8.0,"uncertainty_Pb-210-uncertainty":10.0,"uncertainty_Ru-103-uncertainty":7.0,"uncertainty_Zr-95-uncertainty":7.0},"type":"Feature"},{"geometry":{"coordinates":[26.91808,60.48318],"type":"Point"},"properties":{"concentration_Be-7":4665.7,"concentration_Co-60":1.5,"concentration_Cs-137":2.1,"concentration_Fe-59":0.3,"concentration_Na-22":0.6,"concentration_Pb-210":302.7,"concentration_Sc-46":0.2,"concentration_air-volume":135000.0,"from_timestamp":"2018-05-03T13:25:00Z","id":"103429","site":"Kotka","to_timestamp":"2018-05-14T11:49:00Z","uncertainty_Be-7-uncertainty":7.0,"uncertainty_Co-60-uncertainty":6.0,"uncertainty_Cs-137-uncertainty":7.0,"uncertainty_Fe-59-uncertainty":15.0,"uncertainty_Na-22-uncertainty":10.0,"uncertainty_Pb-210-uncertainty":29.0,"uncertainty_Sc-46-uncertainty":14.0},"type":"Feature"},{"geometry":{"coordinates":[28.82663,61.13229],"type":"Point"},"properties":{"concentration_Be-7":1791.4,"concentration_Cs-137":0.7,"concentration_Pb-210":210.8,"concentration_air-volume":20989.0,"from_timestamp":"2018-04-23T04:37:00Z","id":"103430","site":"Imatra","to_timestamp":"2018-04-30T04:30:00Z","uncertainty_Be-7-uncertainty":6.0,"uncertainty_Cs-137-uncertainty":16.0,"uncertainty_Pb-210-uncertainty":8.0},"type":"Feature"},{"geometry":{"coordinates":[28.82663,61.13229],"type":"Point"},"properties":{"concentration_Be-7":1444.2,"concentration_Cs-137":0.7,"concentration_Pb-210":197.1,"concentration_air-volume":21263.0,"from_timestamp":"2018-04-30T04:30:00Z","id":"103430","site":"Imatra","to_timestamp":"2018-05-07T06:15:00Z","uncertainty_Be-7-uncertainty":6.0,"uncertainty_Cs-137-uncertainty":12.0,"uncertainty_Pb-210-uncertainty":20.0},"type":"Feature"},{"geometry":{"coordinates":[27.57,68.64],"type":"Point"},"properties":{"concentration_Be-7":1135.4,"concentration_Pb-210":171.2,"concentration_air-volume":24830.0,"from_timestamp":"2018-04-23T06:45:00Z","id":"103431","site":"Ivalo","to_timestamp":"2018-04-30T07:40:00Z","uncertainty_Be-7-uncertainty":6.0,"uncertainty_Pb-210-uncertainty":8.0},"type":"Feature"},{"geometry":{"coordinates":[27.57,68.64],"type":"Point"},"properties":{"concentration_Be-7":1988.4,"concentration_Cs-137":0.3,"concentration_Na-22":0.5,"concentration_Pb-210":192.3,"concentration_air-volume":24408.0,"from_timestamp":"2018-04-30T07:41:00Z","id":"103431","site":"Ivalo","to_timestamp":"2018-05-07T06:04:00Z","uncertainty_Be-7-uncertainty":6.0,"uncertainty_Cs-137-uncertainty":24.0,"uncertainty_Na-22-uncertainty":27.0,"uncertainty_Pb-210-uncertainty":8.0},"type":"Feature"},{"geometry":{"coordinates":[27.63414,62.89195],"type":"Point"},"properties":{"concentration_Be-7":1477.7,"concentration_air-volume":13662.0,"from_timestamp":"2018-04-26T08:39:00Z","id":"103432","site":"Kuopio","to_timestamp":"2018-04-30T10:33:00Z","uncertainty_Be-7-uncertainty":3.0},"type":"Feature"},{"geometry":{"coordinates":[27.63414,62.89195],"type":"Point"},"properties":{"concentration_Be-7":1309.8,"concentration_Pb-210":169.7,"concentration_air-volume":9822.0,"from_timestamp":"2018-04-30T10:35:00Z","id":"103432","site":"Kuopio","to_timestamp":"2018-05-03T08:21:00Z","uncertainty_Be-7-uncertainty":3.0,"uncertainty_Pb-210-uncertainty":28.0},"type":"Feature"},{"geometry":{"coordinates":[27.63414,62.89195],"type":"Point"},"properties":{"concentration_Be-7":1215.9,"concentration_air-volume":13820.0,"from_timestamp":"2018-05-03T08:22:00Z","id":"103432","site":"Kuopio","to_timestamp":"2018-05-07T09:45:00Z","uncertainty_Be-7-uncertainty":3.0},"type":"Feature"},{"geometry":{"coordinates":[25.67774,66.51285],"type":"Point"},"properties":{"concentration_Be-7":1079.0,"concentration_Cs-137":0.2,"concentration_air-volume":145566.0,"from_timestamp":"2018-04-23T07:22:00Z","id":"103433","site":"Rovaniemi","to_timestamp":"2018-04-30T12:48:00Z","uncertainty_Be-7-uncertainty":7.0,"uncertainty_Cs-137-uncertainty":12.0},"type":"Feature"},{"geometry":{"coordinates":[25.67774,66.51285],"type":"Point"},"properties":{"concentration_Be-7":2579.1,"concentration_Cs-137":0.1,"concentration_Na-22":0.4,"concentration_Pb-210":519.6,"concentration_air-volume":145982.0,"from_timestamp":"2018-04-30T12:51:00Z","id":"103433","site":"Rovaniemi","to_timestamp":"2018-05-07T07:32:00Z","uncertainty_Be-7-uncertainty":7.0,"uncertainty_Cs-137-uncertainty":16.0,"uncertainty_Na-22-uncertainty":10.0,"uncertainty_Pb-210-uncertainty":22.0},"type":"Feature"},{"geometry":{"coordinates":[26.62807,67.36505],"type":"Point"},"properties":{"concentration_Be-7":1263.8,"concentration_Pb-210":54.2,"concentration_air-volume":25468.0,"from_timestamp":"2018-04-23T06:29:00Z","id":"103434","site":"Sodankylä","to_timestamp":"2018-04-30T06:35:00Z","uncertainty_Be-7-uncertainty":6.0,"uncertainty_Pb-210-uncertainty":27.0},"type":"Feature"},{"geometry":{"coordinates":[26.62807,67.36505],"type":"Point"},"properties":{"concentration_Be-7":2791.3,"concentration_Pb-210":229.2,"concentration_air-volume":25826.0,"from_timestamp":"2018-04-30T06:36:00Z","id":"103434","site":"Sodankylä","to_timestamp":"2018-05-07T06:44:00Z","uncertainty_Be-7-uncertainty":6.0,"uncertainty_Pb-210-uncertainty":20.0},"type":"Feature"},{"geometry":{"coordinates":[27.70835,64.08474],"type":"Point"},"properties":{"concentration_Be-7":1626.4,"concentration_Cs-137":0.4,"concentration_Na-22":0.3,"concentration_air-volume":139352.0,"from_timestamp":"2018-04-23T08:00:00Z","id":"103435","site":"Kajaani","to_timestamp":"2018-04-30T10:17:00Z","uncertainty_Be-7-uncertainty":7.0,"uncertainty_Cs-137-uncertainty":10.0,"uncertainty_Na-22-uncertainty":16.0},"type":"Feature"},{"geometry":{"coordinates":[27.70835,64.08474],"type":"Point"},"properties":{"concentration_Be-7":1149.7,"concentration_Cs-137":0.3,"concentration_Na-22":0.4,"concentration_Pb-210":126.1,"concentration_air-volume":144616.0,"from_timestamp":"2018-04-30T10:00:00Z","id":"103435","site":"Kajaani","to_timestamp":"2018-05-07T08:28:00Z","uncertainty_Be-7-uncertainty":6.0,"uncertainty_Cs-137-uncertainty":11.0,"uncertainty_Na-22-uncertainty":14.0,"uncertainty_Pb-210-uncertainty":8.0},"type":"Feature"},{"geometry":{"coordinates":[25.05385,60.20905],"type":"Point"},"properties":{"concentration_Be-7":1308.9,"concentration_Cs-137":0.5,"concentration_air-volume":24602.0,"from_timestamp":"2018-04-26T10:19:00Z","id":"103428","site":"Helsinki","to_timestamp":"2018-05-03T11:01:00Z","uncertainty_Be-7-uncertainty":6.0,"uncertainty_Cs-137-uncertainty":25.0},"type":"Feature"},{"geometry":{"coordinates":[25.05385,60.20905],"type":"Point"},"properties":{"concentration_Be-7":1633.5,"concentration_Co-60":0.6,"concentration_Cs-137":0.5,"concentration_Pb-210":238.4,"concentration_air-volume":21241.0,"from_timestamp":"2018-05-03T11:02:00Z","id":"103428","site":"Helsinki","to_timestamp":"2018-05-09T12:17:00Z","uncertainty_Be-7-uncertainty":6.0,"uncertainty_Co-60-uncertainty":18.0,"uncertainty_Cs-137-uncertainty":22.0,"uncertainty_Pb-210-uncertainty":8.0},"type":"Feature"}],"name":"stuk_open_data_air_radionuclides","type":"FeatureCollection"}