{"crs":{"properties":{"name":"urn:ogc:def:crs:OGC:1.3:CRS84"},"type":"name"},"features":[{"geometry":{"coordinates":[25.05385,60.20905],"type":"Point"},"properties":{"concentration_Be-7":3614.3,"concentration_Cs-137":2.1,"concentration_Pb-210":2958.7,"concentration_air-volume":15178.0,"from_timestamp":"2018-02-15T08:18:00Z","id":"103428","site":"Helsinki","to_timestamp":"2018-02-19T13:48:00Z","uncertainty_Be-7-uncertainty":5.0,"uncertainty_Cs-137-uncertainty":11.0,"uncertainty_Pb-210-uncertainty":5.0},"type":"Feature"},{"geometry":{"coordinates":[25.05385,60.20905],"type":"Point"},"properties":{"concentration_Be-7":1857.3,"concentration_Cs-137":2.0,"concentration_Pb-210":574.4,"concentration_air-volume":32498.0,"from_timestamp":"2018-02-19T13:48:00Z","id":"103428","site":"Helsinki","to_timestamp":"2018-03-01T08:07:00Z","uncertainty_Be-7-uncertainty":5.0,"uncertainty_Cs-137-uncertainty":7.0,"uncertainty_Pb-210-uncertainty":5.0},"type":"Feature"},{"geometry":{"coordinates":[26.91808,60.48318],"type":"Point"},"properties":{"concentration_Be-7":1459.8,"concentration_Cs-137":1.6,"concentration_I-131":0.3,"concentration_Na-22":0.2,"concentration_Pb-210":909.8,"concentration_air-volume":186235.0,"from_timestamp":"2018-02-15T09:23:00Z","id":"103429","site":"Kotka","to_timestamp":"2018-02-26T15:00:00Z","uncertainty_Be-7-uncertainty":6.0,"uncertainty_Cs-137-uncertainty":6.0,"uncertainty_I-131-uncertainty":9.0,"uncertainty_Na-22-uncertainty":13.0,"uncertainty_Pb-210-uncertainty":8.0},"type":"Feature"},{"geometry":{"coordinates":[28.82663,61.13229],"type":"Point"},"properties":{"concentration_Be-7":3486.3,"concentration_Cs-137":2.4,"concentration_I-131":1.7,"concentration_Pb-210":359.8,"concentration_air-volume":21013.0,"from_timestamp":"2018-02-12T07:15:00Z","id":"103430","site":"Imatra","to_timestamp":"2018-02-19T10:45:00Z","uncertainty_Be-7-uncertainty":6.0,"uncertainty_Cs-137-uncertainty":10.0,"uncertainty_I-131-uncertainty":18.0,"uncertainty_Pb-210-uncertainty":9.0},"type":"Feature"},{"geometry":{"coordinates":[28.82663,61.13229],"type":"Point"},"properties":{"concentration_Be-7":2080.2,"concentration_Cs-137":2.9,"concentration_Pb-210":150.5,"concentration_air-volume":21378.0,"from_timestamp":"2018-02-19T10:48:00Z","id":"103430","site":"Imatra","to_timestamp":"2018-02-26T04:40:00Z","uncertainty_Be-7-uncertainty":6.0,"uncertainty_Cs-137-uncertainty":9.0,"uncertainty_Pb-210-uncertainty":16.0},"type":"Feature"},{"geometry":{"coordinates":[27.57,68.64],"type":"Point"},"properties":{"concentration_Be-7":1781.9,"concentration_Cs-137":0.3,"concentration_Pb-210":506.7,"concentration_air-volume":25688.0,"from_timestamp":"2018-02-12T06:46:00Z","id":"103431","site":"Ivalo","to_timestamp":"2018-02-19T06:27:00Z","uncertainty_Be-7-uncertainty":6.0,"uncertainty_Cs-137-uncertainty":23.0,"uncertainty_Pb-210-uncertainty":8.0},"type":"Feature"},{"geometry":{"coordinates":[27.57,68.64],"type":"Point"},"properties":{"concentration_Be-7":1339.0,"concentration_Cs-137":0.7,"concentration_Pb-210":61.3,"concentration_air-volume":26381.0,"from_timestamp":"2018-02-19T06:28:00Z","id":"103431","site":"Ivalo","to_timestamp":"2018-02-26T05:57:00Z","uncertainty_Be-7-uncertainty":6.0,"uncertainty_Cs-137-uncertainty":17.0,"uncertainty_Pb-210-uncertainty":21.0},"type":"Feature"},{"geometry":{"coordinates":[27.63414,62.89195],"type":"Point"},"properties":{"concentration_Be-7":3507.9,"concentration_Cs-137":2.0,"concentration_I-131":4.5,"concentration_Pb-210":1745.8,"concentration_air-volume":13558.0,"from_timestamp":"2018-02-15T08:23:00Z","id":"103432","site":"Kuopio","to_timestamp":"2018-02-19T08:25:00Z","uncertainty_Be-7-uncertainty":3.0,"uncertainty_Cs-137-uncertainty":18.0,"uncertainty_I-131-uncertainty":11.0,"uncertainty_Pb-210-uncertainty":5.0},"type":"Feature"},{"geometry":{"coordinates":[27.63414,62.89195],"type":"Point"},"properties":{"concentration_Be-7":1956.5,"concentration_Pb-210":416.9,"concentration_air-volume":14523.0,"from_timestamp":"2018-02-22T08:21:00Z","id":"103432","site":"Kuopio","to_timestamp":"2018-02-26T08:29:00Z","uncertainty_Be-7-uncertainty":3.0,"uncertainty_Pb-210-uncertainty":10.0},"type":"Feature"},{"geometry":{"coordinates":[27.63414,62.89195],"type":"Point"},"properties":{"concentration_Be-7":2174.5,"concentration_Pb-210":530.4,"concentration_air-volume":10868.0,"from_timestamp":"2018-02-19T08:26:00Z","id":"103432","site":"Kuopio","to_timestamp":"2018-02-22T08:20:00Z","uncertainty_Be-7-uncertainty":3.0,"uncertainty_Pb-210-uncertainty":10.0},"type":"Feature"},{"geometry":{"coordinates":[25.67774,66.51285],"type":"Point"},"properties":{"concentration_Be-7":1492.1,"concentration_Cs-137":0.6,"concentration_I-131":0.7,"concentration_Pb-210":697.0,"concentration_air-volume":156799.0,"from_timestamp":"2018-02-11T15:34:00Z","id":"103433","site":"Rovaniemi","to_timestamp":"2018-02-19T07:27:00Z","uncertainty_Be-7-uncertainty":6.0,"uncertainty_Cs-137-uncertainty":20.0,"uncertainty_I-131-uncertainty":27.0,"uncertainty_Pb-210-uncertainty":8.0},"type":"Feature"},{"geometry":{"coordinates":[25.67774,66.51285],"type":"Point"},"properties":{"concentration_Be-7":1197.2,"concentration_Cs-137":0.5,"concentration_Na-22":0.2,"concentration_Pb-210":660.1,"concentration_air-volume":139095.0,"from_timestamp":"2018-02-19T07:31:00Z","id":"103433","site":"Rovaniemi","to_timestamp":"2018-02-25T14:47:00Z","uncertainty_Be-7-uncertainty":7.0,"uncertainty_Cs-137-uncertainty":9.0,"uncertainty_Na-22-uncertainty":21.0,"uncertainty_Pb-210-uncertainty":20.0},"type":"Feature"},{"geometry":{"coordinates":[26.62807,67.36505],"type":"Point"},"properties":{"concentration_Be-7":2268.7,"concentration_Cs-137":0.6,"concentration_Pb-210":13.9,"concentration_air-volume":26544.0,"from_timestamp":"2018-02-12T06:34:00Z","id":"103434","site":"Sodankylä","to_timestamp":"2018-02-19T06:45:00Z","uncertainty_Be-7-uncertainty":5.0,"uncertainty_Cs-137-uncertainty":18.0,"uncertainty_Pb-210-uncertainty":13.0},"type":"Feature"},{"geometry":{"coordinates":[26.62807,67.36505],"type":"Point"},"properties":{"concentration_Be-7":1272.0,"concentration_Pb-210":351.4,"concentration_air-volume":27611.0,"from_timestamp":"2018-02-19T06:47:00Z","id":"103434","site":"Sodankylä","to_timestamp":"2018-02-26T06:21:00Z","uncertainty_Be-7-uncertainty":5.0,"uncertainty_Pb-210-uncertainty":5.0},"type":"Feature"},{"geometry":{"coordinates":[27.70835,64.08474],"type":"Point"},"properties":{"concentration_Be-7":1747.1,"concentration_Cs-137":0.5,"concentration_air-volume":104589.0,"from_timestamp":"2018-02-19T08:00:00Z","id":"103435","site":"Kajaani","to_timestamp":"2018-02-26T08:49:00Z","uncertainty_Be-7-uncertainty":7.0,"uncertainty_Cs-137-uncertainty":10.0},"type":"Feature"}],"name":"stuk_open_data_air_radionuclides","type":"FeatureCollection"}