{"crs":{"properties":{"name":"urn:ogc:def:crs:OGC:1.3:CRS84"},"type":"name"},"features":[{"geometry":{"coordinates":[25.05385,60.20905],"type":"Point"},"properties":{"concentration_Be-7":2813.0,"concentration_Pb-210":398.1,"concentration_air-volume":25730.0,"from_timestamp":"2018-01-11T12:20:00Z","id":"103428","site":"Helsinki","to_timestamp":"2018-01-18T07:51:00Z","uncertainty_Be-7-uncertainty":5.0,"uncertainty_Pb-210-uncertainty":5.0},"type":"Feature"},{"geometry":{"coordinates":[26.91808,60.48318],"type":"Point"},"properties":{"concentration_Be-7":2280.8,"concentration_Cs-137":2.2,"concentration_Na-22":0.2,"concentration_air-volume":95762.0,"from_timestamp":"2018-01-09T05:05:00Z","id":"103429","site":"Kotka","to_timestamp":"2018-01-15T14:55:00Z","uncertainty_Be-7-uncertainty":7.0,"uncertainty_Cs-137-uncertainty":7.0,"uncertainty_Na-22-uncertainty":30.0},"type":"Feature"},{"geometry":{"coordinates":[26.91808,60.48318],"type":"Point"},"properties":{"concentration_Be-7":1193.4,"concentration_Cs-137":0.9,"concentration_Pb-210":730.6,"concentration_air-volume":136982.0,"from_timestamp":"2018-01-22T13:50:00Z","id":"103429","site":"Kotka","to_timestamp":"2018-01-29T13:09:00Z","uncertainty_Be-7-uncertainty":7.0,"uncertainty_Cs-137-uncertainty":8.0,"uncertainty_Pb-210-uncertainty":21.0},"type":"Feature"},{"geometry":{"coordinates":[26.91808,60.48318],"type":"Point"},"properties":{"concentration_Be-7":2203.4,"concentration_Cs-137":2.3,"concentration_I-131":1.0,"concentration_Pb-210":1802.3,"concentration_air-volume":101747.0,"from_timestamp":"2018-01-15T14:55:00Z","id":"103429","site":"Kotka","to_timestamp":"2018-01-22T13:45:00Z","uncertainty_Be-7-uncertainty":7.0,"uncertainty_Cs-137-uncertainty":8.0,"uncertainty_I-131-uncertainty":11.0,"uncertainty_Pb-210-uncertainty":17.0},"type":"Feature"},{"geometry":{"coordinates":[28.82663,61.13229],"type":"Point"},"properties":{"concentration_Be-7":1951.8,"concentration_Cs-137":1.7,"concentration_Pb-210":732.6,"concentration_air-volume":20848.0,"from_timestamp":"2018-01-22T04:45:00Z","id":"103430","site":"Imatra","to_timestamp":"2018-01-29T04:50:00Z","uncertainty_Be-7-uncertainty":5.0,"uncertainty_Cs-137-uncertainty":11.0,"uncertainty_Pb-210-uncertainty":5.0},"type":"Feature"},{"geometry":{"coordinates":[28.82663,61.13229],"type":"Point"},"properties":{"concentration_Be-7":2850.2,"concentration_Cs-137":1.4,"concentration_Pb-210":163.5,"concentration_air-volume":32891.0,"from_timestamp":"2018-01-11T11:00:00Z","id":"103430","site":"Imatra","to_timestamp":"2018-01-22T04:45:00Z","uncertainty_Be-7-uncertainty":6.0,"uncertainty_Cs-137-uncertainty":10.0,"uncertainty_Pb-210-uncertainty":10.0},"type":"Feature"},{"geometry":{"coordinates":[27.57,68.64],"type":"Point"},"properties":{"concentration_Be-7":2106.3,"concentration_Pb-210":224.4,"concentration_air-volume":25604.0,"from_timestamp":"2018-01-08T06:29:00Z","id":"103431","site":"Ivalo","to_timestamp":"2018-01-15T06:58:00Z","uncertainty_Be-7-uncertainty":5.0,"uncertainty_Pb-210-uncertainty":5.0},"type":"Feature"},{"geometry":{"coordinates":[27.57,68.64],"type":"Point"},"properties":{"concentration_Be-7":2573.8,"concentration_Cs-137":0.9,"concentration_Pb-210":473.7,"concentration_air-volume":25083.0,"from_timestamp":"2018-01-15T07:00:00Z","id":"103431","site":"Ivalo","to_timestamp":"2018-01-22T05:45:00Z","uncertainty_Be-7-uncertainty":5.0,"uncertainty_Cs-137-uncertainty":13.0,"uncertainty_Pb-210-uncertainty":5.0},"type":"Feature"},{"geometry":{"coordinates":[27.57,68.64],"type":"Point"},"properties":{"concentration_Be-7":680.1,"concentration_Cs-137":0.7,"concentration_Pb-210":505.7,"concentration_air-volume":25674.0,"from_timestamp":"2018-01-22T05:47:00Z","id":"103431","site":"Ivalo","to_timestamp":"2018-01-29T06:22:00Z","uncertainty_Be-7-uncertainty":6.0,"uncertainty_Cs-137-uncertainty":16.0,"uncertainty_Pb-210-uncertainty":8.0},"type":"Feature"},{"geometry":{"coordinates":[27.63414,62.89195],"type":"Point"},"properties":{"concentration_Be-7":2886.3,"concentration_air-volume":14421.0,"from_timestamp":"2018-01-11T08:11:00Z","id":"103432","site":"Kuopio","to_timestamp":"2018-01-15T08:26:00Z","uncertainty_Be-7-uncertainty":3.0},"type":"Feature"},{"geometry":{"coordinates":[27.63414,62.89195],"type":"Point"},"properties":{"concentration_Be-7":2985.1,"concentration_Pb-210":441.3,"concentration_air-volume":10634.0,"from_timestamp":"2018-01-15T08:27:00Z","id":"103432","site":"Kuopio","to_timestamp":"2018-01-18T08:27:00Z","uncertainty_Be-7-uncertainty":3.0,"uncertainty_Pb-210-uncertainty":13.0},"type":"Feature"},{"geometry":{"coordinates":[27.63414,62.89195],"type":"Point"},"properties":{"concentration_Be-7":3163.3,"concentration_Cs-137":1.4,"concentration_Pb-210":869.4,"concentration_air-volume":14049.0,"from_timestamp":"2018-01-18T08:28:00Z","id":"103432","site":"Kuopio","to_timestamp":"2018-01-22T08:25:00Z","uncertainty_Be-7-uncertainty":3.0,"uncertainty_Cs-137-uncertainty":23.0,"uncertainty_Pb-210-uncertainty":6.0},"type":"Feature"},{"geometry":{"coordinates":[27.63414,62.89195],"type":"Point"},"properties":{"concentration_Be-7":1522.5,"concentration_Cs-137":2.0,"concentration_Pb-210":736.5,"concentration_air-volume":10695.0,"from_timestamp":"2018-01-22T08:26:00Z","id":"103432","site":"Kuopio","to_timestamp":"2018-01-25T08:37:00Z","uncertainty_Be-7-uncertainty":3.0,"uncertainty_Cs-137-uncertainty":22.0,"uncertainty_Pb-210-uncertainty":8.0},"type":"Feature"},{"geometry":{"coordinates":[25.67774,66.51285],"type":"Point"},"properties":{"concentration_Be-7":1479.9,"concentration_Cs-137":0.6,"concentration_Na-22":0.3,"concentration_Pb-210":222.0,"concentration_air-volume":91825.0,"from_timestamp":"2018-01-08T11:10:00Z","id":"103433","site":"Rovaniemi","to_timestamp":"2018-01-15T06:55:00Z","uncertainty_Be-7-uncertainty":6.0,"uncertainty_Cs-137-uncertainty":9.0,"uncertainty_Na-22-uncertainty":25.0,"uncertainty_Pb-210-uncertainty":8.0},"type":"Feature"},{"geometry":{"coordinates":[25.67774,66.51285],"type":"Point"},"properties":{"concentration_Be-7":2624.4,"concentration_Cs-137":0.3,"concentration_Na-22":0.2,"concentration_Pb-210":628.0,"concentration_air-volume":134204.0,"from_timestamp":"2018-01-15T07:03:00Z","id":"103433","site":"Rovaniemi","to_timestamp":"2018-01-21T11:22:00Z","uncertainty_Be-7-uncertainty":7.0,"uncertainty_Cs-137-uncertainty":11.0,"uncertainty_Na-22-uncertainty":16.0,"uncertainty_Pb-210-uncertainty":18.0},"type":"Feature"},{"geometry":{"coordinates":[25.67774,66.51285],"type":"Point"},"properties":{"concentration_Be-7":1101.6,"concentration_Cs-137":0.4,"concentration_Pb-210":1578.3,"concentration_air-volume":149454.0,"from_timestamp":"2018-01-21T11:24:00Z","id":"103433","site":"Rovaniemi","to_timestamp":"2018-01-29T07:28:00Z","uncertainty_Be-7-uncertainty":7.0,"uncertainty_Cs-137-uncertainty":9.0,"uncertainty_Pb-210-uncertainty":15.0},"type":"Feature"},{"geometry":{"coordinates":[26.62807,67.36505],"type":"Point"},"properties":{"concentration_Be-7":2275.1,"concentration_air-volume":26319.0,"from_timestamp":"2018-01-08T06:54:00Z","id":"103434","site":"Sodankylä","to_timestamp":"2018-01-15T06:37:00Z","uncertainty_Be-7-uncertainty":6.0},"type":"Feature"},{"geometry":{"coordinates":[26.62807,67.36505],"type":"Point"},"properties":{"concentration_Be-7":2585.0,"concentration_Pb-210":554.6,"concentration_air-volume":26989.0,"from_timestamp":"2018-01-15T06:38:00Z","id":"103434","site":"Sodankylä","to_timestamp":"2018-01-22T06:37:00Z","uncertainty_Be-7-uncertainty":5.0,"uncertainty_Pb-210-uncertainty":5.0},"type":"Feature"},{"geometry":{"coordinates":[27.70835,64.08474],"type":"Point"},"properties":{"concentration_Be-7":2250.6,"concentration_Cs-137":0.3,"concentration_air-volume":101558.0,"from_timestamp":"2017-12-25T07:23:00Z","id":"103435","site":"Kajaani","to_timestamp":"2018-01-15T07:19:00Z","uncertainty_Be-7-uncertainty":7.0,"uncertainty_Cs-137-uncertainty":14.0},"type":"Feature"},{"geometry":{"coordinates":[27.70835,64.08474],"type":"Point"},"properties":{"concentration_Be-7":2823.9,"concentration_Cs-137":0.3,"concentration_I-131":0.3,"concentration_Na-22":0.2,"concentration_Pb-210":590.3,"concentration_air-volume":102256.0,"from_timestamp":"2018-01-15T07:30:00Z","id":"103435","site":"Kajaani","to_timestamp":"2018-01-22T07:27:00Z","uncertainty_Be-7-uncertainty":5.0,"uncertainty_Cs-137-uncertainty":9.0,"uncertainty_I-131-uncertainty":15.0,"uncertainty_Na-22-uncertainty":21.0,"uncertainty_Pb-210-uncertainty":5.0},"type":"Feature"},{"geometry":{"coordinates":[27.70835,64.08474],"type":"Point"},"properties":{"concentration_Be-7":1458.7,"concentration_Cs-137":0.5,"concentration_Na-22":0.2,"concentration_Pb-210":729.2,"concentration_air-volume":199169.0,"from_timestamp":"2018-01-22T07:32:00Z","id":"103435","site":"Kajaani","to_timestamp":"2018-02-05T08:00:00Z","uncertainty_Be-7-uncertainty":7.0,"uncertainty_Cs-137-uncertainty":9.0,"uncertainty_Na-22-uncertainty":20.0,"uncertainty_Pb-210-uncertainty":17.0},"type":"Feature"}],"name":"stuk_open_data_air_radionuclides","type":"FeatureCollection"}