{"crs":{"properties":{"name":"urn:ogc:def:crs:OGC:1.3:CRS84"},"type":"name"},"features":[{"geometry":{"coordinates":[25.05385,60.20905],"type":"Point"},"properties":{"concentration_Be-7":3181.8,"concentration_Cs-137":0.6,"concentration_air-volume":29140.0,"from_timestamp":"2018-11-14T09:10:00Z","id":"103428","site":"Helsinki","to_timestamp":"2018-11-22T11:19:00Z","uncertainty_Be-7-uncertainty":6.0,"uncertainty_Cs-137-uncertainty":14.0},"type":"Feature"},{"geometry":{"coordinates":[25.05385,60.20905],"type":"Point"},"properties":{"concentration_Be-7":2133.7,"concentration_Cs-137":0.7,"concentration_Pb-210":268.5,"concentration_air-volume":29644.0,"from_timestamp":"2018-11-22T11:20:00Z","id":"103428","site":"Helsinki","to_timestamp":"2018-11-30T08:53:00Z","uncertainty_Be-7-uncertainty":6.0,"uncertainty_Cs-137-uncertainty":14.0,"uncertainty_Pb-210-uncertainty":8.0},"type":"Feature"},{"geometry":{"coordinates":[26.91808,60.48318],"type":"Point"},"properties":{"concentration_Be-7":2017.1,"concentration_Cs-137":0.8,"concentration_Na-22":0.2,"concentration_Pb-210":268.0,"concentration_air-volume":103941.0,"from_timestamp":"2018-11-12T11:48:00Z","id":"103429","site":"Kotka","to_timestamp":"2018-11-19T12:43:00Z","uncertainty_Be-7-uncertainty":5.0,"uncertainty_Cs-137-uncertainty":7.0,"uncertainty_Na-22-uncertainty":21.0,"uncertainty_Pb-210-uncertainty":5.0},"type":"Feature"},{"geometry":{"coordinates":[26.91808,60.48318],"type":"Point"},"properties":{"concentration_Be-7":2617.8,"concentration_Cs-137":1.3,"concentration_Na-22":0.2,"concentration_Pb-210":246.9,"concentration_air-volume":201398.0,"from_timestamp":"2018-11-19T13:45:00Z","id":"103429","site":"Kotka","to_timestamp":"2018-12-03T13:30:00Z","uncertainty_Be-7-uncertainty":6.0,"uncertainty_Cs-137-uncertainty":7.0,"uncertainty_Na-22-uncertainty":16.0,"uncertainty_Pb-210-uncertainty":8.0},"type":"Feature"},{"geometry":{"coordinates":[28.82663,61.13229],"type":"Point"},"properties":{"concentration_Be-7":2473.3,"concentration_Cs-137":1.6,"concentration_Pb-210":588.4,"concentration_air-volume":22230.0,"from_timestamp":"2018-11-09T10:58:00Z","id":"103430","site":"Imatra","to_timestamp":"2018-11-20T05:20:00Z","uncertainty_Be-7-uncertainty":6.0,"uncertainty_Cs-137-uncertainty":10.0,"uncertainty_Pb-210-uncertainty":8.0},"type":"Feature"},{"geometry":{"coordinates":[28.82663,61.13229],"type":"Point"},"properties":{"concentration_Be-7":2533.7,"concentration_Cs-137":1.7,"concentration_Pb-210":283.9,"concentration_air-volume":21976.0,"from_timestamp":"2018-11-20T05:22:00Z","id":"103430","site":"Imatra","to_timestamp":"2018-11-27T13:15:00Z","uncertainty_Be-7-uncertainty":6.0,"uncertainty_Cs-137-uncertainty":9.0,"uncertainty_Pb-210-uncertainty":20.0},"type":"Feature"},{"geometry":{"coordinates":[27.57,68.64],"type":"Point"},"properties":{"concentration_Be-7":1412.9,"concentration_Pb-210":190.6,"concentration_air-volume":25820.0,"from_timestamp":"2018-11-12T05:50:00Z","id":"103431","site":"Ivalo","to_timestamp":"2018-11-19T06:11:00Z","uncertainty_Be-7-uncertainty":6.0,"uncertainty_Pb-210-uncertainty":20.0},"type":"Feature"},{"geometry":{"coordinates":[27.57,68.64],"type":"Point"},"properties":{"concentration_Be-7":1211.4,"concentration_Pb-210":125.0,"concentration_air-volume":26231.0,"from_timestamp":"2018-11-19T06:13:00Z","id":"103431","site":"Ivalo","to_timestamp":"2018-11-26T07:55:00Z","uncertainty_Be-7-uncertainty":6.0,"uncertainty_Pb-210-uncertainty":8.0},"type":"Feature"},{"geometry":{"coordinates":[27.63414,62.89195],"type":"Point"},"properties":{"concentration_Be-7":3003.1,"concentration_Pb-210":167.2,"concentration_air-volume":13796.0,"from_timestamp":"2018-11-15T08:12:00Z","id":"103432","site":"Kuopio","to_timestamp":"2018-11-19T08:19:00Z","uncertainty_Be-7-uncertainty":3.0,"uncertainty_Pb-210-uncertainty":26.0},"type":"Feature"},{"geometry":{"coordinates":[27.63414,62.89195],"type":"Point"},"properties":{"concentration_Be-7":747.0,"concentration_Pb-210":253.4,"concentration_air-volume":10240.0,"from_timestamp":"2018-11-12T08:16:00Z","id":"103432","site":"Kuopio","to_timestamp":"2018-11-15T08:11:00Z","uncertainty_Be-7-uncertainty":3.0,"uncertainty_Pb-210-uncertainty":18.0},"type":"Feature"},{"geometry":{"coordinates":[27.63414,62.89195],"type":"Point"},"properties":{"concentration_Be-7":4151.9,"concentration_Pb-210":274.8,"concentration_air-volume":10389.0,"from_timestamp":"2018-11-19T08:20:00Z","id":"103432","site":"Kuopio","to_timestamp":"2018-11-22T08:16:00Z","uncertainty_Be-7-uncertainty":3.0,"uncertainty_Pb-210-uncertainty":19.0},"type":"Feature"},{"geometry":{"coordinates":[27.63414,62.89195],"type":"Point"},"properties":{"concentration_Be-7":2313.4,"concentration_air-volume":13884.0,"from_timestamp":"2018-11-22T08:17:00Z","id":"103432","site":"Kuopio","to_timestamp":"2018-11-26T08:27:00Z","uncertainty_Be-7-uncertainty":3.0},"type":"Feature"},{"geometry":{"coordinates":[25.67774,66.51285],"type":"Point"},"properties":{"concentration_Be-7":751.4,"concentration_Cs-137":0.2,"concentration_Pb-210":199.9,"concentration_air-volume":131828.0,"from_timestamp":"2018-11-12T07:23:00Z","id":"103433","site":"Rovaniemi","to_timestamp":"2018-11-18T07:17:00Z","uncertainty_Be-7-uncertainty":5.0,"uncertainty_Cs-137-uncertainty":13.0,"uncertainty_Pb-210-uncertainty":5.0},"type":"Feature"},{"geometry":{"coordinates":[25.67774,66.51285],"type":"Point"},"properties":{"concentration_Be-7":2246.4,"concentration_Cs-137":0.2,"concentration_air-volume":87291.0,"from_timestamp":"2018-11-18T07:19:00Z","id":"103433","site":"Rovaniemi","to_timestamp":"2018-11-26T07:01:00Z","uncertainty_Be-7-uncertainty":5.0,"uncertainty_Cs-137-uncertainty":26.0},"type":"Feature"},{"geometry":{"coordinates":[26.62807,67.36505],"type":"Point"},"properties":{"concentration_Be-7":1480.6,"concentration_air-volume":26101.0,"from_timestamp":"2018-11-12T06:27:00Z","id":"103434","site":"Sodankylä","to_timestamp":"2018-11-19T06:34:00Z","uncertainty_Be-7-uncertainty":6.0},"type":"Feature"},{"geometry":{"coordinates":[26.62807,67.36505],"type":"Point"},"properties":{"concentration_Be-7":1157.3,"concentration_air-volume":29009.0,"from_timestamp":"2018-11-19T06:36:00Z","id":"103434","site":"Sodankylä","to_timestamp":"2018-11-26T05:51:00Z","uncertainty_Be-7-uncertainty":6.0},"type":"Feature"},{"geometry":{"coordinates":[27.70835,64.08474],"type":"Point"},"properties":{"concentration_Be-7":690.5,"concentration_Cs-137":0.1,"concentration_Pb-210":254.9,"concentration_air-volume":167685.0,"from_timestamp":"2018-11-12T09:30:00Z","id":"103435","site":"Kajaani","to_timestamp":"2018-11-19T16:10:00Z","uncertainty_Be-7-uncertainty":7.0,"uncertainty_Cs-137-uncertainty":21.0,"uncertainty_Pb-210-uncertainty":29.0},"type":"Feature"},{"geometry":{"coordinates":[27.70835,64.08474],"type":"Point"},"properties":{"concentration_Be-7":2241.0,"concentration_Cs-137":0.2,"concentration_Na-22":0.1,"concentration_air-volume":149551.0,"from_timestamp":"2018-11-19T16:13:00Z","id":"103435","site":"Kajaani","to_timestamp":"2018-11-26T15:45:00Z","uncertainty_Be-7-uncertainty":7.0,"uncertainty_Cs-137-uncertainty":12.0,"uncertainty_Na-22-uncertainty":29.0},"type":"Feature"}],"name":"stuk_open_data_air_radionuclides","type":"FeatureCollection"}