{"crs":{"properties":{"name":"urn:ogc:def:crs:OGC:1.3:CRS84"},"type":"name"},"features":[{"geometry":{"coordinates":[25.05385,60.20905],"type":"Point"},"properties":{"concentration_Be-7":2133.7,"concentration_Cs-137":0.7,"concentration_Pb-210":268.5,"concentration_air-volume":29644.0,"from_timestamp":"2018-11-22T11:20:00Z","id":"103428","site":"Helsinki","to_timestamp":"2018-11-30T08:53:00Z","uncertainty_Be-7-uncertainty":6.0,"uncertainty_Cs-137-uncertainty":14.0,"uncertainty_Pb-210-uncertainty":8.0},"type":"Feature"},{"geometry":{"coordinates":[25.05385,60.20905],"type":"Point"},"properties":{"concentration_Be-7":3749.8,"concentration_Cs-137":0.6,"concentration_Pb-210":483.4,"concentration_air-volume":25826.0,"from_timestamp":"2018-11-30T08:54:00Z","id":"103428","site":"Helsinki","to_timestamp":"2018-12-07T12:39:00Z","uncertainty_Be-7-uncertainty":5.0,"uncertainty_Cs-137-uncertainty":19.0,"uncertainty_Pb-210-uncertainty":5.0},"type":"Feature"},{"geometry":{"coordinates":[26.91808,60.48318],"type":"Point"},"properties":{"concentration_Be-7":2617.8,"concentration_Cs-137":1.3,"concentration_Na-22":0.2,"concentration_Pb-210":246.9,"concentration_air-volume":201398.0,"from_timestamp":"2018-11-19T13:45:00Z","id":"103429","site":"Kotka","to_timestamp":"2018-12-03T13:30:00Z","uncertainty_Be-7-uncertainty":6.0,"uncertainty_Cs-137-uncertainty":7.0,"uncertainty_Na-22-uncertainty":16.0,"uncertainty_Pb-210-uncertainty":8.0},"type":"Feature"},{"geometry":{"coordinates":[28.82663,61.13229],"type":"Point"},"properties":{"concentration_Be-7":1470.5,"concentration_Pb-210":328.6,"concentration_air-volume":5028.0,"from_timestamp":"2018-11-27T13:18:00Z","id":"103430","site":"Imatra","to_timestamp":"2018-11-29T04:35:00Z","uncertainty_Be-7-uncertainty":5.0,"uncertainty_Pb-210-uncertainty":5.0},"type":"Feature"},{"geometry":{"coordinates":[28.82663,61.13229],"type":"Point"},"properties":{"concentration_Be-7":2533.7,"concentration_Cs-137":1.7,"concentration_Pb-210":283.9,"concentration_air-volume":21976.0,"from_timestamp":"2018-11-20T05:22:00Z","id":"103430","site":"Imatra","to_timestamp":"2018-11-27T13:15:00Z","uncertainty_Be-7-uncertainty":6.0,"uncertainty_Cs-137-uncertainty":9.0,"uncertainty_Pb-210-uncertainty":20.0},"type":"Feature"},{"geometry":{"coordinates":[28.82663,61.13229],"type":"Point"},"properties":{"concentration_Be-7":3201.8,"concentration_Cs-137":1.8,"concentration_air-volume":23800.0,"from_timestamp":"2018-11-29T04:40:00Z","id":"103430","site":"Imatra","to_timestamp":"2018-12-06T06:30:00Z","uncertainty_Be-7-uncertainty":6.0,"uncertainty_Cs-137-uncertainty":9.0},"type":"Feature"},{"geometry":{"coordinates":[27.57,68.64],"type":"Point"},"properties":{"concentration_Be-7":1794.2,"concentration_Cs-137":0.5,"concentration_air-volume":25550.0,"from_timestamp":"2018-11-26T07:57:00Z","id":"103431","site":"Ivalo","to_timestamp":"2018-12-03T06:26:00Z","uncertainty_Be-7-uncertainty":6.0,"uncertainty_Cs-137-uncertainty":16.0},"type":"Feature"},{"geometry":{"coordinates":[27.57,68.64],"type":"Point"},"properties":{"concentration_Be-7":1211.4,"concentration_Pb-210":125.0,"concentration_air-volume":26231.0,"from_timestamp":"2018-11-19T06:13:00Z","id":"103431","site":"Ivalo","to_timestamp":"2018-11-26T07:55:00Z","uncertainty_Be-7-uncertainty":6.0,"uncertainty_Pb-210-uncertainty":8.0},"type":"Feature"},{"geometry":{"coordinates":[27.63414,62.89195],"type":"Point"},"properties":{"concentration_Be-7":1548.6,"concentration_air-volume":10482.0,"from_timestamp":"2018-11-26T08:28:00Z","id":"103432","site":"Kuopio","to_timestamp":"2018-11-29T08:17:00Z","uncertainty_Be-7-uncertainty":3.0},"type":"Feature"},{"geometry":{"coordinates":[27.63414,62.89195],"type":"Point"},"properties":{"concentration_Be-7":2313.4,"concentration_air-volume":13884.0,"from_timestamp":"2018-11-22T08:17:00Z","id":"103432","site":"Kuopio","to_timestamp":"2018-11-26T08:27:00Z","uncertainty_Be-7-uncertainty":3.0},"type":"Feature"},{"geometry":{"coordinates":[27.63414,62.89195],"type":"Point"},"properties":{"concentration_Be-7":195.2,"concentration_Pb-210":15.9,"concentration_air-volume":345660.0,"from_timestamp":"2018-11-29T08:18:00Z","id":"103432","site":"Kuopio","to_timestamp":"2018-12-03T08:19:00Z","uncertainty_Be-7-uncertainty":3.0,"uncertainty_Pb-210-uncertainty":11.0},"type":"Feature"},{"geometry":{"coordinates":[25.67774,66.51285],"type":"Point"},"properties":{"concentration_Be-7":1382.6,"concentration_Cs-137":0.3,"concentration_Na-22":0.2,"concentration_Pb-210":172.6,"concentration_air-volume":153547.0,"from_timestamp":"2018-11-26T07:08:00Z","id":"103433","site":"Rovaniemi","to_timestamp":"2018-12-03T07:38:00Z","uncertainty_Be-7-uncertainty":6.0,"uncertainty_Cs-137-uncertainty":9.0,"uncertainty_Na-22-uncertainty":17.0,"uncertainty_Pb-210-uncertainty":8.0},"type":"Feature"},{"geometry":{"coordinates":[25.67774,66.51285],"type":"Point"},"properties":{"concentration_Be-7":2246.4,"concentration_Cs-137":0.2,"concentration_air-volume":87291.0,"from_timestamp":"2018-11-18T07:19:00Z","id":"103433","site":"Rovaniemi","to_timestamp":"2018-11-26T07:01:00Z","uncertainty_Be-7-uncertainty":5.0,"uncertainty_Cs-137-uncertainty":26.0},"type":"Feature"},{"geometry":{"coordinates":[26.62807,67.36505],"type":"Point"},"properties":{"concentration_Be-7":2045.8,"concentration_Pb-210":223.5,"concentration_air-volume":26064.0,"from_timestamp":"2018-11-26T05:52:00Z","id":"103434","site":"Sodankylä","to_timestamp":"2018-12-03T06:36:00Z","uncertainty_Be-7-uncertainty":5.0,"uncertainty_Pb-210-uncertainty":5.0},"type":"Feature"},{"geometry":{"coordinates":[26.62807,67.36505],"type":"Point"},"properties":{"concentration_Be-7":1157.3,"concentration_air-volume":29009.0,"from_timestamp":"2018-11-19T06:36:00Z","id":"103434","site":"Sodankylä","to_timestamp":"2018-11-26T05:51:00Z","uncertainty_Be-7-uncertainty":6.0},"type":"Feature"},{"geometry":{"coordinates":[27.70835,64.08474],"type":"Point"},"properties":{"concentration_Be-7":3275.4,"concentration_Cs-137":0.5,"concentration_Na-22":0.2,"concentration_air-volume":145614.0,"from_timestamp":"2018-11-26T15:50:00Z","id":"103435","site":"Kajaani","to_timestamp":"2018-12-03T10:00:00Z","uncertainty_Be-7-uncertainty":7.0,"uncertainty_Cs-137-uncertainty":8.0,"uncertainty_Na-22-uncertainty":17.0},"type":"Feature"},{"geometry":{"coordinates":[27.70835,64.08474],"type":"Point"},"properties":{"concentration_Be-7":2241.0,"concentration_Cs-137":0.2,"concentration_Na-22":0.1,"concentration_air-volume":149551.0,"from_timestamp":"2018-11-19T16:13:00Z","id":"103435","site":"Kajaani","to_timestamp":"2018-11-26T15:45:00Z","uncertainty_Be-7-uncertainty":7.0,"uncertainty_Cs-137-uncertainty":12.0,"uncertainty_Na-22-uncertainty":29.0},"type":"Feature"}],"name":"stuk_open_data_air_radionuclides","type":"FeatureCollection"}