{"crs":{"properties":{"name":"urn:ogc:def:crs:OGC:1.3:CRS84"},"type":"name"},"features":[{"geometry":{"coordinates":[25.05385,60.20905],"type":"Point"},"properties":{"concentration_Be-7":2097.2,"concentration_Cs-137":0.5,"concentration_air-volume":24339.0,"from_timestamp":"2019-03-28T08:32:00Z","id":"103428","site":"Helsinki","to_timestamp":"2019-04-04T12:00:00Z","uncertainty_Be-7-uncertainty":6.0,"uncertainty_Cs-137-uncertainty":16.0},"type":"Feature"},{"geometry":{"coordinates":[25.05385,60.20905],"type":"Point"},"properties":{"concentration_Be-7":3179.5,"concentration_Cs-137":0.8,"concentration_Pb-210":319.6,"concentration_air-volume":27467.0,"from_timestamp":"2019-04-04T12:01:00Z","id":"103428","site":"Helsinki","to_timestamp":"2019-04-12T09:13:00Z","uncertainty_Be-7-uncertainty":6.0,"uncertainty_Cs-137-uncertainty":15.0,"uncertainty_Pb-210-uncertainty":8.0},"type":"Feature"},{"geometry":{"coordinates":[26.91808,60.48318],"type":"Point"},"properties":{"concentration_Be-7":2641.0,"concentration_Co-60":0.1,"concentration_Cs-137":0.9,"concentration_Na-22":0.4,"concentration_Pb-210":276.4,"concentration_air-volume":119938.0,"from_timestamp":"2019-04-01T15:10:00Z","id":"103429","site":"Kotka","to_timestamp":"2019-04-09T09:47:00Z","uncertainty_Be-7-uncertainty":5.0,"uncertainty_Co-60-uncertainty":15.0,"uncertainty_Cs-137-uncertainty":6.0,"uncertainty_Na-22-uncertainty":10.0,"uncertainty_Pb-210-uncertainty":5.0},"type":"Feature"},{"geometry":{"coordinates":[26.91808,60.48318],"type":"Point"},"properties":{"concentration_Be-7":1542.4,"concentration_Cs-137":0.8,"concentration_Na-22":0.3,"concentration_air-volume":137518.0,"from_timestamp":"2019-03-25T12:00:00Z","id":"103429","site":"Kotka","to_timestamp":"2019-04-01T15:10:00Z","uncertainty_Be-7-uncertainty":5.0,"uncertainty_Cs-137-uncertainty":7.0,"uncertainty_Na-22-uncertainty":23.0},"type":"Feature"},{"geometry":{"coordinates":[28.82663,61.13229],"type":"Point"},"properties":{"concentration_Be-7":4613.6,"concentration_Cs-137":1.2,"concentration_Pb-210":83.1,"concentration_air-volume":17271.0,"from_timestamp":"2019-04-02T04:30:00Z","id":"103430","site":"Imatra","to_timestamp":"2019-04-08T04:30:00Z","uncertainty_Be-7-uncertainty":6.0,"uncertainty_Cs-137-uncertainty":16.0,"uncertainty_Pb-210-uncertainty":22.0},"type":"Feature"},{"geometry":{"coordinates":[27.57,68.64],"type":"Point"},"properties":{"concentration_Be-7":1842.9,"concentration_Co-60":0.8,"concentration_Pb-210":81.5,"concentration_air-volume":26014.0,"from_timestamp":"2019-03-28T06:01:00Z","id":"103431","site":"Ivalo","to_timestamp":"2019-04-04T07:43:00Z","uncertainty_Be-7-uncertainty":6.0,"uncertainty_Co-60-uncertainty":12.0,"uncertainty_Pb-210-uncertainty":8.0},"type":"Feature"},{"geometry":{"coordinates":[27.57,68.64],"type":"Point"},"properties":{"concentration_Be-7":1463.5,"concentration_air-volume":11494.0,"from_timestamp":"2019-04-01T05:21:00Z","id":"103431","site":"Ivalo","to_timestamp":"2019-04-04T07:43:00Z","uncertainty_Be-7-uncertainty":10.0},"type":"Feature"},{"geometry":{"coordinates":[27.57,68.64],"type":"Point"},"properties":{"concentration_Be-7":2087.9,"concentration_Co-60":0.9,"concentration_Pb-210":75.4,"concentration_air-volume":14520.0,"from_timestamp":"2019-03-28T06:01:00Z","id":"103431","site":"Ivalo","to_timestamp":"2019-04-01T05:19:00Z","uncertainty_Be-7-uncertainty":6.0,"uncertainty_Co-60-uncertainty":14.0,"uncertainty_Pb-210-uncertainty":20.0},"type":"Feature"},{"geometry":{"coordinates":[27.57,68.64],"type":"Point"},"properties":{"concentration_Be-7":1468.5,"concentration_Pb-210":180.4,"concentration_air-volume":28564.0,"from_timestamp":"2019-04-04T07:44:00Z","id":"103431","site":"Ivalo","to_timestamp":"2019-04-11T09:52:00Z","uncertainty_Be-7-uncertainty":5.0,"uncertainty_Pb-210-uncertainty":5.0},"type":"Feature"},{"geometry":{"coordinates":[27.63414,62.89195],"type":"Point"},"properties":{"concentration_Be-7":1998.1,"concentration_Cs-137":1.9,"concentration_air-volume":10105.0,"from_timestamp":"2019-04-01T08:36:00Z","id":"103432","site":"Kuopio","to_timestamp":"2019-04-04T08:22:00Z","uncertainty_Be-7-uncertainty":3.0,"uncertainty_Cs-137-uncertainty":25.0},"type":"Feature"},{"geometry":{"coordinates":[27.63414,62.89195],"type":"Point"},"properties":{"concentration_Be-7":3022.4,"concentration_air-volume":13450.0,"from_timestamp":"2019-03-28T08:19:00Z","id":"103432","site":"Kuopio","to_timestamp":"2019-04-01T08:35:00Z","uncertainty_Be-7-uncertainty":3.0},"type":"Feature"},{"geometry":{"coordinates":[27.63414,62.89195],"type":"Point"},"properties":{"concentration_Be-7":4897.9,"concentration_Cs-137":1.5,"concentration_Pb-210":460.0,"concentration_air-volume":12818.0,"from_timestamp":"2019-04-04T08:23:00Z","id":"103432","site":"Kuopio","to_timestamp":"2019-04-08T08:16:00Z","uncertainty_Be-7-uncertainty":3.0,"uncertainty_Cs-137-uncertainty":25.0,"uncertainty_Pb-210-uncertainty":13.0},"type":"Feature"},{"geometry":{"coordinates":[25.67774,66.51285],"type":"Point"},"properties":{"concentration_Be-7":2077.2,"concentration_Cs-137":0.2,"concentration_Na-22":0.3,"concentration_Pb-210":434.3,"concentration_air-volume":144081.0,"from_timestamp":"2019-03-25T15:28:00Z","id":"103433","site":"Rovaniemi","to_timestamp":"2019-04-01T13:48:00Z","uncertainty_Be-7-uncertainty":7.0,"uncertainty_Cs-137-uncertainty":13.0,"uncertainty_Na-22-uncertainty":14.0,"uncertainty_Pb-210-uncertainty":28.0},"type":"Feature"},{"geometry":{"coordinates":[25.67774,66.51285],"type":"Point"},"properties":{"concentration_Be-7":1549.1,"concentration_Cs-137":0.3,"concentration_Na-22":0.2,"concentration_Pb-210":328.5,"concentration_Po-211":7.8,"concentration_air-volume":182960.0,"from_timestamp":"2019-04-01T13:52:00Z","id":"103433","site":"Rovaniemi","to_timestamp":"2019-04-10T07:03:00Z","uncertainty_Be-7-uncertainty":7.0,"uncertainty_Cs-137-uncertainty":9.0,"uncertainty_Na-22-uncertainty":16.0,"uncertainty_Pb-210-uncertainty":27.0,"uncertainty_Po-211-uncertainty":25.0},"type":"Feature"},{"geometry":{"coordinates":[26.62807,67.36505],"type":"Point"},"properties":{"concentration_Be-7":1539.3,"concentration_Pb-210":85.5,"concentration_air-volume":29407.0,"from_timestamp":"2019-03-28T06:35:00Z","id":"103434","site":"Sodankylä","to_timestamp":"2019-04-04T06:28:00Z","uncertainty_Be-7-uncertainty":5.0,"uncertainty_Pb-210-uncertainty":5.0},"type":"Feature"},{"geometry":{"coordinates":[26.62807,67.36505],"type":"Point"},"properties":{"concentration_Be-7":1740.8,"concentration_air-volume":25726.0,"from_timestamp":"2019-04-04T06:29:00Z","id":"103434","site":"Sodankylä","to_timestamp":"2019-04-11T06:09:00Z","uncertainty_Be-7-uncertainty":6.0},"type":"Feature"},{"geometry":{"coordinates":[27.70835,64.08474],"type":"Point"},"properties":{"concentration_Be-7":2208.0,"concentration_Cs-137":0.3,"concentration_Na-22":0.3,"concentration_air-volume":97691.0,"from_timestamp":"2019-03-25T10:52:00Z","id":"103435","site":"Kajaani","to_timestamp":"2019-04-01T09:00:00Z","uncertainty_Be-7-uncertainty":6.0,"uncertainty_Cs-137-uncertainty":11.0,"uncertainty_Na-22-uncertainty":15.0},"type":"Feature"},{"geometry":{"coordinates":[27.70835,64.08474],"type":"Point"},"properties":{"concentration_Be-7":2522.8,"concentration_Cs-137":0.4,"concentration_air-volume":107905.0,"from_timestamp":"2019-04-01T09:02:00Z","id":"103435","site":"Kajaani","to_timestamp":"2019-04-08T12:50:00Z","uncertainty_Be-7-uncertainty":7.0,"uncertainty_Cs-137-uncertainty":10.0},"type":"Feature"},{"geometry":{"coordinates":[25.05385,60.20905],"type":"Point"},"properties":{"concentration_Be-7":2097.2,"concentration_Cs-137":0.5,"concentration_air-volume":24339.0,"from_timestamp":"2019-03-28T08:32:00Z","id":"103428","site":"Helsinki","to_timestamp":"2019-04-04T12:00:00Z","uncertainty_Be-7-uncertainty":6.0,"uncertainty_Cs-137-uncertainty":16.0},"type":"Feature"},{"geometry":{"coordinates":[25.05385,60.20905],"type":"Point"},"properties":{"concentration_Be-7":3179.5,"concentration_Cs-137":0.8,"concentration_Pb-210":319.6,"concentration_air-volume":27467.0,"from_timestamp":"2019-04-04T12:01:00Z","id":"103428","site":"Helsinki","to_timestamp":"2019-04-12T09:13:00Z","uncertainty_Be-7-uncertainty":6.0,"uncertainty_Cs-137-uncertainty":15.0,"uncertainty_Pb-210-uncertainty":8.0},"type":"Feature"}],"name":"stuk_open_data_air_radionuclides","type":"FeatureCollection"}