{"crs":{"properties":{"name":"urn:ogc:def:crs:OGC:1.3:CRS84"},"type":"name"},"features":[{"geometry":{"coordinates":[25.05385,60.20905],"type":"Point"},"properties":{"concentration_Be-7":10240.3,"concentration_Pb-210":364.6,"concentration_air-volume":13614.0,"from_timestamp":"2019-05-18T08:01:00Z","id":"103428","site":"Helsinki","to_timestamp":"2019-05-19T07:57:00Z","uncertainty_Be-7-uncertainty":4.0,"uncertainty_Pb-210-uncertainty":6.0},"type":"Feature"},{"geometry":{"coordinates":[25.05385,60.20905],"type":"Point"},"properties":{"concentration_Be-7":9502.0,"concentration_Pb-210":419.7,"concentration_air-volume":13441.0,"from_timestamp":"2019-05-19T08:01:00Z","id":"103428","site":"Helsinki","to_timestamp":"2019-05-20T07:57:00Z","uncertainty_Be-7-uncertainty":4.0,"uncertainty_Pb-210-uncertainty":6.0},"type":"Feature"},{"geometry":{"coordinates":[25.05385,60.20905],"type":"Point"},"properties":{"concentration_Be-7":9081.4,"concentration_Cs-137":4.6,"concentration_Pb-210":565.6,"concentration_air-volume":13119.0,"from_timestamp":"2019-05-20T08:01:00Z","id":"103428","site":"Helsinki","to_timestamp":"2019-05-21T07:57:00Z","uncertainty_Be-7-uncertainty":4.0,"uncertainty_Cs-137-uncertainty":27.0,"uncertainty_Pb-210-uncertainty":6.0},"type":"Feature"},{"geometry":{"coordinates":[25.05385,60.20905],"type":"Point"},"properties":{"concentration_Be-7":8022.7,"concentration_Cs-137":7.7,"concentration_Pb-210":423.9,"concentration_air-volume":13554.0,"from_timestamp":"2019-05-17T08:01:00Z","id":"103428","site":"Helsinki","to_timestamp":"2019-05-18T07:57:00Z","uncertainty_Be-7-uncertainty":4.0,"uncertainty_Cs-137-uncertainty":18.0,"uncertainty_Pb-210-uncertainty":6.0},"type":"Feature"},{"geometry":{"coordinates":[25.05385,60.20905],"type":"Point"},"properties":{"concentration_Be-7":7145.8,"concentration_air-volume":3287.0,"from_timestamp":"2019-05-21T08:01:00Z","id":"103428","site":"Helsinki","to_timestamp":"2019-05-22T07:57:00Z","uncertainty_Be-7-uncertainty":5.0},"type":"Feature"},{"geometry":{"coordinates":[25.05385,60.20905],"type":"Point"},"properties":{"concentration_Be-7":4393.6,"concentration_Pb-210":105.5,"concentration_air-volume":13891.0,"from_timestamp":"2019-05-23T08:01:00Z","id":"103428","site":"Helsinki","to_timestamp":"2019-05-24T07:57:00Z","uncertainty_Be-7-uncertainty":4.0,"uncertainty_Pb-210-uncertainty":10.0},"type":"Feature"},{"geometry":{"coordinates":[25.05385,60.20905],"type":"Point"},"properties":{"concentration_Be-7":8546.8,"concentration_Pb-210":527.3,"concentration_air-volume":13202.0,"from_timestamp":"2019-05-22T08:01:00Z","id":"103428","site":"Helsinki","to_timestamp":"2019-05-23T07:57:00Z","uncertainty_Be-7-uncertainty":4.0,"uncertainty_Pb-210-uncertainty":6.0},"type":"Feature"},{"geometry":{"coordinates":[25.05385,60.20905],"type":"Point"},"properties":{"concentration_Be-7":2217.6,"concentration_Pb-210":103.8,"concentration_air-volume":13701.0,"from_timestamp":"2019-05-25T08:01:00Z","id":"103428","site":"Helsinki","to_timestamp":"2019-05-26T07:57:00Z","uncertainty_Be-7-uncertainty":4.0,"uncertainty_Pb-210-uncertainty":12.0},"type":"Feature"},{"geometry":{"coordinates":[26.91808,60.48318],"type":"Point"},"properties":{"concentration_Be-7":2667.7,"concentration_Cs-137":2.2,"concentration_Na-22":0.4,"concentration_Pb-210":162.7,"concentration_air-volume":130509.0,"from_timestamp":"2019-05-13T12:39:00Z","id":"103429","site":"Kotka","to_timestamp":"2019-05-20T08:38:00Z","uncertainty_Be-7-uncertainty":6.0,"uncertainty_Cs-137-uncertainty":7.0,"uncertainty_Na-22-uncertainty":12.0,"uncertainty_Pb-210-uncertainty":8.0},"type":"Feature"},{"geometry":{"coordinates":[26.91808,60.48318],"type":"Point"},"properties":{"concentration_Be-7":2264.7,"concentration_Cs-137":1.5,"concentration_Na-22":0.3,"concentration_Pb-210":159.9,"concentration_air-volume":138499.0,"from_timestamp":"2019-05-20T08:40:00Z","id":"103429","site":"Kotka","to_timestamp":"2019-05-27T13:30:00Z","uncertainty_Be-7-uncertainty":6.0,"uncertainty_Cs-137-uncertainty":7.0,"uncertainty_Na-22-uncertainty":13.0,"uncertainty_Pb-210-uncertainty":8.0},"type":"Feature"},{"geometry":{"coordinates":[28.82663,61.13229],"type":"Point"},"properties":{"concentration_Be-7":7026.9,"concentration_Cs-137":2.0,"concentration_air-volume":19910.0,"from_timestamp":"2019-05-16T04:02:00Z","id":"103430","site":"Imatra","to_timestamp":"2019-05-23T04:37:00Z","uncertainty_Be-7-uncertainty":6.0,"uncertainty_Cs-137-uncertainty":12.0},"type":"Feature"},{"geometry":{"coordinates":[28.82663,61.13229],"type":"Point"},"properties":{"concentration_Be-7":2705.7,"concentration_Cs-137":1.5,"concentration_air-volume":20199.0,"from_timestamp":"2019-05-23T04:39:00Z","id":"103430","site":"Imatra","to_timestamp":"2019-05-30T04:15:00Z","uncertainty_Be-7-uncertainty":6.0,"uncertainty_Cs-137-uncertainty":17.0},"type":"Feature"},{"geometry":{"coordinates":[27.57,68.64],"type":"Point"},"properties":{"concentration_Be-7":1883.0,"concentration_Na-22":0.6,"concentration_Pb-210":129.4,"concentration_air-volume":30687.0,"from_timestamp":"2019-05-16T06:26:00Z","id":"103431","site":"Ivalo","to_timestamp":"2019-05-23T06:38:00Z","uncertainty_Be-7-uncertainty":5.0,"uncertainty_Na-22-uncertainty":28.0,"uncertainty_Pb-210-uncertainty":5.0},"type":"Feature"},{"geometry":{"coordinates":[27.57,68.64],"type":"Point"},"properties":{"concentration_Be-7":2391.7,"concentration_Pb-210":156.5,"concentration_air-volume":22068.0,"from_timestamp":"2019-05-23T06:40:00Z","id":"103431","site":"Ivalo","to_timestamp":"2019-05-29T12:42:00Z","uncertainty_Be-7-uncertainty":5.0,"uncertainty_Pb-210-uncertainty":5.0},"type":"Feature"},{"geometry":{"coordinates":[27.63414,62.89195],"type":"Point"},"properties":{"concentration_Be-7":5548.6,"concentration_Cs-137":4.5,"concentration_air-volume":9991.0,"from_timestamp":"2019-05-20T08:24:00Z","id":"103432","site":"Kuopio","to_timestamp":"2019-05-23T08:24:00Z","uncertainty_Be-7-uncertainty":3.0,"uncertainty_Cs-137-uncertainty":12.0},"type":"Feature"},{"geometry":{"coordinates":[27.63414,62.89195],"type":"Point"},"properties":{"concentration_Be-7":4583.5,"concentration_Pb-210":154.8,"concentration_air-volume":13438.0,"from_timestamp":"2019-05-23T08:25:00Z","id":"103432","site":"Kuopio","to_timestamp":"2019-05-27T08:07:00Z","uncertainty_Be-7-uncertainty":3.0,"uncertainty_Pb-210-uncertainty":26.0},"type":"Feature"},{"geometry":{"coordinates":[25.67774,66.51285],"type":"Point"},"properties":{"concentration_Be-7":3136.8,"concentration_Cs-137":0.2,"concentration_Na-22":0.5,"concentration_Pb-210":144.5,"concentration_air-volume":140822.0,"from_timestamp":"2019-05-13T10:28:00Z","id":"103433","site":"Rovaniemi","to_timestamp":"2019-05-20T10:14:00Z","uncertainty_Be-7-uncertainty":6.0,"uncertainty_Cs-137-uncertainty":12.0,"uncertainty_Na-22-uncertainty":9.0,"uncertainty_Pb-210-uncertainty":8.0},"type":"Feature"},{"geometry":{"coordinates":[25.67774,66.51285],"type":"Point"},"properties":{"concentration_Be-7":2631.3,"concentration_Na-22":0.4,"concentration_Pb-210":16.9,"concentration_air-volume":147178.0,"from_timestamp":"2019-05-20T11:14:00Z","id":"103433","site":"Rovaniemi","to_timestamp":"2019-05-27T11:44:00Z","uncertainty_Be-7-uncertainty":5.0,"uncertainty_Na-22-uncertainty":13.0,"uncertainty_Pb-210-uncertainty":21.0},"type":"Feature"},{"geometry":{"coordinates":[26.62807,67.36505],"type":"Point"},"properties":{"concentration_Be-7":2124.0,"concentration_Cs-137":0.3,"concentration_Pb-210":164.3,"concentration_air-volume":31550.0,"from_timestamp":"2019-05-16T06:12:00Z","id":"103434","site":"Sodankylä","to_timestamp":"2019-05-23T06:51:00Z","uncertainty_Be-7-uncertainty":6.0,"uncertainty_Cs-137-uncertainty":26.0,"uncertainty_Pb-210-uncertainty":8.0},"type":"Feature"},{"geometry":{"coordinates":[26.62807,67.36505],"type":"Point"},"properties":{"concentration_Be-7":2110.3,"concentration_Na-22":0.5,"concentration_Pb-210":115.2,"concentration_air-volume":39389.0,"from_timestamp":"2019-05-23T06:52:00Z","id":"103434","site":"Sodankylä","to_timestamp":"2019-06-03T06:51:00Z","uncertainty_Be-7-uncertainty":5.0,"uncertainty_Na-22-uncertainty":23.0,"uncertainty_Pb-210-uncertainty":5.0},"type":"Feature"},{"geometry":{"coordinates":[27.70835,64.08474],"type":"Point"},"properties":{"concentration_Be-7":4372.4,"concentration_Cs-137":0.9,"concentration_Na-22":0.5,"concentration_air-volume":167091.0,"from_timestamp":"2019-05-13T13:36:00Z","id":"103435","site":"Kajaani","to_timestamp":"2019-05-21T15:35:00Z","uncertainty_Be-7-uncertainty":7.0,"uncertainty_Cs-137-uncertainty":8.0,"uncertainty_Na-22-uncertainty":11.0},"type":"Feature"},{"geometry":{"coordinates":[27.70835,64.08474],"type":"Point"},"properties":{"concentration_Be-7":2602.3,"concentration_Cs-137":0.2,"concentration_Na-22":0.4,"concentration_air-volume":134845.0,"from_timestamp":"2019-05-21T15:40:00Z","id":"103435","site":"Kajaani","to_timestamp":"2019-05-28T15:15:00Z","uncertainty_Be-7-uncertainty":7.0,"uncertainty_Cs-137-uncertainty":11.0,"uncertainty_Na-22-uncertainty":12.0},"type":"Feature"}],"name":"stuk_open_data_air_radionuclides","type":"FeatureCollection"}