{"crs":{"properties":{"name":"urn:ogc:def:crs:OGC:1.3:CRS84"},"type":"name"},"features":[{"geometry":{"coordinates":[25.05385,60.20905],"type":"Point"},"properties":{"concentration_Be-7":639.9,"concentration_Pb-210":206.4,"concentration_air-volume":14990.0,"from_timestamp":"2019-10-08T08:01:00Z","id":"103428","site":"Helsinki","to_timestamp":"2019-10-09T07:50:00Z","uncertainty_Be-7-uncertainty":5.0,"uncertainty_Pb-210-uncertainty":5.0},"type":"Feature"},{"geometry":{"coordinates":[25.05385,60.20905],"type":"Point"},"properties":{"concentration_Be-7":556.4,"concentration_Cs-137":0.3,"concentration_air-volume":29899.0,"from_timestamp":"2019-10-14T10:22:00Z","id":"103428","site":"Helsinki","to_timestamp":"2019-10-17T13:54:00Z","uncertainty_Be-7-uncertainty":10.0,"uncertainty_Cs-137-uncertainty":23.0},"type":"Feature"},{"geometry":{"coordinates":[25.05385,60.20905],"type":"Point"},"properties":{"concentration_Be-7":26542.9,"concentration_Pb-210":4652.8,"concentration_air-volume":1531.0,"from_timestamp":"2019-10-14T09:25:00Z","id":"103428","site":"Helsinki","to_timestamp":"2019-10-15T10:32:00Z","uncertainty_Be-7-uncertainty":4.0,"uncertainty_Pb-210-uncertainty":5.0},"type":"Feature"},{"geometry":{"coordinates":[26.91808,60.48318],"type":"Point"},"properties":{"concentration_Be-7":1437.3,"concentration_Cs-137":3.5,"concentration_Pb-210":952.5,"concentration_air-volume":79051.0,"from_timestamp":"2019-10-07T08:25:00Z","id":"103429","site":"Kotka","to_timestamp":"2019-10-15T07:40:00Z","uncertainty_Be-7-uncertainty":7.0,"uncertainty_Cs-137-uncertainty":7.0,"uncertainty_Pb-210-uncertainty":22.0},"type":"Feature"},{"geometry":{"coordinates":[26.91808,60.48318],"type":"Point"},"properties":{"concentration_Be-7":800.7,"concentration_Cs-137":1.9,"concentration_Pb-210":226.4,"concentration_air-volume":98622.0,"from_timestamp":"2019-10-15T07:42:00Z","id":"103429","site":"Kotka","to_timestamp":"2019-10-21T12:29:00Z","uncertainty_Be-7-uncertainty":6.0,"uncertainty_Cs-137-uncertainty":7.0,"uncertainty_Pb-210-uncertainty":8.0},"type":"Feature"},{"geometry":{"coordinates":[28.82663,61.13229],"type":"Point"},"properties":{"concentration_Be-7":1024.8,"concentration_Cs-137":1.2,"concentration_Pb-210":230.5,"concentration_air-volume":17281.0,"from_timestamp":"2019-10-07T04:30:00Z","id":"103430","site":"Imatra","to_timestamp":"2019-10-14T04:26:00Z","uncertainty_Be-7-uncertainty":6.0,"uncertainty_Cs-137-uncertainty":15.0,"uncertainty_Pb-210-uncertainty":8.0},"type":"Feature"},{"geometry":{"coordinates":[28.82663,61.13229],"type":"Point"},"properties":{"concentration_Be-7":975.7,"concentration_Cs-137":1.9,"concentration_air-volume":7555.0,"from_timestamp":"2019-10-14T04:30:00Z","id":"103430","site":"Imatra","to_timestamp":"2019-10-17T04:50:00Z","uncertainty_Be-7-uncertainty":10.0,"uncertainty_Cs-137-uncertainty":22.0},"type":"Feature"},{"geometry":{"coordinates":[27.57,68.64],"type":"Point"},"properties":{"concentration_Be-7":391.0,"concentration_Pb-210":83.5,"concentration_air-volume":30952.0,"from_timestamp":"2019-10-07T08:36:00Z","id":"103431","site":"Ivalo","to_timestamp":"2019-10-14T05:48:00Z","uncertainty_Be-7-uncertainty":5.0,"uncertainty_Pb-210-uncertainty":5.0},"type":"Feature"},{"geometry":{"coordinates":[27.57,68.64],"type":"Point"},"properties":{"concentration_Be-7":586.8,"concentration_Pb-210":175.2,"concentration_air-volume":25812.0,"from_timestamp":"2019-10-14T05:51:00Z","id":"103431","site":"Ivalo","to_timestamp":"2019-10-21T08:00:00Z","uncertainty_Be-7-uncertainty":6.0,"uncertainty_Pb-210-uncertainty":8.0},"type":"Feature"},{"geometry":{"coordinates":[27.63414,62.89195],"type":"Point"},"properties":{"concentration_Be-7":1185.9,"concentration_Pb-210":193.9,"concentration_air-volume":11163.0,"from_timestamp":"2019-10-10T08:18:00Z","id":"103432","site":"Kuopio","to_timestamp":"2019-10-14T07:59:00Z","uncertainty_Be-7-uncertainty":3.0,"uncertainty_Pb-210-uncertainty":24.0},"type":"Feature"},{"geometry":{"coordinates":[27.63414,62.89195],"type":"Point"},"properties":{"concentration_Be-7":1659.2,"concentration_Pb-210":263.2,"concentration_air-volume":10262.0,"from_timestamp":"2019-10-14T08:00:00Z","id":"103432","site":"Kuopio","to_timestamp":"2019-10-17T08:25:00Z","uncertainty_Be-7-uncertainty":3.0,"uncertainty_Pb-210-uncertainty":20.0},"type":"Feature"},{"geometry":{"coordinates":[27.63414,62.89195],"type":"Point"},"properties":{"concentration_Be-7":2515.4,"concentration_air-volume":10164.0,"from_timestamp":"2019-10-07T08:13:00Z","id":"103432","site":"Kuopio","to_timestamp":"2019-10-10T08:17:00Z","uncertainty_Be-7-uncertainty":3.0},"type":"Feature"},{"geometry":{"coordinates":[25.67774,66.51285],"type":"Point"},"properties":{"concentration_Be-7":447.6,"concentration_air-volume":152852.0,"from_timestamp":"2019-10-07T07:27:00Z","id":"103433","site":"Rovaniemi","to_timestamp":"2019-10-14T11:58:00Z","uncertainty_Be-7-uncertainty":5.0},"type":"Feature"},{"geometry":{"coordinates":[25.67774,66.51285],"type":"Point"},"properties":{"concentration_Be-7":684.6,"concentration_Cs-137":0.1,"concentration_Pb-210":153.3,"concentration_air-volume":151789.0,"from_timestamp":"2019-10-14T12:00:00Z","id":"103433","site":"Rovaniemi","to_timestamp":"2019-10-21T11:21:00Z","uncertainty_Be-7-uncertainty":6.0,"uncertainty_Cs-137-uncertainty":19.0,"uncertainty_Pb-210-uncertainty":8.0},"type":"Feature"},{"geometry":{"coordinates":[26.62807,67.36505],"type":"Point"},"properties":{"concentration_Be-7":386.6,"concentration_Pb-210":77.3,"concentration_air-volume":31762.0,"from_timestamp":"2019-10-07T06:17:00Z","id":"103434","site":"Sodankylä","to_timestamp":"2019-10-14T06:55:00Z","uncertainty_Be-7-uncertainty":6.0,"uncertainty_Pb-210-uncertainty":8.0},"type":"Feature"},{"geometry":{"coordinates":[26.62807,67.36505],"type":"Point"},"properties":{"concentration_Be-7":695.8,"concentration_Pb-210":172.7,"concentration_air-volume":26005.0,"from_timestamp":"2019-10-14T06:56:00Z","id":"103434","site":"Sodankylä","to_timestamp":"2019-10-21T06:43:00Z","uncertainty_Be-7-uncertainty":5.0,"uncertainty_Pb-210-uncertainty":5.0},"type":"Feature"},{"geometry":{"coordinates":[27.70835,64.08474],"type":"Point"},"properties":{"concentration_Be-7":937.0,"concentration_Cs-137":0.2,"concentration_Na-22":0.1,"concentration_Pb-210":396.1,"concentration_air-volume":195273.0,"from_timestamp":"2019-09-30T18:45:00Z","id":"103435","site":"Kajaani","to_timestamp":"2019-10-14T13:48:00Z","uncertainty_Be-7-uncertainty":7.0,"uncertainty_Cs-137-uncertainty":12.0,"uncertainty_Na-22-uncertainty":22.0,"uncertainty_Pb-210-uncertainty":24.0},"type":"Feature"},{"geometry":{"coordinates":[27.70835,64.08474],"type":"Point"},"properties":{"concentration_Be-7":830.9,"concentration_Cs-137":0.2,"concentration_Pb-210":574.3,"concentration_air-volume":98609.0,"from_timestamp":"2019-10-14T13:52:00Z","id":"103435","site":"Kajaani","to_timestamp":"2019-10-21T11:26:00Z","uncertainty_Be-7-uncertainty":7.0,"uncertainty_Cs-137-uncertainty":15.0,"uncertainty_Pb-210-uncertainty":23.0},"type":"Feature"},{"geometry":{"coordinates":[25.05385,60.20905],"type":"Point"},"properties":{"concentration_Be-7":639.9,"concentration_Pb-210":206.4,"concentration_air-volume":14990.0,"from_timestamp":"2019-10-08T08:01:00Z","id":"103428","site":"Helsinki","to_timestamp":"2019-10-09T07:50:00Z","uncertainty_Be-7-uncertainty":5.0,"uncertainty_Pb-210-uncertainty":5.0},"type":"Feature"},{"geometry":{"coordinates":[25.05385,60.20905],"type":"Point"},"properties":{"concentration_Be-7":556.4,"concentration_Cs-137":0.3,"concentration_air-volume":29899.0,"from_timestamp":"2019-10-14T10:22:00Z","id":"103428","site":"Helsinki","to_timestamp":"2019-10-17T13:54:00Z","uncertainty_Be-7-uncertainty":10.0,"uncertainty_Cs-137-uncertainty":23.0},"type":"Feature"},{"geometry":{"coordinates":[25.05385,60.20905],"type":"Point"},"properties":{"concentration_Be-7":26542.9,"concentration_Pb-210":4652.8,"concentration_air-volume":1531.0,"from_timestamp":"2019-10-14T09:25:00Z","id":"103428","site":"Helsinki","to_timestamp":"2019-10-15T10:32:00Z","uncertainty_Be-7-uncertainty":4.0,"uncertainty_Pb-210-uncertainty":5.0},"type":"Feature"}],"name":"stuk_open_data_air_radionuclides","type":"FeatureCollection"}