{"crs":{"properties":{"name":"urn:ogc:def:crs:OGC:1.3:CRS84"},"type":"name"},"features":[{"geometry":{"coordinates":[25.05385,60.20905],"type":"Point"},"properties":{"concentration_Be-7":1915.4,"concentration_Pb-210":224.6,"concentration_air-volume":15022.0,"from_timestamp":"2019-12-19T08:01:00Z","id":"103428","site":"Helsinki","to_timestamp":"2019-12-20T07:47:00Z","uncertainty_Be-7-uncertainty":4.0,"uncertainty_Pb-210-uncertainty":7.0},"type":"Feature"},{"geometry":{"coordinates":[25.05385,60.20905],"type":"Point"},"properties":{"concentration_Be-7":3344.6,"concentration_Pb-210":372.6,"concentration_air-volume":14718.0,"from_timestamp":"2019-12-20T08:01:00Z","id":"103428","site":"Helsinki","to_timestamp":"2019-12-21T07:47:00Z","uncertainty_Be-7-uncertainty":4.0,"uncertainty_Pb-210-uncertainty":6.0},"type":"Feature"},{"geometry":{"coordinates":[25.05385,60.20905],"type":"Point"},"properties":{"concentration_Be-7":1973.8,"concentration_Pb-210":915.5,"concentration_air-volume":14444.0,"from_timestamp":"2019-12-22T08:01:00Z","id":"103428","site":"Helsinki","to_timestamp":"2019-12-23T07:47:00Z","uncertainty_Be-7-uncertainty":4.0,"uncertainty_Pb-210-uncertainty":5.0},"type":"Feature"},{"geometry":{"coordinates":[25.05385,60.20905],"type":"Point"},"properties":{"concentration_Be-7":2466.9,"concentration_Pb-210":345.5,"concentration_air-volume":14348.0,"from_timestamp":"2019-12-23T08:01:00Z","id":"103428","site":"Helsinki","to_timestamp":"2019-12-24T07:47:00Z","uncertainty_Be-7-uncertainty":4.0,"uncertainty_Pb-210-uncertainty":6.0},"type":"Feature"},{"geometry":{"coordinates":[25.05385,60.20905],"type":"Point"},"properties":{"concentration_Be-7":2829.5,"concentration_Cs-137":3.6,"concentration_Pb-210":954.4,"concentration_air-volume":14759.0,"from_timestamp":"2019-12-21T08:01:00Z","id":"103428","site":"Helsinki","to_timestamp":"2019-12-22T07:47:00Z","uncertainty_Be-7-uncertainty":4.0,"uncertainty_Cs-137-uncertainty":24.0,"uncertainty_Pb-210-uncertainty":5.0},"type":"Feature"},{"geometry":{"coordinates":[25.05385,60.20905],"type":"Point"},"properties":{"concentration_Be-7":1257.8,"concentration_Pb-210":288.8,"concentration_air-volume":14785.0,"from_timestamp":"2019-12-24T08:01:00Z","id":"103428","site":"Helsinki","to_timestamp":"2019-12-25T07:47:00Z","uncertainty_Be-7-uncertainty":4.0,"uncertainty_Pb-210-uncertainty":6.0},"type":"Feature"},{"geometry":{"coordinates":[25.05385,60.20905],"type":"Point"},"properties":{"concentration_Be-7":2454.0,"concentration_Pb-210":559.6,"concentration_air-volume":15921.0,"from_timestamp":"2019-12-27T08:01:00Z","id":"103428","site":"Helsinki","to_timestamp":"2019-12-28T07:47:00Z","uncertainty_Be-7-uncertainty":4.0,"uncertainty_Pb-210-uncertainty":5.0},"type":"Feature"},{"geometry":{"coordinates":[25.05385,60.20905],"type":"Point"},"properties":{"concentration_Pb-210":101.3,"concentration_air-volume":15298.0,"from_timestamp":"2019-12-25T08:01:00Z","id":"103428","site":"Helsinki","to_timestamp":"2019-12-26T07:47:00Z","uncertainty_Pb-210-uncertainty":10.0},"type":"Feature"},{"geometry":{"coordinates":[25.05385,60.20905],"type":"Point"},"properties":{"concentration_Be-7":66.6,"concentration_Pb-210":614.2,"concentration_air-volume":15479.0,"from_timestamp":"2019-12-26T08:01:00Z","id":"103428","site":"Helsinki","to_timestamp":"2019-12-27T07:47:00Z","uncertainty_Be-7-uncertainty":13.0,"uncertainty_Pb-210-uncertainty":5.0},"type":"Feature"},{"geometry":{"coordinates":[26.91808,60.48318],"type":"Point"},"properties":{"concentration_Be-7":1012.3,"concentration_Cs-137":0.7,"concentration_Na-22":0.1,"concentration_Pb-210":496.4,"concentration_air-volume":323388.0,"from_timestamp":"2019-12-16T13:05:00Z","id":"103429","site":"Kotka","to_timestamp":"2020-01-07T07:31:00Z","uncertainty_Be-7-uncertainty":7.0,"uncertainty_Cs-137-uncertainty":8.0,"uncertainty_Na-22-uncertainty":26.0,"uncertainty_Pb-210-uncertainty":18.0},"type":"Feature"},{"geometry":{"coordinates":[28.82663,61.13229],"type":"Point"},"properties":{"concentration_Be-7":1142.8,"concentration_Cs-137":0.9,"concentration_Pb-210":82.3,"concentration_air-volume":17322.0,"from_timestamp":"2019-12-16T05:00:00Z","id":"103430","site":"Imatra","to_timestamp":"2019-12-23T04:50:00Z","uncertainty_Be-7-uncertainty":6.0,"uncertainty_Cs-137-uncertainty":19.0,"uncertainty_Pb-210-uncertainty":19.0},"type":"Feature"},{"geometry":{"coordinates":[28.82663,61.13229],"type":"Point"},"properties":{"concentration_Be-7":1386.4,"concentration_Cs-137":2.0,"concentration_Pb-210":349.3,"concentration_air-volume":34316.0,"from_timestamp":"2019-12-23T04:50:00Z","id":"103430","site":"Imatra","to_timestamp":"2020-01-06T05:00:00Z","uncertainty_Be-7-uncertainty":6.0,"uncertainty_Cs-137-uncertainty":8.0,"uncertainty_Pb-210-uncertainty":8.0},"type":"Feature"},{"geometry":{"coordinates":[27.57,68.64],"type":"Point"},"properties":{"concentration_Be-7":450.4,"concentration_Pb-210":253.9,"concentration_air-volume":35562.0,"from_timestamp":"2019-12-16T06:31:00Z","id":"103431","site":"Ivalo","to_timestamp":"2019-12-23T06:19:00Z","uncertainty_Be-7-uncertainty":5.0,"uncertainty_Pb-210-uncertainty":5.0},"type":"Feature"},{"geometry":{"coordinates":[27.57,68.64],"type":"Point"},"properties":{"concentration_Be-7":619.2,"concentration_Pb-210":203.9,"concentration_air-volume":35976.0,"from_timestamp":"2019-12-23T06:23:00Z","id":"103431","site":"Ivalo","to_timestamp":"2019-12-30T05:33:00Z","uncertainty_Be-7-uncertainty":5.0,"uncertainty_Pb-210-uncertainty":5.0},"type":"Feature"},{"geometry":{"coordinates":[27.63414,62.89195],"type":"Point"},"properties":{"concentration_Be-7":863.2,"concentration_Pb-210":305.9,"concentration_air-volume":13572.0,"from_timestamp":"2019-12-19T08:35:00Z","id":"103432","site":"Kuopio","to_timestamp":"2019-12-23T08:38:00Z","uncertainty_Be-7-uncertainty":3.0,"uncertainty_Pb-210-uncertainty":15.0},"type":"Feature"},{"geometry":{"coordinates":[27.63414,62.89195],"type":"Point"},"properties":{"concentration_Be-7":442.9,"concentration_Pb-210":520.0,"concentration_air-volume":13693.0,"from_timestamp":"2019-12-23T08:40:00Z","id":"103432","site":"Kuopio","to_timestamp":"2019-12-27T08:35:00Z","uncertainty_Be-7-uncertainty":3.0,"uncertainty_Pb-210-uncertainty":9.0},"type":"Feature"},{"geometry":{"coordinates":[27.63414,62.89195],"type":"Point"},"properties":{"concentration_Be-7":112.1,"concentration_Pb-210":23.8,"concentration_air-volume":258767.0,"from_timestamp":"2019-12-27T08:37:00Z","id":"103432","site":"Kuopio","to_timestamp":"2020-01-17T12:57:00Z","uncertainty_Be-7-uncertainty":3.0,"uncertainty_Pb-210-uncertainty":9.0},"type":"Feature"},{"geometry":{"coordinates":[25.67774,66.51285],"type":"Point"},"properties":{"concentration_Be-7":512.4,"concentration_Cs-137":0.3,"concentration_Pb-210":554.1,"concentration_air-volume":139574.0,"from_timestamp":"2019-12-16T07:21:00Z","id":"103433","site":"Rovaniemi","to_timestamp":"2019-12-23T09:04:00Z","uncertainty_Be-7-uncertainty":7.0,"uncertainty_Cs-137-uncertainty":15.0,"uncertainty_Pb-210-uncertainty":20.0},"type":"Feature"},{"geometry":{"coordinates":[25.67774,66.51285],"type":"Point"},"properties":{"concentration_Be-7":813.8,"concentration_Cs-137":0.1,"concentration_Pb-210":463.4,"concentration_air-volume":147670.0,"from_timestamp":"2019-12-23T09:07:00Z","id":"103433","site":"Rovaniemi","to_timestamp":"2019-12-30T08:23:00Z","uncertainty_Be-7-uncertainty":7.0,"uncertainty_Cs-137-uncertainty":13.0,"uncertainty_Pb-210-uncertainty":17.0},"type":"Feature"},{"geometry":{"coordinates":[26.62807,67.36505],"type":"Point"},"properties":{"concentration_Be-7":563.4,"concentration_Pb-210":303.1,"concentration_air-volume":42372.0,"from_timestamp":"2019-12-19T06:37:00Z","id":"103434","site":"Sodankylä","to_timestamp":"2019-12-27T06:27:00Z","uncertainty_Be-7-uncertainty":5.0,"uncertainty_Pb-210-uncertainty":5.0},"type":"Feature"},{"geometry":{"coordinates":[26.62807,67.36505],"type":"Point"},"properties":{"concentration_Be-7":991.9,"concentration_Pb-210":130.1,"concentration_air-volume":27060.0,"from_timestamp":"2019-12-27T06:28:00Z","id":"103434","site":"Sodankylä","to_timestamp":"2020-01-02T06:18:00Z","uncertainty_Be-7-uncertainty":6.0,"uncertainty_Pb-210-uncertainty":8.0},"type":"Feature"},{"geometry":{"coordinates":[27.70835,64.08474],"type":"Point"},"properties":{"concentration_Be-7":798.4,"concentration_Cs-137":0.2,"concentration_Pb-210":303.4,"concentration_air-volume":150763.0,"from_timestamp":"2019-12-23T15:00:00Z","id":"103435","site":"Kajaani","to_timestamp":"2019-12-30T15:18:00Z","uncertainty_Be-7-uncertainty":5.0,"uncertainty_Cs-137-uncertainty":12.0,"uncertainty_Pb-210-uncertainty":5.0},"type":"Feature"},{"geometry":{"coordinates":[27.70835,64.08474],"type":"Point"},"properties":{"concentration_Be-7":489.4,"concentration_Cs-137":0.2,"concentration_Pb-210":442.3,"concentration_air-volume":151191.0,"from_timestamp":"2019-12-16T13:00:00Z","id":"103435","site":"Kajaani","to_timestamp":"2019-12-23T15:00:00Z","uncertainty_Be-7-uncertainty":7.0,"uncertainty_Cs-137-uncertainty":13.0,"uncertainty_Pb-210-uncertainty":20.0},"type":"Feature"}],"name":"stuk_open_data_air_radionuclides","type":"FeatureCollection"}