{"crs":{"properties":{"name":"urn:ogc:def:crs:OGC:1.3:CRS84"},"type":"name"},"features":[{"geometry":{"coordinates":[25.05385,60.20905],"type":"Point"},"properties":{"concentration_Be-7":1932.4,"concentration_Pb-210":57.3,"concentration_air-volume":14872.0,"from_timestamp":"2019-12-03T08:01:00Z","id":"103428","site":"Helsinki","to_timestamp":"2019-12-04T07:48:00Z","uncertainty_Be-7-uncertainty":4.0,"uncertainty_Pb-210-uncertainty":17.0},"type":"Feature"},{"geometry":{"coordinates":[25.05385,60.20905],"type":"Point"},"properties":{"concentration_Be-7":199.2,"concentration_air-volume":14055.0,"from_timestamp":"2019-12-06T08:01:00Z","id":"103428","site":"Helsinki","to_timestamp":"2019-12-07T07:48:00Z","uncertainty_Be-7-uncertainty":7.0},"type":"Feature"},{"geometry":{"coordinates":[25.05385,60.20905],"type":"Point"},"properties":{"concentration_Be-7":4177.1,"concentration_Pb-210":46.3,"concentration_air-volume":14092.0,"from_timestamp":"2019-12-05T08:01:00Z","id":"103428","site":"Helsinki","to_timestamp":"2019-12-06T07:48:00Z","uncertainty_Be-7-uncertainty":4.0,"uncertainty_Pb-210-uncertainty":19.0},"type":"Feature"},{"geometry":{"coordinates":[25.05385,60.20905],"type":"Point"},"properties":{"concentration_Be-7":3115.8,"concentration_Pb-210":104.1,"concentration_air-volume":14473.0,"from_timestamp":"2019-12-04T08:01:00Z","id":"103428","site":"Helsinki","to_timestamp":"2019-12-05T07:48:00Z","uncertainty_Be-7-uncertainty":4.0,"uncertainty_Pb-210-uncertainty":10.0},"type":"Feature"},{"geometry":{"coordinates":[25.05385,60.20905],"type":"Point"},"properties":{"concentration_Be-7":546.9,"concentration_air-volume":14475.0,"from_timestamp":"2019-12-07T08:01:00Z","id":"103428","site":"Helsinki","to_timestamp":"2019-12-08T07:48:00Z","uncertainty_Be-7-uncertainty":4.0},"type":"Feature"},{"geometry":{"coordinates":[25.05385,60.20905],"type":"Point"},"properties":{"concentration_Be-7":2117.4,"concentration_air-volume":14304.0,"from_timestamp":"2019-12-08T08:01:00Z","id":"103428","site":"Helsinki","to_timestamp":"2019-12-09T07:48:00Z","uncertainty_Be-7-uncertainty":4.0},"type":"Feature"},{"geometry":{"coordinates":[25.05385,60.20905],"type":"Point"},"properties":{"concentration_Be-7":937.5,"concentration_air-volume":14222.0,"from_timestamp":"2019-12-09T08:01:00Z","id":"103428","site":"Helsinki","to_timestamp":"2019-12-10T07:48:00Z","uncertainty_Be-7-uncertainty":4.0},"type":"Feature"},{"geometry":{"coordinates":[25.05385,60.20905],"type":"Point"},"properties":{"concentration_Be-7":3792.5,"concentration_Pb-210":210.3,"concentration_air-volume":14729.0,"from_timestamp":"2019-12-11T08:01:00Z","id":"103428","site":"Helsinki","to_timestamp":"2019-12-12T07:47:00Z","uncertainty_Be-7-uncertainty":4.0,"uncertainty_Pb-210-uncertainty":7.0},"type":"Feature"},{"geometry":{"coordinates":[26.91808,60.48318],"type":"Point"},"properties":{"concentration_Be-7":948.9,"concentration_Cs-137":0.4,"concentration_Pb-210":264.4,"concentration_air-volume":90110.0,"from_timestamp":"2019-12-10T06:20:00Z","id":"103429","site":"Kotka","to_timestamp":"2019-12-16T13:02:00Z","uncertainty_Be-7-uncertainty":6.0,"uncertainty_Cs-137-uncertainty":13.0,"uncertainty_Pb-210-uncertainty":8.0},"type":"Feature"},{"geometry":{"coordinates":[26.91808,60.48318],"type":"Point"},"properties":{"concentration_Be-7":1301.0,"concentration_Cs-137":0.6,"concentration_air-volume":110738.0,"from_timestamp":"2019-12-02T12:04:00Z","id":"103429","site":"Kotka","to_timestamp":"2019-12-10T06:15:00Z","uncertainty_Be-7-uncertainty":7.0,"uncertainty_Cs-137-uncertainty":9.0},"type":"Feature"},{"geometry":{"coordinates":[28.82663,61.13229],"type":"Point"},"properties":{"concentration_Be-7":1204.3,"concentration_Cs-137":1.4,"concentration_Pb-210":328.3,"concentration_air-volume":17195.0,"from_timestamp":"2019-11-28T04:19:00Z","id":"103430","site":"Imatra","to_timestamp":"2019-12-05T04:30:00Z","uncertainty_Be-7-uncertainty":6.0,"uncertainty_Cs-137-uncertainty":14.0,"uncertainty_Pb-210-uncertainty":8.0},"type":"Feature"},{"geometry":{"coordinates":[28.82663,61.13229],"type":"Point"},"properties":{"concentration_Be-7":2260.7,"concentration_Cs-137":1.2,"concentration_air-volume":16979.0,"from_timestamp":"2019-12-09T04:30:00Z","id":"103430","site":"Imatra","to_timestamp":"2019-12-16T05:00:00Z","uncertainty_Be-7-uncertainty":6.0,"uncertainty_Cs-137-uncertainty":11.0},"type":"Feature"},{"geometry":{"coordinates":[28.82663,61.13229],"type":"Point"},"properties":{"concentration_Be-7":1392.1,"concentration_Pb-210":120.1,"concentration_air-volume":9955.0,"from_timestamp":"2019-12-05T04:35:00Z","id":"103430","site":"Imatra","to_timestamp":"2019-12-09T04:30:00Z","uncertainty_Be-7-uncertainty":5.0,"uncertainty_Pb-210-uncertainty":6.0},"type":"Feature"},{"geometry":{"coordinates":[27.57,68.64],"type":"Point"},"properties":{"concentration_Be-7":1483.0,"concentration_Cs-137":0.3,"concentration_Pb-210":153.2,"concentration_air-volume":25420.0,"from_timestamp":"2019-11-28T06:11:00Z","id":"103431","site":"Ivalo","to_timestamp":"2019-12-05T08:05:00Z","uncertainty_Be-7-uncertainty":6.0,"uncertainty_Cs-137-uncertainty":25.0,"uncertainty_Pb-210-uncertainty":20.0},"type":"Feature"},{"geometry":{"coordinates":[27.57,68.64],"type":"Point"},"properties":{"concentration_Be-7":1518.9,"concentration_air-volume":24760.0,"from_timestamp":"2019-12-05T08:10:00Z","id":"103431","site":"Ivalo","to_timestamp":"2019-12-12T05:38:00Z","uncertainty_Be-7-uncertainty":6.0},"type":"Feature"},{"geometry":{"coordinates":[27.63414,62.89195],"type":"Point"},"properties":{"concentration_Be-7":1408.0,"concentration_air-volume":10189.0,"from_timestamp":"2019-12-09T08:43:00Z","id":"103432","site":"Kuopio","to_timestamp":"2019-12-12T08:19:00Z","uncertainty_Be-7-uncertainty":3.0},"type":"Feature"},{"geometry":{"coordinates":[27.63414,62.89195],"type":"Point"},"properties":{"concentration_Be-7":1440.2,"concentration_air-volume":13243.0,"from_timestamp":"2019-12-05T08:27:00Z","id":"103432","site":"Kuopio","to_timestamp":"2019-12-09T08:40:00Z","uncertainty_Be-7-uncertainty":3.0},"type":"Feature"},{"geometry":{"coordinates":[27.63414,62.89195],"type":"Point"},"properties":{"concentration_Be-7":1684.6,"concentration_air-volume":10194.0,"from_timestamp":"2019-12-02T08:28:00Z","id":"103432","site":"Kuopio","to_timestamp":"2019-12-05T08:26:00Z","uncertainty_Be-7-uncertainty":3.0},"type":"Feature"},{"geometry":{"coordinates":[25.67774,66.51285],"type":"Point"},"properties":{"concentration_Be-7":994.7,"concentration_Cs-137":0.2,"concentration_Na-22":0.1,"concentration_Pb-210":18.9,"concentration_air-volume":144091.0,"from_timestamp":"2019-12-02T10:58:00Z","id":"103433","site":"Rovaniemi","to_timestamp":"2019-12-09T08:40:00Z","uncertainty_Be-7-uncertainty":5.0,"uncertainty_Cs-137-uncertainty":11.0,"uncertainty_Na-22-uncertainty":21.0,"uncertainty_Pb-210-uncertainty":15.0},"type":"Feature"},{"geometry":{"coordinates":[25.67774,66.51285],"type":"Point"},"properties":{"concentration_Be-7":1069.9,"concentration_Cs-137":0.3,"concentration_Pb-210":518.6,"concentration_air-volume":143598.0,"from_timestamp":"2019-12-09T08:43:00Z","id":"103433","site":"Rovaniemi","to_timestamp":"2019-12-16T07:18:00Z","uncertainty_Be-7-uncertainty":7.0,"uncertainty_Cs-137-uncertainty":10.0,"uncertainty_Pb-210-uncertainty":21.0},"type":"Feature"},{"geometry":{"coordinates":[26.62807,67.36505],"type":"Point"},"properties":{"concentration_Be-7":1260.2,"concentration_Pb-210":47.7,"concentration_air-volume":25828.0,"from_timestamp":"2019-11-28T06:09:00Z","id":"103434","site":"Sodankylä","to_timestamp":"2019-12-05T06:43:00Z","uncertainty_Be-7-uncertainty":6.0,"uncertainty_Pb-210-uncertainty":28.0},"type":"Feature"},{"geometry":{"coordinates":[26.62807,67.36505],"type":"Point"},"properties":{"concentration_Be-7":1418.1,"concentration_Cs-137":0.4,"concentration_Pb-210":177.6,"concentration_air-volume":25717.0,"from_timestamp":"2019-12-05T06:44:00Z","id":"103434","site":"Sodankylä","to_timestamp":"2019-12-12T06:43:00Z","uncertainty_Be-7-uncertainty":6.0,"uncertainty_Cs-137-uncertainty":25.0,"uncertainty_Pb-210-uncertainty":20.0},"type":"Feature"},{"geometry":{"coordinates":[27.70835,64.08474],"type":"Point"},"properties":{"concentration_Be-7":913.3,"concentration_Cs-137":0.2,"concentration_Na-22":0.1,"concentration_Pb-210":221.9,"concentration_air-volume":144276.0,"from_timestamp":"2019-12-09T14:40:00Z","id":"103435","site":"Kajaani","to_timestamp":"2019-12-16T13:00:00Z","uncertainty_Be-7-uncertainty":6.0,"uncertainty_Cs-137-uncertainty":10.0,"uncertainty_Na-22-uncertainty":24.0,"uncertainty_Pb-210-uncertainty":8.0},"type":"Feature"},{"geometry":{"coordinates":[27.70835,64.08474],"type":"Point"},"properties":{"concentration_Be-7":626.0,"concentration_Cs-137":0.1,"concentration_air-volume":99479.0,"from_timestamp":"2019-12-02T14:24:00Z","id":"103435","site":"Kajaani","to_timestamp":"2019-12-09T14:40:00Z","uncertainty_Be-7-uncertainty":7.0,"uncertainty_Cs-137-uncertainty":28.0},"type":"Feature"},{"geometry":{"coordinates":[25.05385,60.20905],"type":"Point"},"properties":{"concentration_Be-7":1932.4,"concentration_Pb-210":57.3,"concentration_air-volume":14872.0,"from_timestamp":"2019-12-03T08:01:00Z","id":"103428","site":"Helsinki","to_timestamp":"2019-12-04T07:48:00Z","uncertainty_Be-7-uncertainty":4.0,"uncertainty_Pb-210-uncertainty":17.0},"type":"Feature"},{"geometry":{"coordinates":[25.05385,60.20905],"type":"Point"},"properties":{"concentration_Be-7":199.2,"concentration_air-volume":14055.0,"from_timestamp":"2019-12-06T08:01:00Z","id":"103428","site":"Helsinki","to_timestamp":"2019-12-07T07:48:00Z","uncertainty_Be-7-uncertainty":7.0},"type":"Feature"},{"geometry":{"coordinates":[25.05385,60.20905],"type":"Point"},"properties":{"concentration_Be-7":4177.1,"concentration_Pb-210":46.3,"concentration_air-volume":14092.0,"from_timestamp":"2019-12-05T08:01:00Z","id":"103428","site":"Helsinki","to_timestamp":"2019-12-06T07:48:00Z","uncertainty_Be-7-uncertainty":4.0,"uncertainty_Pb-210-uncertainty":19.0},"type":"Feature"},{"geometry":{"coordinates":[25.05385,60.20905],"type":"Point"},"properties":{"concentration_Be-7":3115.8,"concentration_Pb-210":104.1,"concentration_air-volume":14473.0,"from_timestamp":"2019-12-04T08:01:00Z","id":"103428","site":"Helsinki","to_timestamp":"2019-12-05T07:48:00Z","uncertainty_Be-7-uncertainty":4.0,"uncertainty_Pb-210-uncertainty":10.0},"type":"Feature"},{"geometry":{"coordinates":[25.05385,60.20905],"type":"Point"},"properties":{"concentration_Be-7":546.9,"concentration_air-volume":14475.0,"from_timestamp":"2019-12-07T08:01:00Z","id":"103428","site":"Helsinki","to_timestamp":"2019-12-08T07:48:00Z","uncertainty_Be-7-uncertainty":4.0},"type":"Feature"},{"geometry":{"coordinates":[25.05385,60.20905],"type":"Point"},"properties":{"concentration_Be-7":2117.4,"concentration_air-volume":14304.0,"from_timestamp":"2019-12-08T08:01:00Z","id":"103428","site":"Helsinki","to_timestamp":"2019-12-09T07:48:00Z","uncertainty_Be-7-uncertainty":4.0},"type":"Feature"},{"geometry":{"coordinates":[25.05385,60.20905],"type":"Point"},"properties":{"concentration_Be-7":937.5,"concentration_air-volume":14222.0,"from_timestamp":"2019-12-09T08:01:00Z","id":"103428","site":"Helsinki","to_timestamp":"2019-12-10T07:48:00Z","uncertainty_Be-7-uncertainty":4.0},"type":"Feature"},{"geometry":{"coordinates":[25.05385,60.20905],"type":"Point"},"properties":{"concentration_Be-7":3792.5,"concentration_Pb-210":210.3,"concentration_air-volume":14729.0,"from_timestamp":"2019-12-11T08:01:00Z","id":"103428","site":"Helsinki","to_timestamp":"2019-12-12T07:47:00Z","uncertainty_Be-7-uncertainty":4.0,"uncertainty_Pb-210-uncertainty":7.0},"type":"Feature"}],"name":"stuk_open_data_air_radionuclides","type":"FeatureCollection"}