{"crs":{"properties":{"name":"urn:ogc:def:crs:OGC:1.3:CRS84"},"type":"name"},"features":[{"geometry":{"coordinates":[25.05385,60.20905],"type":"Point"},"properties":{"concentration_Be-7":3969.4,"concentration_Pb-210":506.9,"concentration_air-volume":13126.0,"from_timestamp":"2020-08-07T08:01:00Z","id":"103428","site":"Helsinki","to_timestamp":"2020-08-08T07:53:00Z","uncertainty_Be-7-uncertainty":4.0,"uncertainty_Pb-210-uncertainty":6.0},"type":"Feature"},{"geometry":{"coordinates":[25.05385,60.20905],"type":"Point"},"properties":{"concentration_Be-7":8263.0,"concentration_Pb-210":658.0,"concentration_air-volume":12904.0,"from_timestamp":"2020-08-08T08:01:00Z","id":"103428","site":"Helsinki","to_timestamp":"2020-08-09T07:52:00Z","uncertainty_Be-7-uncertainty":4.0,"uncertainty_Pb-210-uncertainty":5.0},"type":"Feature"},{"geometry":{"coordinates":[25.05385,60.20905],"type":"Point"},"properties":{"concentration_Be-7":2025.0,"concentration_air-volume":13593.0,"from_timestamp":"2020-08-11T08:01:00Z","id":"103428","site":"Helsinki","to_timestamp":"2020-08-12T07:52:00Z","uncertainty_Be-7-uncertainty":4.0},"type":"Feature"},{"geometry":{"coordinates":[25.05385,60.20905],"type":"Point"},"properties":{"concentration_Be-7":2240.6,"concentration_air-volume":13401.0,"from_timestamp":"2020-08-10T08:01:00Z","id":"103428","site":"Helsinki","to_timestamp":"2020-08-11T07:52:00Z","uncertainty_Be-7-uncertainty":4.0},"type":"Feature"},{"geometry":{"coordinates":[25.05385,60.20905],"type":"Point"},"properties":{"concentration_Be-7":3677.4,"concentration_Pb-210":99.4,"concentration_air-volume":13434.0,"from_timestamp":"2020-08-12T08:01:00Z","id":"103428","site":"Helsinki","to_timestamp":"2020-08-13T07:52:00Z","uncertainty_Be-7-uncertainty":4.0,"uncertainty_Pb-210-uncertainty":11.0},"type":"Feature"},{"geometry":{"coordinates":[25.05385,60.20905],"type":"Point"},"properties":{"concentration_Be-7":5749.7,"concentration_Pb-210":317.3,"concentration_air-volume":13557.0,"from_timestamp":"2020-08-13T08:01:00Z","id":"103428","site":"Helsinki","to_timestamp":"2020-08-14T07:52:00Z","uncertainty_Be-7-uncertainty":4.0,"uncertainty_Pb-210-uncertainty":6.0},"type":"Feature"},{"geometry":{"coordinates":[25.05385,60.20905],"type":"Point"},"properties":{"concentration_Be-7":4939.6,"concentration_Pb-210":548.8,"concentration_air-volume":13164.0,"from_timestamp":"2020-08-14T08:01:00Z","id":"103428","site":"Helsinki","to_timestamp":"2020-08-15T07:52:00Z","uncertainty_Be-7-uncertainty":4.0,"uncertainty_Pb-210-uncertainty":5.0},"type":"Feature"},{"geometry":{"coordinates":[25.05385,60.20905],"type":"Point"},"properties":{"concentration_Be-7":5465.8,"concentration_Pb-210":449.5,"concentration_air-volume":12993.0,"from_timestamp":"2020-08-09T08:01:00Z","id":"103428","site":"Helsinki","to_timestamp":"2020-08-10T07:52:00Z","uncertainty_Be-7-uncertainty":4.0,"uncertainty_Pb-210-uncertainty":6.0},"type":"Feature"},{"geometry":{"coordinates":[25.05385,60.20905],"type":"Point"},"properties":{"concentration_Be-7":7202.7,"concentration_Pb-210":1126.9,"concentration_air-volume":12869.0,"from_timestamp":"2020-08-15T08:01:00Z","id":"103428","site":"Helsinki","to_timestamp":"2020-08-16T07:52:00Z","uncertainty_Be-7-uncertainty":4.0,"uncertainty_Pb-210-uncertainty":5.0},"type":"Feature"},{"geometry":{"coordinates":[28.82663,61.13229],"type":"Point"},"properties":{"concentration_Be-7":3443.7,"concentration_Cs-137":1.1,"concentration_Pb-210":79.0,"concentration_air-volume":20057.0,"from_timestamp":"2020-08-06T05:00:00Z","id":"103430","site":"Imatra","to_timestamp":"2020-08-13T04:30:00Z","uncertainty_Be-7-uncertainty":6.0,"uncertainty_Cs-137-uncertainty":15.0,"uncertainty_Pb-210-uncertainty":19.0},"type":"Feature"},{"geometry":{"coordinates":[28.82663,61.13229],"type":"Point"},"properties":{"concentration_Be-7":3782.7,"concentration_Cs-137":0.8,"concentration_Pb-210":375.3,"concentration_air-volume":20176.0,"from_timestamp":"2020-08-13T04:30:00Z","id":"103430","site":"Imatra","to_timestamp":"2020-08-20T04:10:00Z","uncertainty_Be-7-uncertainty":5.0,"uncertainty_Cs-137-uncertainty":19.0,"uncertainty_Pb-210-uncertainty":5.0},"type":"Feature"},{"geometry":{"coordinates":[27.63414,62.89195],"type":"Point"},"properties":{"concentration_Be-7":3070.2,"concentration_Cs-137":1.1,"concentration_Pb-210":204.6,"concentration_air-volume":22600.0,"from_timestamp":"2020-08-03T09:27:00Z","id":"103432","site":"Kuopio","to_timestamp":"2020-08-10T09:00:00Z","uncertainty_Be-7-uncertainty":3.0,"uncertainty_Cs-137-uncertainty":20.0,"uncertainty_Pb-210-uncertainty":14.0},"type":"Feature"},{"geometry":{"coordinates":[27.63414,62.89195],"type":"Point"},"properties":{"concentration_Be-7":3114.1,"concentration_Pb-210":157.9,"concentration_air-volume":22811.0,"from_timestamp":"2020-08-10T09:00:00Z","id":"103432","site":"Kuopio","to_timestamp":"2020-08-17T08:21:00Z","uncertainty_Be-7-uncertainty":3.0,"uncertainty_Pb-210-uncertainty":17.0},"type":"Feature"},{"geometry":{"coordinates":[25.67774,66.51285],"type":"Point"},"properties":{"concentration_Be-7":2335.1,"concentration_Cs-137":0.3,"concentration_Na-22":0.2,"concentration_air-volume":146067.0,"from_timestamp":"2020-08-03T07:30:00Z","id":"103433","site":"Rovaniemi","to_timestamp":"2020-08-10T06:48:00Z","uncertainty_Be-7-uncertainty":7.0,"uncertainty_Cs-137-uncertainty":12.0,"uncertainty_Na-22-uncertainty":19.0},"type":"Feature"},{"geometry":{"coordinates":[25.67774,66.51285],"type":"Point"},"properties":{"concentration_Be-7":1121.0,"concentration_Cs-137":0.2,"concentration_Na-22":0.2,"concentration_Pb-210":133.9,"concentration_air-volume":145436.0,"from_timestamp":"2020-08-10T06:50:00Z","id":"103433","site":"Rovaniemi","to_timestamp":"2020-08-17T09:33:00Z","uncertainty_Be-7-uncertainty":6.0,"uncertainty_Cs-137-uncertainty":13.0,"uncertainty_Na-22-uncertainty":16.0,"uncertainty_Pb-210-uncertainty":8.0},"type":"Feature"},{"geometry":{"coordinates":[26.62807,67.36505],"type":"Point"},"properties":{"concentration_Be-7":1577.4,"concentration_air-volume":35091.0,"from_timestamp":"2020-08-03T06:14:00Z","id":"103434","site":"Sodankylä","to_timestamp":"2020-08-10T06:16:00Z","uncertainty_Be-7-uncertainty":5.0},"type":"Feature"},{"geometry":{"coordinates":[26.62807,67.36505],"type":"Point"},"properties":{"concentration_Be-7":1542.1,"concentration_air-volume":24708.0,"from_timestamp":"2020-08-10T06:17:00Z","id":"103434","site":"Sodankylä","to_timestamp":"2020-08-17T06:19:00Z","uncertainty_Be-7-uncertainty":6.0},"type":"Feature"},{"geometry":{"coordinates":[27.70835,64.08474],"type":"Point"},"properties":{"concentration_Be-7":2038.7,"concentration_Cs-137":0.6,"concentration_Na-22":0.3,"concentration_Pb-210":505.6,"concentration_air-volume":98539.0,"from_timestamp":"2020-08-03T09:35:00Z","id":"103435","site":"Kajaani","to_timestamp":"2020-08-10T14:00:00Z","uncertainty_Be-7-uncertainty":7.0,"uncertainty_Cs-137-uncertainty":9.0,"uncertainty_Na-22-uncertainty":18.0,"uncertainty_Pb-210-uncertainty":28.0},"type":"Feature"},{"geometry":{"coordinates":[27.70835,64.08474],"type":"Point"},"properties":{"concentration_Be-7":2316.9,"concentration_Cs-137":0.5,"concentration_Na-22":0.3,"concentration_Pb-210":640.7,"concentration_air-volume":100131.0,"from_timestamp":"2020-08-10T14:05:00Z","id":"103435","site":"Kajaani","to_timestamp":"2020-08-17T19:38:00Z","uncertainty_Be-7-uncertainty":7.0,"uncertainty_Cs-137-uncertainty":10.0,"uncertainty_Na-22-uncertainty":18.0,"uncertainty_Pb-210-uncertainty":28.0},"type":"Feature"}],"name":"stuk_open_data_air_radionuclides","type":"FeatureCollection"}