{"crs":{"properties":{"name":"urn:ogc:def:crs:OGC:1.3:CRS84"},"type":"name"},"features":[{"geometry":{"coordinates":[25.05385,60.20905],"type":"Point"},"properties":{"concentration_Be-7":1531.7,"concentration_Pb-210":183.4,"concentration_air-volume":14854.0,"from_timestamp":"2020-01-05T08:01:00Z","id":"103428","site":"Helsinki","to_timestamp":"2020-01-06T07:46:00Z","uncertainty_Be-7-uncertainty":4.0,"uncertainty_Pb-210-uncertainty":7.0},"type":"Feature"},{"geometry":{"coordinates":[25.05385,60.20905],"type":"Point"},"properties":{"concentration_Be-7":1696.6,"concentration_Na-24":23.9,"concentration_air-volume":15008.0,"from_timestamp":"2020-01-04T08:01:00Z","id":"103428","site":"Helsinki","to_timestamp":"2020-01-05T07:46:00Z","uncertainty_Be-7-uncertainty":4.0,"uncertainty_Na-24-uncertainty":26.0},"type":"Feature"},{"geometry":{"coordinates":[25.05385,60.20905],"type":"Point"},"properties":{"concentration_Be-7":2955.7,"concentration_air-volume":14752.0,"from_timestamp":"2020-01-11T08:01:00Z","id":"103428","site":"Helsinki","to_timestamp":"2020-01-12T07:46:00Z","uncertainty_Be-7-uncertainty":4.0},"type":"Feature"},{"geometry":{"coordinates":[25.05385,60.20905],"type":"Point"},"properties":{"concentration_Be-7":238.9,"concentration_air-volume":15008.0,"from_timestamp":"2020-01-06T08:01:00Z","id":"103428","site":"Helsinki","to_timestamp":"2020-01-07T07:46:00Z","uncertainty_Be-7-uncertainty":6.0},"type":"Feature"},{"geometry":{"coordinates":[25.05385,60.20905],"type":"Point"},"properties":{"concentration_Be-7":2486.6,"concentration_air-volume":14406.0,"from_timestamp":"2020-01-07T08:01:00Z","id":"103428","site":"Helsinki","to_timestamp":"2020-01-08T07:46:00Z","uncertainty_Be-7-uncertainty":4.0},"type":"Feature"},{"geometry":{"coordinates":[25.05385,60.20905],"type":"Point"},"properties":{"concentration_Be-7":1884.7,"concentration_air-volume":14587.0,"from_timestamp":"2020-01-08T08:01:00Z","id":"103428","site":"Helsinki","to_timestamp":"2020-01-09T07:46:00Z","uncertainty_Be-7-uncertainty":4.0},"type":"Feature"},{"geometry":{"coordinates":[25.05385,60.20905],"type":"Point"},"properties":{"concentration_Be-7":3277.3,"concentration_Pb-210":247.2,"concentration_air-volume":14608.0,"from_timestamp":"2020-01-10T08:01:00Z","id":"103428","site":"Helsinki","to_timestamp":"2020-01-11T07:46:00Z","uncertainty_Be-7-uncertainty":4.0,"uncertainty_Pb-210-uncertainty":7.0},"type":"Feature"},{"geometry":{"coordinates":[25.05385,60.20905],"type":"Point"},"properties":{"concentration_Be-7":2525.7,"concentration_air-volume":15120.0,"from_timestamp":"2020-01-09T08:01:00Z","id":"103428","site":"Helsinki","to_timestamp":"2020-01-10T07:46:00Z","uncertainty_Be-7-uncertainty":4.0},"type":"Feature"},{"geometry":{"coordinates":[25.05385,60.20905],"type":"Point"},"properties":{"concentration_Be-7":1049.8,"concentration_air-volume":14737.0,"from_timestamp":"2020-01-12T08:01:00Z","id":"103428","site":"Helsinki","to_timestamp":"2020-01-13T07:46:00Z","uncertainty_Be-7-uncertainty":4.0},"type":"Feature"},{"geometry":{"coordinates":[26.91808,60.48318],"type":"Point"},"properties":{"concentration_Be-7":1012.3,"concentration_Cs-137":0.7,"concentration_Na-22":0.1,"concentration_Pb-210":496.4,"concentration_air-volume":323388.0,"from_timestamp":"2019-12-16T13:05:00Z","id":"103429","site":"Kotka","to_timestamp":"2020-01-07T07:31:00Z","uncertainty_Be-7-uncertainty":7.0,"uncertainty_Cs-137-uncertainty":8.0,"uncertainty_Na-22-uncertainty":26.0,"uncertainty_Pb-210-uncertainty":18.0},"type":"Feature"},{"geometry":{"coordinates":[26.91808,60.48318],"type":"Point"},"properties":{"concentration_Be-7":1348.5,"concentration_Cs-137":1.1,"concentration_Pb-210":109.6,"concentration_air-volume":88367.0,"from_timestamp":"2020-01-07T07:35:00Z","id":"103429","site":"Kotka","to_timestamp":"2020-01-13T13:07:00Z","uncertainty_Be-7-uncertainty":6.0,"uncertainty_Cs-137-uncertainty":7.0,"uncertainty_Pb-210-uncertainty":8.0},"type":"Feature"},{"geometry":{"coordinates":[28.82663,61.13229],"type":"Point"},"properties":{"concentration_Be-7":1386.4,"concentration_Cs-137":2.0,"concentration_Pb-210":349.3,"concentration_air-volume":34316.0,"from_timestamp":"2019-12-23T04:50:00Z","id":"103430","site":"Imatra","to_timestamp":"2020-01-06T05:00:00Z","uncertainty_Be-7-uncertainty":6.0,"uncertainty_Cs-137-uncertainty":8.0,"uncertainty_Pb-210-uncertainty":8.0},"type":"Feature"},{"geometry":{"coordinates":[28.82663,61.13229],"type":"Point"},"properties":{"concentration_Be-7":1164.0,"concentration_Cs-137":1.1,"concentration_Pb-210":111.8,"concentration_air-volume":17426.0,"from_timestamp":"2020-01-06T05:00:00Z","id":"103430","site":"Imatra","to_timestamp":"2020-01-13T05:04:00Z","uncertainty_Be-7-uncertainty":6.0,"uncertainty_Cs-137-uncertainty":14.0,"uncertainty_Pb-210-uncertainty":8.0},"type":"Feature"},{"geometry":{"coordinates":[27.57,68.64],"type":"Point"},"properties":{"concentration_Be-7":1065.8,"concentration_Pb-210":124.1,"concentration_air-volume":25180.0,"from_timestamp":"2019-12-30T05:37:00Z","id":"103431","site":"Ivalo","to_timestamp":"2020-01-06T05:33:00Z","uncertainty_Be-7-uncertainty":6.0,"uncertainty_Pb-210-uncertainty":8.0},"type":"Feature"},{"geometry":{"coordinates":[27.57,68.64],"type":"Point"},"properties":{"concentration_Be-7":1028.4,"concentration_air-volume":25079.0,"from_timestamp":"2020-01-06T05:40:00Z","id":"103431","site":"Ivalo","to_timestamp":"2020-01-13T05:34:00Z","uncertainty_Be-7-uncertainty":6.0},"type":"Feature"},{"geometry":{"coordinates":[27.63414,62.89195],"type":"Point"},"properties":{"concentration_Be-7":1237.7,"concentration_air-volume":6826.0,"from_timestamp":"2020-01-07T08:22:00Z","id":"103432","site":"Kuopio","to_timestamp":"2020-01-10T08:26:00Z","uncertainty_Be-7-uncertainty":3.0},"type":"Feature"},{"geometry":{"coordinates":[27.63414,62.89195],"type":"Point"},"properties":{"concentration_Be-7":2035.7,"concentration_Pb-210":188.8,"concentration_air-volume":17056.0,"from_timestamp":"2020-01-02T08:26:00Z","id":"103432","site":"Kuopio","to_timestamp":"2020-01-07T08:21:00Z","uncertainty_Be-7-uncertainty":3.0,"uncertainty_Pb-210-uncertainty":17.0},"type":"Feature"},{"geometry":{"coordinates":[27.63414,62.89195],"type":"Point"},"properties":{"concentration_Be-7":112.1,"concentration_Pb-210":23.8,"concentration_air-volume":258767.0,"from_timestamp":"2019-12-27T08:37:00Z","id":"103432","site":"Kuopio","to_timestamp":"2020-01-17T12:57:00Z","uncertainty_Be-7-uncertainty":3.0,"uncertainty_Pb-210-uncertainty":9.0},"type":"Feature"},{"geometry":{"coordinates":[27.63414,62.89195],"type":"Point"},"properties":{"concentration_Be-7":2149.1,"concentration_air-volume":13682.0,"from_timestamp":"2020-01-10T08:27:00Z","id":"103432","site":"Kuopio","to_timestamp":"2020-01-13T08:26:00Z","uncertainty_Be-7-uncertainty":3.0},"type":"Feature"},{"geometry":{"coordinates":[25.67774,66.51285],"type":"Point"},"properties":{"concentration_Be-7":1085.3,"concentration_Cs-137":0.2,"concentration_Na-22":0.2,"concentration_Pb-210":134.0,"concentration_air-volume":162631.0,"from_timestamp":"2019-12-30T08:27:00Z","id":"103433","site":"Rovaniemi","to_timestamp":"2020-01-07T07:06:00Z","uncertainty_Be-7-uncertainty":6.0,"uncertainty_Cs-137-uncertainty":14.0,"uncertainty_Na-22-uncertainty":21.0,"uncertainty_Pb-210-uncertainty":8.0},"type":"Feature"},{"geometry":{"coordinates":[25.67774,66.51285],"type":"Point"},"properties":{"concentration_Be-7":1152.3,"concentration_Cs-137":0.1,"concentration_air-volume":128722.0,"from_timestamp":"2020-01-07T07:10:00Z","id":"103433","site":"Rovaniemi","to_timestamp":"2020-01-13T08:53:00Z","uncertainty_Be-7-uncertainty":5.0,"uncertainty_Cs-137-uncertainty":25.0},"type":"Feature"},{"geometry":{"coordinates":[26.62807,67.36505],"type":"Point"},"properties":{"concentration_Be-7":1381.5,"concentration_Pb-210":194.9,"concentration_air-volume":25727.0,"from_timestamp":"2020-01-02T06:18:00Z","id":"103434","site":"Sodankylä","to_timestamp":"2020-01-09T06:26:00Z","uncertainty_Be-7-uncertainty":6.0,"uncertainty_Pb-210-uncertainty":20.0},"type":"Feature"},{"geometry":{"coordinates":[26.62807,67.36505],"type":"Point"},"properties":{"concentration_Be-7":1390.6,"concentration_air-volume":25869.0,"from_timestamp":"2020-01-09T06:26:00Z","id":"103434","site":"Sodankylä","to_timestamp":"2020-01-16T06:27:00Z","uncertainty_Be-7-uncertainty":6.0},"type":"Feature"},{"geometry":{"coordinates":[27.70835,64.08474],"type":"Point"},"properties":{"concentration_Be-7":1460.4,"concentration_Cs-137":0.2,"concentration_air-volume":149169.0,"from_timestamp":"2019-12-30T15:21:00Z","id":"103435","site":"Kajaani","to_timestamp":"2020-01-06T16:17:00Z","uncertainty_Be-7-uncertainty":7.0,"uncertainty_Cs-137-uncertainty":15.0},"type":"Feature"},{"geometry":{"coordinates":[27.70835,64.08474],"type":"Point"},"properties":{"concentration_Be-7":1189.3,"concentration_Cs-137":0.2,"concentration_air-volume":139840.0,"from_timestamp":"2020-01-06T16:30:00Z","id":"103435","site":"Kajaani","to_timestamp":"2020-01-13T07:45:00Z","uncertainty_Be-7-uncertainty":7.0,"uncertainty_Cs-137-uncertainty":12.0},"type":"Feature"}],"name":"stuk_open_data_air_radionuclides","type":"FeatureCollection"}