{"crs":{"properties":{"name":"urn:ogc:def:crs:OGC:1.3:CRS84"},"type":"name"},"features":[{"geometry":{"coordinates":[25.05385,60.20905],"type":"Point"},"properties":{"concentration_Be-7":4186.8,"concentration_Pb-210":164.5,"concentration_air-volume":14076.0,"from_timestamp":"2020-05-21T08:01:00Z","id":"103428","site":"Helsinki","to_timestamp":"2020-05-22T08:18:00Z","uncertainty_Be-7-uncertainty":4.0,"uncertainty_Pb-210-uncertainty":9.0},"type":"Feature"},{"geometry":{"coordinates":[25.05385,60.20905],"type":"Point"},"properties":{"concentration_Be-7":3553.3,"concentration_Pb-210":147.8,"concentration_air-volume":14254.0,"from_timestamp":"2020-05-20T08:01:00Z","id":"103428","site":"Helsinki","to_timestamp":"2020-05-21T07:56:00Z","uncertainty_Be-7-uncertainty":4.0,"uncertainty_Pb-210-uncertainty":8.0},"type":"Feature"},{"geometry":{"coordinates":[25.05385,60.20905],"type":"Point"},"properties":{"concentration_Be-7":4141.9,"concentration_Pb-210":209.1,"concentration_air-volume":13988.0,"from_timestamp":"2020-05-22T08:23:00Z","id":"103428","site":"Helsinki","to_timestamp":"2020-05-23T07:56:00Z","uncertainty_Be-7-uncertainty":4.0,"uncertainty_Pb-210-uncertainty":8.0},"type":"Feature"},{"geometry":{"coordinates":[25.05385,60.20905],"type":"Point"},"properties":{"concentration_Be-7":6281.9,"concentration_Pb-210":288.8,"concentration_air-volume":14154.0,"from_timestamp":"2020-05-23T08:01:00Z","id":"103428","site":"Helsinki","to_timestamp":"2020-05-24T07:56:00Z","uncertainty_Be-7-uncertainty":4.0,"uncertainty_Pb-210-uncertainty":6.0},"type":"Feature"},{"geometry":{"coordinates":[25.05385,60.20905],"type":"Point"},"properties":{"concentration_Be-7":8334.3,"concentration_Pb-210":378.3,"concentration_air-volume":13864.0,"from_timestamp":"2020-05-24T08:01:00Z","id":"103428","site":"Helsinki","to_timestamp":"2020-05-25T07:56:00Z","uncertainty_Be-7-uncertainty":4.0,"uncertainty_Pb-210-uncertainty":6.0},"type":"Feature"},{"geometry":{"coordinates":[25.05385,60.20905],"type":"Point"},"properties":{"concentration_Be-7":9388.6,"concentration_Pb-210":439.6,"concentration_air-volume":13912.0,"from_timestamp":"2020-05-25T08:01:00Z","id":"103428","site":"Helsinki","to_timestamp":"2020-05-26T07:56:00Z","uncertainty_Be-7-uncertainty":4.0,"uncertainty_Pb-210-uncertainty":6.0},"type":"Feature"},{"geometry":{"coordinates":[25.05385,60.20905],"type":"Point"},"properties":{"concentration_Be-7":12145.7,"concentration_Pb-210":478.5,"concentration_air-volume":13739.0,"from_timestamp":"2020-05-26T08:01:00Z","id":"103428","site":"Helsinki","to_timestamp":"2020-05-27T07:56:00Z","uncertainty_Be-7-uncertainty":4.0,"uncertainty_Pb-210-uncertainty":6.0},"type":"Feature"},{"geometry":{"coordinates":[25.05385,60.20905],"type":"Point"},"properties":{"concentration_Be-7":5247.0,"concentration_Pb-210":297.0,"concentration_air-volume":14245.0,"from_timestamp":"2020-05-27T08:01:00Z","id":"103428","site":"Helsinki","to_timestamp":"2020-05-28T07:56:00Z","uncertainty_Be-7-uncertainty":4.0,"uncertainty_Pb-210-uncertainty":6.0},"type":"Feature"},{"geometry":{"coordinates":[26.91808,60.48318],"type":"Point"},"properties":{"concentration_Be-7":2412.4,"concentration_Cs-137":0.8,"concentration_Na-22":0.4,"concentration_air-volume":262049.0,"from_timestamp":"2020-05-18T12:10:00Z","id":"103429","site":"Kotka","to_timestamp":"2020-06-01T08:01:00Z","uncertainty_Be-7-uncertainty":5.0,"uncertainty_Cs-137-uncertainty":6.0,"uncertainty_Na-22-uncertainty":9.0},"type":"Feature"},{"geometry":{"coordinates":[28.82663,61.13229],"type":"Point"},"properties":{"concentration_Be-7":3830.3,"concentration_Cs-137":1.6,"concentration_Pb-210":206.8,"concentration_air-volume":17252.0,"from_timestamp":"2020-05-18T04:51:00Z","id":"103430","site":"Imatra","to_timestamp":"2020-05-25T05:00:00Z","uncertainty_Be-7-uncertainty":5.0,"uncertainty_Cs-137-uncertainty":11.0,"uncertainty_Pb-210-uncertainty":5.0},"type":"Feature"},{"geometry":{"coordinates":[28.82663,61.13229],"type":"Point"},"properties":{"concentration_Be-7":5922.2,"concentration_Cs-137":1.7,"concentration_Na-22":1.2,"concentration_Pb-210":90.8,"concentration_air-volume":17032.0,"from_timestamp":"2020-05-25T05:00:00Z","id":"103430","site":"Imatra","to_timestamp":"2020-06-01T05:30:00Z","uncertainty_Be-7-uncertainty":6.0,"uncertainty_Cs-137-uncertainty":15.0,"uncertainty_Na-22-uncertainty":27.0,"uncertainty_Pb-210-uncertainty":30.0},"type":"Feature"},{"geometry":{"coordinates":[27.57,68.64],"type":"Point"},"properties":{"concentration_Be-7":2469.9,"concentration_Pb-210":201.4,"concentration_air-volume":25484.0,"from_timestamp":"2020-05-18T05:51:00Z","id":"103431","site":"Ivalo","to_timestamp":"2020-05-25T06:08:00Z","uncertainty_Be-7-uncertainty":6.0,"uncertainty_Pb-210-uncertainty":20.0},"type":"Feature"},{"geometry":{"coordinates":[27.57,68.64],"type":"Point"},"properties":{"concentration_Be-7":3093.9,"concentration_air-volume":24933.0,"from_timestamp":"2020-05-25T06:14:00Z","id":"103431","site":"Ivalo","to_timestamp":"2020-06-01T05:40:00Z","uncertainty_Be-7-uncertainty":6.0},"type":"Feature"},{"geometry":{"coordinates":[27.63414,62.89195],"type":"Point"},"properties":{"concentration_Be-7":3973.7,"concentration_Pb-210":149.2,"concentration_air-volume":23392.0,"from_timestamp":"2020-05-18T09:20:00Z","id":"103432","site":"Kuopio","to_timestamp":"2020-05-25T10:48:00Z","uncertainty_Be-7-uncertainty":3.0,"uncertainty_Pb-210-uncertainty":18.0},"type":"Feature"},{"geometry":{"coordinates":[27.63414,62.89195],"type":"Point"},"properties":{"concentration_Be-7":4748.1,"concentration_air-volume":22603.0,"from_timestamp":"2020-05-25T10:50:00Z","id":"103432","site":"Kuopio","to_timestamp":"2020-06-01T09:02:00Z","uncertainty_Be-7-uncertainty":3.0},"type":"Feature"},{"geometry":{"coordinates":[25.67774,66.51285],"type":"Point"},"properties":{"concentration_Be-7":2669.4,"concentration_Cs-137":0.1,"concentration_Na-22":0.3,"concentration_air-volume":146017.0,"from_timestamp":"2020-05-18T07:45:00Z","id":"103433","site":"Rovaniemi","to_timestamp":"2020-05-25T07:00:00Z","uncertainty_Be-7-uncertainty":7.0,"uncertainty_Cs-137-uncertainty":16.0,"uncertainty_Na-22-uncertainty":12.0},"type":"Feature"},{"geometry":{"coordinates":[25.67774,66.51285],"type":"Point"},"properties":{"concentration_Be-7":2618.8,"concentration_Cs-137":0.1,"concentration_Na-22":0.4,"concentration_air-volume":147551.0,"from_timestamp":"2020-05-25T07:05:00Z","id":"103433","site":"Rovaniemi","to_timestamp":"2020-06-01T08:04:00Z","uncertainty_Be-7-uncertainty":7.0,"uncertainty_Cs-137-uncertainty":20.0,"uncertainty_Na-22-uncertainty":13.0},"type":"Feature"},{"geometry":{"coordinates":[26.62807,67.36505],"type":"Point"},"properties":{"concentration_Be-7":1924.4,"concentration_Pb-210":179.9,"concentration_air-volume":25442.0,"from_timestamp":"2020-05-18T06:29:00Z","id":"103434","site":"Sodankylä","to_timestamp":"2020-05-25T06:41:00Z","uncertainty_Be-7-uncertainty":6.0,"uncertainty_Pb-210-uncertainty":8.0},"type":"Feature"},{"geometry":{"coordinates":[26.62807,67.36505],"type":"Point"},"properties":{"concentration_Be-7":3273.0,"concentration_Na-22":0.6,"concentration_air-volume":25254.0,"from_timestamp":"2020-05-25T06:41:00Z","id":"103434","site":"Sodankylä","to_timestamp":"2020-06-01T06:15:00Z","uncertainty_Be-7-uncertainty":6.0,"uncertainty_Na-22-uncertainty":27.0},"type":"Feature"},{"geometry":{"coordinates":[27.70835,64.08474],"type":"Point"},"properties":{"concentration_Be-7":3609.7,"concentration_Cs-137":0.1,"concentration_Na-22":0.3,"concentration_air-volume":99725.0,"from_timestamp":"2020-05-18T11:37:00Z","id":"103435","site":"Kajaani","to_timestamp":"2020-05-25T15:53:00Z","uncertainty_Be-7-uncertainty":7.0,"uncertainty_Cs-137-uncertainty":23.0,"uncertainty_Na-22-uncertainty":19.0},"type":"Feature"},{"geometry":{"coordinates":[27.70835,64.08474],"type":"Point"},"properties":{"concentration_Be-7":3846.8,"concentration_Cs-137":0.2,"concentration_Na-22":0.6,"concentration_air-volume":94077.0,"from_timestamp":"2020-05-25T15:55:00Z","id":"103435","site":"Kajaani","to_timestamp":"2020-06-01T08:28:00Z","uncertainty_Be-7-uncertainty":7.0,"uncertainty_Cs-137-uncertainty":19.0,"uncertainty_Na-22-uncertainty":14.0},"type":"Feature"}],"name":"stuk_open_data_air_radionuclides","type":"FeatureCollection"}