{"crs":{"properties":{"name":"urn:ogc:def:crs:OGC:1.3:CRS84"},"type":"name"},"features":[{"geometry":{"coordinates":[25.05385,60.20905],"type":"Point"},"properties":{"concentration_Be-7":990.9,"concentration_Pb-210":176.1,"concentration_air-volume":14471.0,"from_timestamp":"2020-01-28T08:01:00Z","id":"103428","site":"Helsinki","to_timestamp":"2020-01-29T07:45:00Z","uncertainty_Be-7-uncertainty":4.0,"uncertainty_Pb-210-uncertainty":7.0},"type":"Feature"},{"geometry":{"coordinates":[25.05385,60.20905],"type":"Point"},"properties":{"concentration_Be-7":994.3,"concentration_air-volume":14406.0,"from_timestamp":"2020-02-02T08:01:00Z","id":"103428","site":"Helsinki","to_timestamp":"2020-02-03T07:45:00Z","uncertainty_Be-7-uncertainty":4.0},"type":"Feature"},{"geometry":{"coordinates":[25.05385,60.20905],"type":"Point"},"properties":{"concentration_Be-7":1137.4,"concentration_air-volume":14134.0,"from_timestamp":"2020-02-01T08:01:00Z","id":"103428","site":"Helsinki","to_timestamp":"2020-02-02T07:45:00Z","uncertainty_Be-7-uncertainty":4.0},"type":"Feature"},{"geometry":{"coordinates":[25.05385,60.20905],"type":"Point"},"properties":{"concentration_Be-7":1330.7,"concentration_air-volume":14776.0,"from_timestamp":"2020-02-03T08:01:00Z","id":"103428","site":"Helsinki","to_timestamp":"2020-02-04T07:45:00Z","uncertainty_Be-7-uncertainty":4.0},"type":"Feature"},{"geometry":{"coordinates":[25.05385,60.20905],"type":"Point"},"properties":{"concentration_Be-7":2290.0,"concentration_air-volume":15019.0,"from_timestamp":"2020-02-04T08:01:00Z","id":"103428","site":"Helsinki","to_timestamp":"2020-02-05T07:45:00Z","uncertainty_Be-7-uncertainty":4.0},"type":"Feature"},{"geometry":{"coordinates":[25.05385,60.20905],"type":"Point"},"properties":{"concentration_Be-7":2080.1,"concentration_air-volume":14769.0,"from_timestamp":"2020-02-05T08:01:00Z","id":"103428","site":"Helsinki","to_timestamp":"2020-02-06T07:45:00Z","uncertainty_Be-7-uncertainty":4.0},"type":"Feature"},{"geometry":{"coordinates":[25.05385,60.20905],"type":"Point"},"properties":{"concentration_Be-7":2435.2,"concentration_Pb-210":901.4,"concentration_air-volume":14246.0,"from_timestamp":"2020-01-31T08:01:00Z","id":"103428","site":"Helsinki","to_timestamp":"2020-02-01T07:45:00Z","uncertainty_Be-7-uncertainty":4.0,"uncertainty_Pb-210-uncertainty":5.0},"type":"Feature"},{"geometry":{"coordinates":[25.05385,60.20905],"type":"Point"},"properties":{"concentration_Be-7":1274.6,"concentration_Pb-210":794.1,"concentration_air-volume":14649.0,"from_timestamp":"2020-01-29T08:01:00Z","id":"103428","site":"Helsinki","to_timestamp":"2020-01-30T07:45:00Z","uncertainty_Be-7-uncertainty":4.0,"uncertainty_Pb-210-uncertainty":5.0},"type":"Feature"},{"geometry":{"coordinates":[25.05385,60.20905],"type":"Point"},"properties":{"concentration_Be-7":978.7,"concentration_Pb-210":675.0,"concentration_air-volume":14425.0,"from_timestamp":"2020-01-30T08:01:00Z","id":"103428","site":"Helsinki","to_timestamp":"2020-01-31T07:45:00Z","uncertainty_Be-7-uncertainty":4.0,"uncertainty_Pb-210-uncertainty":5.0},"type":"Feature"},{"geometry":{"coordinates":[26.91808,60.48318],"type":"Point"},"properties":{"concentration_Be-7":1429.1,"concentration_Cs-137":0.7,"concentration_Pb-210":1023.6,"concentration_air-volume":100189.0,"from_timestamp":"2020-01-27T07:32:00Z","id":"103429","site":"Kotka","to_timestamp":"2020-02-03T07:35:00Z","uncertainty_Be-7-uncertainty":7.0,"uncertainty_Cs-137-uncertainty":9.0,"uncertainty_Pb-210-uncertainty":18.0},"type":"Feature"},{"geometry":{"coordinates":[26.91808,60.48318],"type":"Point"},"properties":{"concentration_Be-7":1558.2,"concentration_Cs-137":0.7,"concentration_Na-22":0.1,"concentration_Pb-210":149.3,"concentration_air-volume":138130.0,"from_timestamp":"2020-02-03T07:40:00Z","id":"103429","site":"Kotka","to_timestamp":"2020-02-10T12:14:00Z","uncertainty_Be-7-uncertainty":6.0,"uncertainty_Cs-137-uncertainty":7.0,"uncertainty_Na-22-uncertainty":29.0,"uncertainty_Pb-210-uncertainty":8.0},"type":"Feature"},{"geometry":{"coordinates":[28.82663,61.13229],"type":"Point"},"properties":{"concentration_Be-7":1576.8,"concentration_Pb-210":525.1,"concentration_air-volume":17302.0,"from_timestamp":"2020-01-27T05:10:00Z","id":"103430","site":"Imatra","to_timestamp":"2020-02-03T06:00:00Z","uncertainty_Be-7-uncertainty":5.0,"uncertainty_Pb-210-uncertainty":5.0},"type":"Feature"},{"geometry":{"coordinates":[28.82663,61.13229],"type":"Point"},"properties":{"concentration_Be-7":1404.2,"concentration_Cs-137":0.8,"concentration_Pb-210":170.4,"concentration_air-volume":17271.0,"from_timestamp":"2020-02-03T06:00:00Z","id":"103430","site":"Imatra","to_timestamp":"2020-02-10T04:30:00Z","uncertainty_Be-7-uncertainty":6.0,"uncertainty_Cs-137-uncertainty":22.0,"uncertainty_Pb-210-uncertainty":8.0},"type":"Feature"},{"geometry":{"coordinates":[27.57,68.64],"type":"Point"},"properties":{"concentration_Be-7":1779.5,"concentration_Cs-137":0.8,"concentration_Pb-210":500.1,"concentration_air-volume":23893.0,"from_timestamp":"2020-01-27T05:36:00Z","id":"103431","site":"Ivalo","to_timestamp":"2020-02-03T05:56:00Z","uncertainty_Be-7-uncertainty":5.0,"uncertainty_Cs-137-uncertainty":15.0,"uncertainty_Pb-210-uncertainty":5.0},"type":"Feature"},{"geometry":{"coordinates":[27.57,68.64],"type":"Point"},"properties":{"concentration_Be-7":1374.3,"concentration_air-volume":25468.0,"from_timestamp":"2020-02-03T06:01:00Z","id":"103431","site":"Ivalo","to_timestamp":"2020-02-10T05:47:00Z","uncertainty_Be-7-uncertainty":6.0},"type":"Feature"},{"geometry":{"coordinates":[27.63414,62.89195],"type":"Point"},"properties":{"concentration_Be-7":1487.5,"concentration_Pb-210":381.0,"concentration_air-volume":10543.0,"from_timestamp":"2020-01-27T07:48:00Z","id":"103432","site":"Kuopio","to_timestamp":"2020-01-30T08:26:00Z","uncertainty_Be-7-uncertainty":3.0,"uncertainty_Pb-210-uncertainty":13.0},"type":"Feature"},{"geometry":{"coordinates":[27.63414,62.89195],"type":"Point"},"properties":{"concentration_Be-7":980.0,"concentration_Pb-210":572.0,"concentration_air-volume":13649.0,"from_timestamp":"2020-01-30T08:27:00Z","id":"103432","site":"Kuopio","to_timestamp":"2020-02-03T08:30:00Z","uncertainty_Be-7-uncertainty":3.0,"uncertainty_Pb-210-uncertainty":8.0},"type":"Feature"},{"geometry":{"coordinates":[27.63414,62.89195],"type":"Point"},"properties":{"concentration_Be-7":1446.7,"concentration_air-volume":10396.0,"from_timestamp":"2020-02-03T08:31:00Z","id":"103432","site":"Kuopio","to_timestamp":"2020-02-06T08:19:00Z","uncertainty_Be-7-uncertainty":3.0},"type":"Feature"},{"geometry":{"coordinates":[25.67774,66.51285],"type":"Point"},"properties":{"concentration_Be-7":1138.2,"concentration_Cs-137":0.1,"concentration_Pb-210":456.2,"concentration_air-volume":152562.0,"from_timestamp":"2020-01-27T11:36:00Z","id":"103433","site":"Rovaniemi","to_timestamp":"2020-02-03T11:21:00Z","uncertainty_Be-7-uncertainty":6.0,"uncertainty_Cs-137-uncertainty":16.0,"uncertainty_Pb-210-uncertainty":8.0},"type":"Feature"},{"geometry":{"coordinates":[25.67774,66.51285],"type":"Point"},"properties":{"concentration_Be-7":1304.4,"concentration_Cs-137":0.2,"concentration_Pb-210":138.2,"concentration_air-volume":137684.0,"from_timestamp":"2020-02-03T11:26:00Z","id":"103433","site":"Rovaniemi","to_timestamp":"2020-02-10T08:04:00Z","uncertainty_Be-7-uncertainty":5.0,"uncertainty_Cs-137-uncertainty":12.0,"uncertainty_Pb-210-uncertainty":5.0},"type":"Feature"},{"geometry":{"coordinates":[26.62807,67.36505],"type":"Point"},"properties":{"concentration_Be-7":2061.5,"concentration_Pb-210":686.6,"concentration_air-volume":26450.0,"from_timestamp":"2020-01-27T06:34:00Z","id":"103434","site":"Sodankylä","to_timestamp":"2020-02-03T06:28:00Z","uncertainty_Be-7-uncertainty":6.0,"uncertainty_Pb-210-uncertainty":20.0},"type":"Feature"},{"geometry":{"coordinates":[26.62807,67.36505],"type":"Point"},"properties":{"concentration_Be-7":959.1,"concentration_air-volume":26504.0,"from_timestamp":"2020-02-03T06:30:00Z","id":"103434","site":"Sodankylä","to_timestamp":"2020-02-10T06:36:00Z","uncertainty_Be-7-uncertainty":6.0},"type":"Feature"},{"geometry":{"coordinates":[27.70835,64.08474],"type":"Point"},"properties":{"concentration_Be-7":1415.6,"concentration_Cs-137":0.2,"concentration_Pb-210":280.8,"concentration_air-volume":95592.0,"from_timestamp":"2020-02-03T19:50:00Z","id":"103435","site":"Kajaani","to_timestamp":"2020-02-10T08:01:00Z","uncertainty_Be-7-uncertainty":7.0,"uncertainty_Cs-137-uncertainty":13.0,"uncertainty_Pb-210-uncertainty":30.0},"type":"Feature"},{"geometry":{"coordinates":[27.70835,64.08474],"type":"Point"},"properties":{"concentration_Be-7":773.3,"concentration_Pb-210":493.1,"concentration_air-volume":166205.0,"from_timestamp":"2020-01-27T14:34:00Z","id":"103435","site":"Kajaani","to_timestamp":"2020-02-03T19:45:00Z","uncertainty_Be-7-uncertainty":5.0,"uncertainty_Pb-210-uncertainty":5.0},"type":"Feature"},{"geometry":{"coordinates":[25.05385,60.20905],"type":"Point"},"properties":{"concentration_Be-7":990.9,"concentration_Pb-210":176.1,"concentration_air-volume":14471.0,"from_timestamp":"2020-01-28T08:01:00Z","id":"103428","site":"Helsinki","to_timestamp":"2020-01-29T07:45:00Z","uncertainty_Be-7-uncertainty":4.0,"uncertainty_Pb-210-uncertainty":7.0},"type":"Feature"},{"geometry":{"coordinates":[25.05385,60.20905],"type":"Point"},"properties":{"concentration_Be-7":994.3,"concentration_air-volume":14406.0,"from_timestamp":"2020-02-02T08:01:00Z","id":"103428","site":"Helsinki","to_timestamp":"2020-02-03T07:45:00Z","uncertainty_Be-7-uncertainty":4.0},"type":"Feature"},{"geometry":{"coordinates":[25.05385,60.20905],"type":"Point"},"properties":{"concentration_Be-7":1137.4,"concentration_air-volume":14134.0,"from_timestamp":"2020-02-01T08:01:00Z","id":"103428","site":"Helsinki","to_timestamp":"2020-02-02T07:45:00Z","uncertainty_Be-7-uncertainty":4.0},"type":"Feature"},{"geometry":{"coordinates":[25.05385,60.20905],"type":"Point"},"properties":{"concentration_Be-7":1330.7,"concentration_air-volume":14776.0,"from_timestamp":"2020-02-03T08:01:00Z","id":"103428","site":"Helsinki","to_timestamp":"2020-02-04T07:45:00Z","uncertainty_Be-7-uncertainty":4.0},"type":"Feature"},{"geometry":{"coordinates":[25.05385,60.20905],"type":"Point"},"properties":{"concentration_Be-7":2290.0,"concentration_air-volume":15019.0,"from_timestamp":"2020-02-04T08:01:00Z","id":"103428","site":"Helsinki","to_timestamp":"2020-02-05T07:45:00Z","uncertainty_Be-7-uncertainty":4.0},"type":"Feature"},{"geometry":{"coordinates":[25.05385,60.20905],"type":"Point"},"properties":{"concentration_Be-7":2080.1,"concentration_air-volume":14769.0,"from_timestamp":"2020-02-05T08:01:00Z","id":"103428","site":"Helsinki","to_timestamp":"2020-02-06T07:45:00Z","uncertainty_Be-7-uncertainty":4.0},"type":"Feature"},{"geometry":{"coordinates":[25.05385,60.20905],"type":"Point"},"properties":{"concentration_Be-7":2435.2,"concentration_Pb-210":901.4,"concentration_air-volume":14246.0,"from_timestamp":"2020-01-31T08:01:00Z","id":"103428","site":"Helsinki","to_timestamp":"2020-02-01T07:45:00Z","uncertainty_Be-7-uncertainty":4.0,"uncertainty_Pb-210-uncertainty":5.0},"type":"Feature"},{"geometry":{"coordinates":[25.05385,60.20905],"type":"Point"},"properties":{"concentration_Be-7":1274.6,"concentration_Pb-210":794.1,"concentration_air-volume":14649.0,"from_timestamp":"2020-01-29T08:01:00Z","id":"103428","site":"Helsinki","to_timestamp":"2020-01-30T07:45:00Z","uncertainty_Be-7-uncertainty":4.0,"uncertainty_Pb-210-uncertainty":5.0},"type":"Feature"},{"geometry":{"coordinates":[25.05385,60.20905],"type":"Point"},"properties":{"concentration_Be-7":978.7,"concentration_Pb-210":675.0,"concentration_air-volume":14425.0,"from_timestamp":"2020-01-30T08:01:00Z","id":"103428","site":"Helsinki","to_timestamp":"2020-01-31T07:45:00Z","uncertainty_Be-7-uncertainty":4.0,"uncertainty_Pb-210-uncertainty":5.0},"type":"Feature"}],"name":"stuk_open_data_air_radionuclides","type":"FeatureCollection"}