{"crs":{"properties":{"name":"urn:ogc:def:crs:OGC:1.3:CRS84"},"type":"name"},"features":[{"geometry":{"coordinates":[25.05385,60.20905],"type":"Point"},"properties":{"concentration_Be-7":10186.9,"concentration_Pb-210":3123.3,"concentration_air-volume":13204.0,"from_timestamp":"2020-10-03T08:01:00Z","id":"103428","site":"Helsinki","to_timestamp":"2020-10-04T07:50:00Z","uncertainty_Be-7-uncertainty":4.0,"uncertainty_Pb-210-uncertainty":5.0},"type":"Feature"},{"geometry":{"coordinates":[25.05385,60.20905],"type":"Point"},"properties":{"concentration_Be-7":8698.7,"concentration_Pb-210":2746.6,"concentration_Th-230":383.0,"concentration_air-volume":12988.0,"from_timestamp":"2020-10-02T08:01:00Z","id":"103428","site":"Helsinki","to_timestamp":"2020-10-03T07:50:00Z","uncertainty_Be-7-uncertainty":4.0,"uncertainty_Pb-210-uncertainty":5.0,"uncertainty_Th-230-uncertainty":29.0},"type":"Feature"},{"geometry":{"coordinates":[25.05385,60.20905],"type":"Point"},"properties":{"concentration_Be-7":9124.9,"concentration_Pb-210":1550.1,"concentration_air-volume":13125.0,"from_timestamp":"2020-10-05T08:01:00Z","id":"103428","site":"Helsinki","to_timestamp":"2020-10-06T07:50:00Z","uncertainty_Be-7-uncertainty":4.0,"uncertainty_Pb-210-uncertainty":5.0},"type":"Feature"},{"geometry":{"coordinates":[25.05385,60.20905],"type":"Point"},"properties":{"concentration_Be-7":8786.3,"concentration_Cs-137":3.6,"concentration_Pb-210":2794.9,"concentration_air-volume":13074.0,"from_timestamp":"2020-10-04T08:01:00Z","id":"103428","site":"Helsinki","to_timestamp":"2020-10-05T07:50:00Z","uncertainty_Be-7-uncertainty":4.0,"uncertainty_Cs-137-uncertainty":29.0,"uncertainty_Pb-210-uncertainty":5.0},"type":"Feature"},{"geometry":{"coordinates":[25.05385,60.20905],"type":"Point"},"properties":{"concentration_Be-7":3168.5,"concentration_Pb-210":712.3,"concentration_air-volume":13255.0,"from_timestamp":"2020-10-08T08:01:00Z","id":"103428","site":"Helsinki","to_timestamp":"2020-10-09T12:49:00Z","uncertainty_Be-7-uncertainty":4.0,"uncertainty_Pb-210-uncertainty":5.0},"type":"Feature"},{"geometry":{"coordinates":[25.05385,60.20905],"type":"Point"},"properties":{"concentration_Be-7":5310.0,"concentration_Pb-210":1016.7,"concentration_Th-230":292.7,"concentration_air-volume":13201.0,"from_timestamp":"2020-10-06T08:01:00Z","id":"103428","site":"Helsinki","to_timestamp":"2020-10-07T07:50:00Z","uncertainty_Be-7-uncertainty":4.0,"uncertainty_Pb-210-uncertainty":5.0,"uncertainty_Th-230-uncertainty":29.0},"type":"Feature"},{"geometry":{"coordinates":[25.05385,60.20905],"type":"Point"},"properties":{"concentration_Be-7":3048.4,"concentration_Pb-210":861.9,"concentration_air-volume":13310.0,"from_timestamp":"2020-10-07T08:01:00Z","id":"103428","site":"Helsinki","to_timestamp":"2020-10-08T07:50:00Z","uncertainty_Be-7-uncertainty":4.0,"uncertainty_Pb-210-uncertainty":5.0},"type":"Feature"},{"geometry":{"coordinates":[25.05385,60.20905],"type":"Point"},"properties":{"concentration_Be-7":2935.5,"concentration_Pb-210":97.6,"concentration_air-volume":10723.0,"from_timestamp":"2020-10-09T13:00:00Z","id":"103428","site":"Helsinki","to_timestamp":"2020-10-10T07:50:00Z","uncertainty_Be-7-uncertainty":4.0,"uncertainty_Pb-210-uncertainty":13.0},"type":"Feature"},{"geometry":{"coordinates":[25.05385,60.20905],"type":"Point"},"properties":{"concentration_Be-7":2969.8,"concentration_Pb-210":105.6,"concentration_air-volume":13415.0,"from_timestamp":"2020-10-10T08:01:00Z","id":"103428","site":"Helsinki","to_timestamp":"2020-10-11T07:50:00Z","uncertainty_Be-7-uncertainty":8.0,"uncertainty_Pb-210-uncertainty":9.0},"type":"Feature"},{"geometry":{"coordinates":[26.91808,60.48318],"type":"Point"},"properties":{"concentration_Be-7":3670.6,"concentration_Co-60":0.2,"concentration_Cs-137":1.9,"concentration_I-131":0.5,"concentration_Na-22":0.3,"concentration_Pb-210":1157.3,"concentration_air-volume":93845.0,"from_timestamp":"2020-09-28T07:50:00Z","id":"103429","site":"Kotka","to_timestamp":"2020-10-05T07:30:00Z","uncertainty_Be-7-uncertainty":5.0,"uncertainty_Co-60-uncertainty":12.0,"uncertainty_Cs-137-uncertainty":6.0,"uncertainty_I-131-uncertainty":14.0,"uncertainty_Na-22-uncertainty":18.0,"uncertainty_Pb-210-uncertainty":5.0},"type":"Feature"},{"geometry":{"coordinates":[26.91808,60.48318],"type":"Point"},"properties":{"concentration_Be-7":2574.1,"concentration_Cs-137":0.8,"concentration_Na-22":0.2,"concentration_Pb-210":557.2,"concentration_air-volume":111663.0,"from_timestamp":"2020-10-05T07:35:00Z","id":"103429","site":"Kotka","to_timestamp":"2020-10-13T06:16:00Z","uncertainty_Be-7-uncertainty":6.0,"uncertainty_Cs-137-uncertainty":7.0,"uncertainty_Na-22-uncertainty":20.0,"uncertainty_Pb-210-uncertainty":8.0},"type":"Feature"},{"geometry":{"coordinates":[28.82663,61.13229],"type":"Point"},"properties":{"concentration_Be-7":8528.5,"concentration_Cs-137":1.8,"concentration_air-volume":8708.0,"from_timestamp":"2020-10-01T05:20:00Z","id":"103430","site":"Imatra","to_timestamp":"2020-10-05T11:05:00Z","uncertainty_Be-7-uncertainty":10.0,"uncertainty_Cs-137-uncertainty":19.0},"type":"Feature"},{"geometry":{"coordinates":[28.82663,61.13229],"type":"Point"},"properties":{"concentration_Be-7":3570.0,"concentration_Cs-137":0.5,"concentration_Pb-210":1080.7,"concentration_air-volume":19437.0,"from_timestamp":"2020-10-05T11:05:00Z","id":"103430","site":"Imatra","to_timestamp":"2020-10-12T04:00:00Z","uncertainty_Be-7-uncertainty":5.0,"uncertainty_Cs-137-uncertainty":30.0,"uncertainty_Pb-210-uncertainty":5.0},"type":"Feature"},{"geometry":{"coordinates":[27.63414,62.89195],"type":"Point"},"properties":{"concentration_Be-7":3074.4,"concentration_Cs-137":1.5,"concentration_Pb-210":558.8,"concentration_air-volume":22846.0,"from_timestamp":"2020-10-05T08:14:00Z","id":"103432","site":"Kuopio","to_timestamp":"2020-10-12T10:08:00Z","uncertainty_Be-7-uncertainty":3.0,"uncertainty_Cs-137-uncertainty":15.0,"uncertainty_Pb-210-uncertainty":6.0},"type":"Feature"},{"geometry":{"coordinates":[27.63414,62.89195],"type":"Point"},"properties":{"concentration_Be-7":4619.8,"concentration_Cs-137":1.5,"concentration_Pb-210":1152.2,"concentration_air-volume":21709.0,"from_timestamp":"2020-09-28T08:45:00Z","id":"103432","site":"Kuopio","to_timestamp":"2020-10-05T08:14:00Z","uncertainty_Be-7-uncertainty":3.0,"uncertainty_Cs-137-uncertainty":17.0,"uncertainty_Pb-210-uncertainty":5.0},"type":"Feature"},{"geometry":{"coordinates":[25.67774,66.51285],"type":"Point"},"properties":{"concentration_Be-7":2932.2,"concentration_Cs-137":0.6,"concentration_Na-22":0.3,"concentration_Pb-210":2338.9,"concentration_air-volume":130879.0,"from_timestamp":"2020-09-28T07:54:00Z","id":"103433","site":"Rovaniemi","to_timestamp":"2020-10-05T08:23:00Z","uncertainty_Be-7-uncertainty":7.0,"uncertainty_Cs-137-uncertainty":8.0,"uncertainty_Na-22-uncertainty":14.0,"uncertainty_Pb-210-uncertainty":15.0},"type":"Feature"},{"geometry":{"coordinates":[25.67774,66.51285],"type":"Point"},"properties":{"concentration_Be-7":1023.1,"concentration_Cs-137":0.3,"concentration_Na-22":0.1,"concentration_air-volume":142812.0,"from_timestamp":"2020-10-05T08:26:00Z","id":"103433","site":"Rovaniemi","to_timestamp":"2020-10-12T09:14:00Z","uncertainty_Be-7-uncertainty":6.0,"uncertainty_Cs-137-uncertainty":9.0,"uncertainty_Na-22-uncertainty":25.0},"type":"Feature"},{"geometry":{"coordinates":[26.62807,67.36505],"type":"Point"},"properties":{"concentration_Be-7":2522.5,"concentration_Cs-137":0.5,"concentration_Pb-210":1121.2,"concentration_air-volume":14273.0,"from_timestamp":"2020-10-01T06:56:00Z","id":"103434","site":"Sodankylä","to_timestamp":"2020-10-05T06:12:00Z","uncertainty_Be-7-uncertainty":6.0,"uncertainty_Cs-137-uncertainty":27.0,"uncertainty_Pb-210-uncertainty":20.0},"type":"Feature"},{"geometry":{"coordinates":[26.62807,67.36505],"type":"Point"},"properties":{"concentration_Be-7":1464.8,"concentration_Pb-210":77.2,"concentration_air-volume":24949.0,"from_timestamp":"2020-10-05T06:14:00Z","id":"103434","site":"Sodankylä","to_timestamp":"2020-10-12T06:37:00Z","uncertainty_Be-7-uncertainty":6.0,"uncertainty_Pb-210-uncertainty":16.0},"type":"Feature"},{"geometry":{"coordinates":[27.70835,64.08474],"type":"Point"},"properties":{"concentration_Be-7":3067.2,"concentration_Cs-137":0.5,"concentration_Na-22":0.4,"concentration_Pb-210":1025.4,"concentration_air-volume":103121.0,"from_timestamp":"2020-09-28T13:20:00Z","id":"103435","site":"Kajaani","to_timestamp":"2020-10-06T14:57:00Z","uncertainty_Be-7-uncertainty":5.0,"uncertainty_Cs-137-uncertainty":8.0,"uncertainty_Na-22-uncertainty":13.0,"uncertainty_Pb-210-uncertainty":5.0},"type":"Feature"},{"geometry":{"coordinates":[27.70835,64.08474],"type":"Point"},"properties":{"concentration_Be-7":1833.6,"concentration_Cs-137":0.7,"concentration_Pb-210":853.4,"concentration_air-volume":117455.0,"from_timestamp":"2020-10-06T15:03:00Z","id":"103435","site":"Kajaani","to_timestamp":"2020-10-12T07:45:00Z","uncertainty_Be-7-uncertainty":7.0,"uncertainty_Cs-137-uncertainty":8.0,"uncertainty_Pb-210-uncertainty":19.0},"type":"Feature"}],"name":"stuk_open_data_air_radionuclides","type":"FeatureCollection"}