{"crs":{"properties":{"name":"urn:ogc:def:crs:OGC:1.3:CRS84"},"type":"name"},"features":[{"geometry":{"coordinates":[25.05385,60.20905],"type":"Point"},"properties":{"concentration_Be-7":4216.8,"concentration_Pb-210":1401.4,"concentration_air-volume":13961.0,"from_timestamp":"2021-10-31T08:01:00Z","id":"103428","site":"Helsinki","to_timestamp":"2021-11-01T07:55:00Z","uncertainty_Be-7-uncertainty":8.0,"uncertainty_Pb-210-uncertainty":6.0},"type":"Feature"},{"geometry":{"coordinates":[25.05385,60.20905],"type":"Point"},"properties":{"concentration_Be-7":3761.3,"concentration_Pb-210":1492.9,"concentration_air-volume":14185.0,"from_timestamp":"2021-11-02T08:01:00Z","id":"103428","site":"Helsinki","to_timestamp":"2021-11-03T07:54:00Z","uncertainty_Be-7-uncertainty":8.0,"uncertainty_Pb-210-uncertainty":6.0},"type":"Feature"},{"geometry":{"coordinates":[25.05385,60.20905],"type":"Point"},"properties":{"concentration_Be-7":4051.2,"concentration_Pb-210":1486.9,"concentration_air-volume":14141.0,"from_timestamp":"2021-11-01T08:01:00Z","id":"103428","site":"Helsinki","to_timestamp":"2021-11-02T07:54:00Z","uncertainty_Be-7-uncertainty":8.0,"uncertainty_Pb-210-uncertainty":6.0},"type":"Feature"},{"geometry":{"coordinates":[25.05385,60.20905],"type":"Point"},"properties":{"concentration_Be-7":1430.6,"concentration_Pb-210":6699.8,"concentration_air-volume":14334.0,"from_timestamp":"2021-11-05T08:01:00Z","id":"103428","site":"Helsinki","to_timestamp":"2021-11-06T07:54:00Z","uncertainty_Be-7-uncertainty":3.0,"uncertainty_Pb-210-uncertainty":4.0},"type":"Feature"},{"geometry":{"coordinates":[25.05385,60.20905],"type":"Point"},"properties":{"concentration_Be-7":2166.9,"concentration_Pb-210":4119.8,"concentration_air-volume":14334.0,"from_timestamp":"2021-11-04T08:01:00Z","id":"103428","site":"Helsinki","to_timestamp":"2021-11-05T07:54:00Z","uncertainty_Be-7-uncertainty":3.0,"uncertainty_Pb-210-uncertainty":5.0},"type":"Feature"},{"geometry":{"coordinates":[25.05385,60.20905],"type":"Point"},"properties":{"concentration_Be-7":636.5,"concentration_Pb-210":76.4,"concentration_air-volume":14612.0,"from_timestamp":"2021-11-06T08:01:00Z","id":"103428","site":"Helsinki","to_timestamp":"2021-11-07T07:54:00Z","uncertainty_Be-7-uncertainty":8.0,"uncertainty_Pb-210-uncertainty":10.0},"type":"Feature"},{"geometry":{"coordinates":[25.05385,60.20905],"type":"Point"},"properties":{"concentration_Be-7":2521.9,"concentration_I-131":3.0,"concentration_Pb-210":24480.0,"concentration_air-volume":14083.0,"from_timestamp":"2021-11-03T08:01:00Z","id":"103428","site":"Helsinki","to_timestamp":"2021-11-04T07:54:00Z","uncertainty_Be-7-uncertainty":3.0,"uncertainty_I-131-uncertainty":25.0,"uncertainty_Pb-210-uncertainty":4.0},"type":"Feature"},{"geometry":{"coordinates":[26.91808,60.48318],"type":"Point"},"properties":{"concentration_Be-7":2503.2,"concentration_Cs-137":0.4,"concentration_Pb-210":537.4,"concentration_air-volume":97367.0,"from_timestamp":"2021-10-25T08:35:00Z","id":"103429","site":"Kotka","to_timestamp":"2021-11-01T09:58:00Z","uncertainty_Be-7-uncertainty":6.0,"uncertainty_Cs-137-uncertainty":11.0,"uncertainty_Pb-210-uncertainty":8.0},"type":"Feature"},{"geometry":{"coordinates":[26.91808,60.48318],"type":"Point"},"properties":{"concentration_Be-7":1555.1,"concentration_Cs-137":0.7,"concentration_I-131":0.2,"concentration_Na-22":0.1,"concentration_Pb-210":738.6,"concentration_air-volume":112396.0,"from_timestamp":"2021-11-01T10:03:00Z","id":"103429","site":"Kotka","to_timestamp":"2021-11-09T14:41:00Z","uncertainty_Be-7-uncertainty":5.0,"uncertainty_Cs-137-uncertainty":7.0,"uncertainty_I-131-uncertainty":19.0,"uncertainty_Na-22-uncertainty":26.0,"uncertainty_Pb-210-uncertainty":5.0},"type":"Feature"},{"geometry":{"coordinates":[28.82663,61.13229],"type":"Point"},"properties":{"concentration_Be-7":4119.9,"concentration_Cs-137":0.9,"concentration_Pb-210":141.5,"concentration_air-volume":20623.0,"from_timestamp":"2021-10-25T05:00:00Z","id":"103430","site":"Imatra","to_timestamp":"2021-11-01T04:48:00Z","uncertainty_Be-7-uncertainty":6.0,"uncertainty_Cs-137-uncertainty":21.0,"uncertainty_Pb-210-uncertainty":15.0},"type":"Feature"},{"geometry":{"coordinates":[28.82663,61.13229],"type":"Point"},"properties":{"concentration_Be-7":2491.4,"concentration_Cs-137":1.1,"concentration_air-volume":19902.0,"from_timestamp":"2021-11-01T04:58:00Z","id":"103430","site":"Imatra","to_timestamp":"2021-11-08T05:00:00Z","uncertainty_Be-7-uncertainty":10.0,"uncertainty_Cs-137-uncertainty":15.0},"type":"Feature"},{"geometry":{"coordinates":[27.57,68.64],"type":"Point"},"properties":{"concentration_Be-7":1101.1,"concentration_air-volume":25582.0,"from_timestamp":"2021-10-28T06:25:00Z","id":"103431","site":"Ivalo","to_timestamp":"2021-11-04T06:11:00Z","uncertainty_Be-7-uncertainty":10.0},"type":"Feature"},{"geometry":{"coordinates":[27.57,68.64],"type":"Point"},"properties":{"concentration_Be-7":1300.0,"concentration_Pb-210":170.6,"concentration_air-volume":25677.0,"from_timestamp":"2021-11-04T06:14:00Z","id":"103431","site":"Ivalo","to_timestamp":"2021-11-11T06:19:00Z","uncertainty_Be-7-uncertainty":5.0,"uncertainty_Pb-210-uncertainty":5.0},"type":"Feature"},{"geometry":{"coordinates":[27.63414,62.89195],"type":"Point"},"properties":{"concentration_Be-7":3537.8,"concentration_Cs-137":0.7,"concentration_Pb-210":548.3,"concentration_air-volume":22962.0,"from_timestamp":"2021-10-25T09:38:00Z","id":"103432","site":"Kuopio","to_timestamp":"2021-11-01T09:22:00Z","uncertainty_Be-7-uncertainty":3.0,"uncertainty_Cs-137-uncertainty":28.0,"uncertainty_Pb-210-uncertainty":6.0},"type":"Feature"},{"geometry":{"coordinates":[27.63414,62.89195],"type":"Point"},"properties":{"concentration_Be-7":2593.8,"concentration_Pb-210":806.6,"concentration_air-volume":17930.0,"from_timestamp":"2021-11-01T09:27:00Z","id":"103432","site":"Kuopio","to_timestamp":"2021-11-08T08:17:00Z","uncertainty_Be-7-uncertainty":3.0,"uncertainty_Pb-210-uncertainty":6.0},"type":"Feature"},{"geometry":{"coordinates":[25.67774,66.51285],"type":"Point"},"properties":{"concentration_Be-7":1712.4,"concentration_Cs-137":0.2,"concentration_Pb-210":1386.9,"concentration_air-volume":139480.0,"from_timestamp":"2021-11-01T07:58:00Z","id":"103433","site":"Rovaniemi","to_timestamp":"2021-11-08T08:01:00Z","uncertainty_Be-7-uncertainty":7.0,"uncertainty_Cs-137-uncertainty":13.0,"uncertainty_Pb-210-uncertainty":18.0},"type":"Feature"},{"geometry":{"coordinates":[26.62807,67.36505],"type":"Point"},"properties":{"concentration_Be-7":588.1,"concentration_air-volume":25819.0,"from_timestamp":"2021-10-25T06:21:00Z","id":"103434","site":"Sodankylä","to_timestamp":"2021-11-01T06:54:00Z","uncertainty_Be-7-uncertainty":6.0},"type":"Feature"},{"geometry":{"coordinates":[26.62807,67.36505],"type":"Point"},"properties":{"concentration_Be-7":1931.8,"concentration_Pb-210":102.7,"concentration_air-volume":25658.0,"from_timestamp":"2021-11-01T06:56:00Z","id":"103434","site":"Sodankylä","to_timestamp":"2021-11-08T06:28:00Z","uncertainty_Be-7-uncertainty":6.0,"uncertainty_Pb-210-uncertainty":14.0},"type":"Feature"},{"geometry":{"coordinates":[27.70835,64.08474],"type":"Point"},"properties":{"concentration_Be-7":2120.3,"concentration_Cs-137":0.3,"concentration_Na-22":0.2,"concentration_Pb-210":731.2,"concentration_air-volume":90322.0,"from_timestamp":"2021-10-26T06:00:00Z","id":"103435","site":"Kajaani","to_timestamp":"2021-11-01T17:35:00Z","uncertainty_Be-7-uncertainty":7.0,"uncertainty_Cs-137-uncertainty":11.0,"uncertainty_Na-22-uncertainty":30.0,"uncertainty_Pb-210-uncertainty":18.0},"type":"Feature"},{"geometry":{"coordinates":[27.70835,64.08474],"type":"Point"},"properties":{"concentration_Be-7":819.7,"concentration_Cs-137":0.1,"concentration_Pb-210":387.6,"concentration_air-volume":103270.0,"from_timestamp":"2021-11-01T17:40:00Z","id":"103435","site":"Kajaani","to_timestamp":"2021-11-09T06:06:00Z","uncertainty_Be-7-uncertainty":6.0,"uncertainty_Cs-137-uncertainty":16.0,"uncertainty_Pb-210-uncertainty":8.0},"type":"Feature"},{"geometry":{"coordinates":[25.05385,60.20905],"type":"Point"},"properties":{"concentration_Be-7":4216.8,"concentration_Pb-210":1401.4,"concentration_air-volume":13961.0,"from_timestamp":"2021-10-31T08:01:00Z","id":"103428","site":"Helsinki","to_timestamp":"2021-11-01T07:55:00Z","uncertainty_Be-7-uncertainty":8.0,"uncertainty_Pb-210-uncertainty":6.0},"type":"Feature"},{"geometry":{"coordinates":[25.05385,60.20905],"type":"Point"},"properties":{"concentration_Be-7":3761.3,"concentration_Pb-210":1492.9,"concentration_air-volume":14185.0,"from_timestamp":"2021-11-02T08:01:00Z","id":"103428","site":"Helsinki","to_timestamp":"2021-11-03T07:54:00Z","uncertainty_Be-7-uncertainty":8.0,"uncertainty_Pb-210-uncertainty":6.0},"type":"Feature"},{"geometry":{"coordinates":[25.05385,60.20905],"type":"Point"},"properties":{"concentration_Be-7":4051.2,"concentration_Pb-210":1486.9,"concentration_air-volume":14141.0,"from_timestamp":"2021-11-01T08:01:00Z","id":"103428","site":"Helsinki","to_timestamp":"2021-11-02T07:54:00Z","uncertainty_Be-7-uncertainty":8.0,"uncertainty_Pb-210-uncertainty":6.0},"type":"Feature"},{"geometry":{"coordinates":[25.05385,60.20905],"type":"Point"},"properties":{"concentration_Be-7":1430.6,"concentration_Pb-210":6699.8,"concentration_air-volume":14334.0,"from_timestamp":"2021-11-05T08:01:00Z","id":"103428","site":"Helsinki","to_timestamp":"2021-11-06T07:54:00Z","uncertainty_Be-7-uncertainty":3.0,"uncertainty_Pb-210-uncertainty":4.0},"type":"Feature"},{"geometry":{"coordinates":[25.05385,60.20905],"type":"Point"},"properties":{"concentration_Be-7":2166.9,"concentration_Pb-210":4119.8,"concentration_air-volume":14334.0,"from_timestamp":"2021-11-04T08:01:00Z","id":"103428","site":"Helsinki","to_timestamp":"2021-11-05T07:54:00Z","uncertainty_Be-7-uncertainty":3.0,"uncertainty_Pb-210-uncertainty":5.0},"type":"Feature"},{"geometry":{"coordinates":[25.05385,60.20905],"type":"Point"},"properties":{"concentration_Be-7":636.5,"concentration_Pb-210":76.4,"concentration_air-volume":14612.0,"from_timestamp":"2021-11-06T08:01:00Z","id":"103428","site":"Helsinki","to_timestamp":"2021-11-07T07:54:00Z","uncertainty_Be-7-uncertainty":8.0,"uncertainty_Pb-210-uncertainty":10.0},"type":"Feature"},{"geometry":{"coordinates":[25.05385,60.20905],"type":"Point"},"properties":{"concentration_Be-7":2521.9,"concentration_I-131":3.0,"concentration_Pb-210":24480.0,"concentration_air-volume":14083.0,"from_timestamp":"2021-11-03T08:01:00Z","id":"103428","site":"Helsinki","to_timestamp":"2021-11-04T07:54:00Z","uncertainty_Be-7-uncertainty":3.0,"uncertainty_I-131-uncertainty":25.0,"uncertainty_Pb-210-uncertainty":4.0},"type":"Feature"}],"name":"stuk_open_data_air_radionuclides","type":"FeatureCollection"}