{"crs":{"properties":{"name":"urn:ogc:def:crs:OGC:1.3:CRS84"},"type":"name"},"features":[{"geometry":{"coordinates":[25.05385,60.20905],"type":"Point"},"properties":{"concentration_Be-7":1966.6,"concentration_Pb-210":68.7,"concentration_air-volume":14767.0,"from_timestamp":"2021-02-07T08:01:00Z","id":"103428","site":"Helsinki","to_timestamp":"2021-02-08T07:44:00Z","uncertainty_Be-7-uncertainty":8.0,"uncertainty_Pb-210-uncertainty":10.0},"type":"Feature"},{"geometry":{"coordinates":[25.05385,60.20905],"type":"Point"},"properties":{"concentration_Be-7":1951.7,"concentration_Pb-210":87.6,"concentration_air-volume":15024.0,"from_timestamp":"2021-02-08T08:01:00Z","id":"103428","site":"Helsinki","to_timestamp":"2021-02-09T07:44:00Z","uncertainty_Be-7-uncertainty":8.0,"uncertainty_Pb-210-uncertainty":9.0},"type":"Feature"},{"geometry":{"coordinates":[25.05385,60.20905],"type":"Point"},"properties":{"concentration_Be-7":2422.6,"concentration_Cs-137":2.0,"concentration_Pb-210":349.7,"concentration_air-volume":14943.0,"from_timestamp":"2021-02-10T08:01:00Z","id":"103428","site":"Helsinki","to_timestamp":"2021-02-11T07:44:00Z","uncertainty_Be-7-uncertainty":8.0,"uncertainty_Cs-137-uncertainty":26.0,"uncertainty_Pb-210-uncertainty":7.0},"type":"Feature"},{"geometry":{"coordinates":[25.05385,60.20905],"type":"Point"},"properties":{"concentration_Be-7":4396.0,"concentration_Cs-137":1.1,"concentration_air-volume":15165.0,"from_timestamp":"2021-02-09T08:01:00Z","id":"103428","site":"Helsinki","to_timestamp":"2021-02-10T07:44:00Z","uncertainty_Be-7-uncertainty":6.0,"uncertainty_Cs-137-uncertainty":15.0},"type":"Feature"},{"geometry":{"coordinates":[25.05385,60.20905],"type":"Point"},"properties":{"concentration_Be-7":1069.3,"concentration_Cs-137":1.7,"concentration_Pb-210":242.3,"concentration_air-volume":15258.0,"from_timestamp":"2021-02-11T08:01:00Z","id":"103428","site":"Helsinki","to_timestamp":"2021-02-12T09:09:00Z","uncertainty_Be-7-uncertainty":8.0,"uncertainty_Cs-137-uncertainty":28.0,"uncertainty_Pb-210-uncertainty":7.0},"type":"Feature"},{"geometry":{"coordinates":[25.05385,60.20905],"type":"Point"},"properties":{"concentration_Be-7":1920.9,"concentration_Cs-137":2.4,"concentration_Pb-210":332.9,"concentration_air-volume":13912.0,"from_timestamp":"2021-02-12T09:26:00Z","id":"103428","site":"Helsinki","to_timestamp":"2021-02-13T07:44:00Z","uncertainty_Be-7-uncertainty":8.0,"uncertainty_Cs-137-uncertainty":21.0,"uncertainty_Pb-210-uncertainty":7.0},"type":"Feature"},{"geometry":{"coordinates":[25.05385,60.20905],"type":"Point"},"properties":{"concentration_Be-7":936.3,"concentration_Pb-210":34.5,"concentration_air-volume":15106.0,"from_timestamp":"2021-02-14T08:01:00Z","id":"103428","site":"Helsinki","to_timestamp":"2021-02-15T07:44:00Z","uncertainty_Be-7-uncertainty":8.0,"uncertainty_Pb-210-uncertainty":15.0},"type":"Feature"},{"geometry":{"coordinates":[25.05385,60.20905],"type":"Point"},"properties":{"concentration_Be-7":1897.2,"concentration_Pb-210":40.5,"concentration_air-volume":14542.0,"from_timestamp":"2021-02-13T08:01:00Z","id":"103428","site":"Helsinki","to_timestamp":"2021-02-14T07:44:00Z","uncertainty_Be-7-uncertainty":8.0,"uncertainty_Pb-210-uncertainty":14.0},"type":"Feature"},{"geometry":{"coordinates":[25.05385,60.20905],"type":"Point"},"properties":{"concentration_Be-7":1695.1,"concentration_Pb-210":75.8,"concentration_air-volume":14546.0,"from_timestamp":"2021-02-15T08:01:00Z","id":"103428","site":"Helsinki","to_timestamp":"2021-02-16T07:43:00Z","uncertainty_Be-7-uncertainty":8.0,"uncertainty_Pb-210-uncertainty":9.0},"type":"Feature"},{"geometry":{"coordinates":[26.91808,60.48318],"type":"Point"},"properties":{"concentration_Be-7":1445.2,"concentration_Cs-137":0.9,"concentration_Na-22":0.2,"concentration_air-volume":91109.0,"from_timestamp":"2021-02-02T06:35:00Z","id":"103429","site":"Kotka","to_timestamp":"2021-02-08T08:45:00Z","uncertainty_Be-7-uncertainty":5.0,"uncertainty_Cs-137-uncertainty":7.0,"uncertainty_Na-22-uncertainty":27.0},"type":"Feature"},{"geometry":{"coordinates":[26.91808,60.48318],"type":"Point"},"properties":{"concentration_Be-7":2050.6,"concentration_Cs-137":1.5,"concentration_Na-22":0.2,"concentration_air-volume":116347.0,"from_timestamp":"2021-02-08T08:30:00Z","id":"103429","site":"Kotka","to_timestamp":"2021-02-16T06:15:00Z","uncertainty_Be-7-uncertainty":7.0,"uncertainty_Cs-137-uncertainty":7.0,"uncertainty_Na-22-uncertainty":19.0},"type":"Feature"},{"geometry":{"coordinates":[28.82663,61.13229],"type":"Point"},"properties":{"concentration_Be-7":1557.4,"concentration_Cs-137":1.8,"concentration_air-volume":22415.0,"from_timestamp":"2021-02-01T05:20:00Z","id":"103430","site":"Imatra","to_timestamp":"2021-02-08T04:30:00Z","uncertainty_Be-7-uncertainty":5.0,"uncertainty_Cs-137-uncertainty":10.0},"type":"Feature"},{"geometry":{"coordinates":[28.82663,61.13229],"type":"Point"},"properties":{"concentration_Be-7":2293.2,"concentration_Cs-137":2.3,"concentration_air-volume":22194.0,"from_timestamp":"2021-02-08T04:30:00Z","id":"103430","site":"Imatra","to_timestamp":"2021-02-15T03:26:00Z","uncertainty_Be-7-uncertainty":10.0,"uncertainty_Cs-137-uncertainty":11.0},"type":"Feature"},{"geometry":{"coordinates":[28.82663,61.13229],"type":"Point"},"properties":{"concentration_Be-7":2538.2,"concentration_Cs-137":2.4,"concentration_Pb-210":157.9,"concentration_air-volume":22467.0,"from_timestamp":"2021-02-15T03:33:00Z","id":"103430","site":"Imatra","to_timestamp":"2021-02-22T05:00:00Z","uncertainty_Be-7-uncertainty":6.0,"uncertainty_Cs-137-uncertainty":9.0,"uncertainty_Pb-210-uncertainty":11.0},"type":"Feature"},{"geometry":{"coordinates":[27.63414,62.89195],"type":"Point"},"properties":{"concentration_Be-7":1837.3,"concentration_Pb-210":617.5,"concentration_air-volume":25086.0,"from_timestamp":"2021-02-01T11:33:00Z","id":"103432","site":"Kuopio","to_timestamp":"2021-02-08T11:31:00Z","uncertainty_Be-7-uncertainty":3.0,"uncertainty_Pb-210-uncertainty":5.0},"type":"Feature"},{"geometry":{"coordinates":[27.63414,62.89195],"type":"Point"},"properties":{"concentration_Be-7":1999.0,"concentration_Pb-210":209.1,"concentration_air-volume":24737.0,"from_timestamp":"2021-02-08T11:34:00Z","id":"103432","site":"Kuopio","to_timestamp":"2021-02-15T10:35:00Z","uncertainty_Be-7-uncertainty":3.0,"uncertainty_Pb-210-uncertainty":11.0},"type":"Feature"},{"geometry":{"coordinates":[25.67774,66.51285],"type":"Point"},"properties":{"concentration_Be-7":1379.0,"concentration_Cs-137":0.1,"concentration_Na-22":0.1,"concentration_air-volume":149374.0,"from_timestamp":"2021-02-01T08:42:00Z","id":"103433","site":"Rovaniemi","to_timestamp":"2021-02-08T08:36:00Z","uncertainty_Be-7-uncertainty":7.0,"uncertainty_Cs-137-uncertainty":26.0,"uncertainty_Na-22-uncertainty":28.0},"type":"Feature"},{"geometry":{"coordinates":[25.67774,66.51285],"type":"Point"},"properties":{"concentration_Be-7":1399.6,"concentration_Cs-137":0.5,"concentration_Na-22":0.1,"concentration_Pb-210":258.8,"concentration_air-volume":122484.0,"from_timestamp":"2021-02-08T08:39:00Z","id":"103433","site":"Rovaniemi","to_timestamp":"2021-02-15T08:50:00Z","uncertainty_Be-7-uncertainty":5.0,"uncertainty_Cs-137-uncertainty":7.0,"uncertainty_Na-22-uncertainty":20.0,"uncertainty_Pb-210-uncertainty":5.0},"type":"Feature"},{"geometry":{"coordinates":[26.62807,67.36505],"type":"Point"},"properties":{"concentration_Be-7":1730.7,"concentration_Pb-210":296.1,"concentration_air-volume":27026.0,"from_timestamp":"2021-02-04T06:37:00Z","id":"103434","site":"Sodankylä","to_timestamp":"2021-02-11T06:22:00Z","uncertainty_Be-7-uncertainty":6.0,"uncertainty_Pb-210-uncertainty":8.0},"type":"Feature"},{"geometry":{"coordinates":[26.62807,67.36505],"type":"Point"},"properties":{"concentration_Be-7":1245.8,"concentration_Pb-210":220.9,"concentration_air-volume":27312.0,"from_timestamp":"2021-02-11T06:23:00Z","id":"103434","site":"Sodankylä","to_timestamp":"2021-02-18T06:44:00Z","uncertainty_Be-7-uncertainty":6.0,"uncertainty_Pb-210-uncertainty":8.0},"type":"Feature"},{"geometry":{"coordinates":[27.70835,64.08474],"type":"Point"},"properties":{"concentration_Be-7":1607.4,"concentration_Cs-137":0.3,"concentration_Pb-210":809.1,"concentration_air-volume":99934.0,"from_timestamp":"2021-02-01T16:50:00Z","id":"103435","site":"Kajaani","to_timestamp":"2021-02-08T11:15:00Z","uncertainty_Be-7-uncertainty":7.0,"uncertainty_Cs-137-uncertainty":11.0,"uncertainty_Pb-210-uncertainty":22.0},"type":"Feature"},{"geometry":{"coordinates":[27.70835,64.08474],"type":"Point"},"properties":{"concentration_Be-7":1124.8,"concentration_Cs-137":0.3,"concentration_Na-22":0.1,"concentration_Pb-210":214.1,"concentration_air-volume":111581.0,"from_timestamp":"2021-02-08T11:21:00Z","id":"103435","site":"Kajaani","to_timestamp":"2021-02-15T18:29:00Z","uncertainty_Be-7-uncertainty":5.0,"uncertainty_Cs-137-uncertainty":10.0,"uncertainty_Na-22-uncertainty":28.0,"uncertainty_Pb-210-uncertainty":5.0},"type":"Feature"},{"geometry":{"coordinates":[27.70835,64.08474],"type":"Point"},"properties":{"concentration_Be-7":1496.5,"concentration_Cs-137":0.3,"concentration_Na-22":0.2,"concentration_Pb-210":664.0,"concentration_air-volume":131868.0,"from_timestamp":"2021-02-15T18:29:00Z","id":"103435","site":"Kajaani","to_timestamp":"2021-02-22T12:30:00Z","uncertainty_Be-7-uncertainty":7.0,"uncertainty_Cs-137-uncertainty":10.0,"uncertainty_Na-22-uncertainty":20.0,"uncertainty_Pb-210-uncertainty":18.0},"type":"Feature"}],"name":"stuk_open_data_air_radionuclides","type":"FeatureCollection"}