{"crs":{"properties":{"name":"urn:ogc:def:crs:OGC:1.3:CRS84"},"type":"name"},"features":[{"geometry":{"coordinates":[25.05385,60.20905],"type":"Point"},"properties":{"concentration_Be-7":1083.8,"concentration_Cs-137":2.9,"concentration_Pb-210":19.1,"concentration_air-volume":13525.0,"from_timestamp":"2021-05-25T08:01:00Z","id":"103428","site":"Helsinki","to_timestamp":"2021-05-26T08:02:00Z","uncertainty_Be-7-uncertainty":8.0,"uncertainty_Cs-137-uncertainty":19.0,"uncertainty_Pb-210-uncertainty":29.0},"type":"Feature"},{"geometry":{"coordinates":[25.05385,60.20905],"type":"Point"},"properties":{"concentration_Be-7":2044.4,"concentration_air-volume":13646.0,"from_timestamp":"2021-05-26T08:01:00Z","id":"103428","site":"Helsinki","to_timestamp":"2021-05-27T08:02:00Z","uncertainty_Be-7-uncertainty":8.0},"type":"Feature"},{"geometry":{"coordinates":[25.05385,60.20905],"type":"Point"},"properties":{"concentration_Be-7":1823.0,"concentration_Pb-210":34.5,"concentration_air-volume":13425.0,"from_timestamp":"2021-05-28T08:01:00Z","id":"103428","site":"Helsinki","to_timestamp":"2021-05-29T08:02:00Z","uncertainty_Be-7-uncertainty":8.0,"uncertainty_Pb-210-uncertainty":19.0},"type":"Feature"},{"geometry":{"coordinates":[25.05385,60.20905],"type":"Point"},"properties":{"concentration_Be-7":1766.2,"concentration_Pb-210":56.6,"concentration_air-volume":13209.0,"from_timestamp":"2021-05-27T08:01:00Z","id":"103428","site":"Helsinki","to_timestamp":"2021-05-28T08:02:00Z","uncertainty_Be-7-uncertainty":8.0,"uncertainty_Pb-210-uncertainty":14.0},"type":"Feature"},{"geometry":{"coordinates":[25.05385,60.20905],"type":"Point"},"properties":{"concentration_Be-7":485.0,"concentration_Cs-137":3.7,"concentration_air-volume":10912.0,"from_timestamp":"2021-05-24T12:37:00Z","id":"103428","site":"Helsinki","to_timestamp":"2021-05-25T08:02:00Z","uncertainty_Be-7-uncertainty":8.0,"uncertainty_Cs-137-uncertainty":23.0},"type":"Feature"},{"geometry":{"coordinates":[25.05385,60.20905],"type":"Point"},"properties":{"concentration_Be-7":5333.3,"concentration_Cs-137":2.3,"concentration_Pb-210":156.7,"concentration_air-volume":13679.0,"from_timestamp":"2021-05-29T08:01:00Z","id":"103428","site":"Helsinki","to_timestamp":"2021-05-30T08:02:00Z","uncertainty_Be-7-uncertainty":8.0,"uncertainty_Cs-137-uncertainty":29.0,"uncertainty_Pb-210-uncertainty":8.0},"type":"Feature"},{"geometry":{"coordinates":[25.05385,60.20905],"type":"Point"},"properties":{"concentration_Be-7":5184.0,"concentration_Pb-210":168.9,"concentration_air-volume":13724.0,"from_timestamp":"2021-05-30T08:01:00Z","id":"103428","site":"Helsinki","to_timestamp":"2021-05-31T08:02:00Z","uncertainty_Be-7-uncertainty":8.0,"uncertainty_Pb-210-uncertainty":7.0},"type":"Feature"},{"geometry":{"coordinates":[26.91808,60.48318],"type":"Point"},"properties":{"concentration_Be-7":2149.2,"concentration_Cs-137":3.0,"concentration_Na-22":0.4,"concentration_Pb-210":182.2,"concentration_air-volume":111817.0,"from_timestamp":"2021-05-17T15:09:00Z","id":"103429","site":"Kotka","to_timestamp":"2021-05-25T14:08:00Z","uncertainty_Be-7-uncertainty":6.0,"uncertainty_Cs-137-uncertainty":7.0,"uncertainty_Na-22-uncertainty":14.0,"uncertainty_Pb-210-uncertainty":8.0},"type":"Feature"},{"geometry":{"coordinates":[26.91808,60.48318],"type":"Point"},"properties":{"concentration_Be-7":3026.5,"concentration_Cs-137":2.1,"concentration_Na-22":0.3,"concentration_air-volume":82712.0,"from_timestamp":"2021-05-25T14:10:00Z","id":"103429","site":"Kotka","to_timestamp":"2021-05-31T08:52:00Z","uncertainty_Be-7-uncertainty":7.0,"uncertainty_Cs-137-uncertainty":8.0,"uncertainty_Na-22-uncertainty":17.0},"type":"Feature"},{"geometry":{"coordinates":[28.82663,61.13229],"type":"Point"},"properties":{"concentration_Be-7":1781.3,"concentration_Cs-137":3.3,"concentration_Pb-210":137.2,"concentration_air-volume":19807.0,"from_timestamp":"2021-05-20T05:00:00Z","id":"103430","site":"Imatra","to_timestamp":"2021-05-27T05:00:00Z","uncertainty_Be-7-uncertainty":6.0,"uncertainty_Cs-137-uncertainty":8.0,"uncertainty_Pb-210-uncertainty":8.0},"type":"Feature"},{"geometry":{"coordinates":[28.82663,61.13229],"type":"Point"},"properties":{"concentration_Be-7":3899.4,"concentration_Cs-137":1.2,"concentration_Pb-210":242.4,"concentration_air-volume":21367.0,"from_timestamp":"2021-05-27T05:00:00Z","id":"103430","site":"Imatra","to_timestamp":"2021-06-03T05:00:00Z","uncertainty_Be-7-uncertainty":6.0,"uncertainty_Cs-137-uncertainty":8.0,"uncertainty_Pb-210-uncertainty":20.0},"type":"Feature"},{"geometry":{"coordinates":[27.57,68.64],"type":"Point"},"properties":{"concentration_Be-7":2129.4,"concentration_Pb-210":100.6,"concentration_air-volume":25718.0,"from_timestamp":"2021-05-20T06:23:00Z","id":"103431","site":"Ivalo","to_timestamp":"2021-05-27T06:33:00Z","uncertainty_Be-7-uncertainty":6.0,"uncertainty_Pb-210-uncertainty":8.0},"type":"Feature"},{"geometry":{"coordinates":[27.57,68.64],"type":"Point"},"properties":{"concentration_Be-7":3147.6,"concentration_Pb-210":121.8,"concentration_air-volume":23908.0,"from_timestamp":"2021-05-27T06:36:00Z","id":"103431","site":"Ivalo","to_timestamp":"2021-06-03T06:15:00Z","uncertainty_Be-7-uncertainty":6.0,"uncertainty_Pb-210-uncertainty":8.0},"type":"Feature"},{"geometry":{"coordinates":[27.63414,62.89195],"type":"Point"},"properties":{"concentration_Be-7":2899.7,"concentration_Cs-137":6.0,"concentration_Pb-210":269.1,"concentration_air-volume":22023.0,"from_timestamp":"2021-05-17T09:02:00Z","id":"103432","site":"Kuopio","to_timestamp":"2021-05-24T11:48:00Z","uncertainty_Be-7-uncertainty":3.0,"uncertainty_Cs-137-uncertainty":6.0,"uncertainty_Pb-210-uncertainty":10.0},"type":"Feature"},{"geometry":{"coordinates":[27.63414,62.89195],"type":"Point"},"properties":{"concentration_Be-7":3665.6,"concentration_Cs-137":2.0,"concentration_air-volume":22635.0,"from_timestamp":"2021-05-24T11:51:00Z","id":"103432","site":"Kuopio","to_timestamp":"2021-05-31T11:39:00Z","uncertainty_Be-7-uncertainty":4.0,"uncertainty_Cs-137-uncertainty":21.0},"type":"Feature"},{"geometry":{"coordinates":[25.67774,66.51285],"type":"Point"},"properties":{"concentration_Be-7":1345.5,"concentration_Cs-137":0.1,"concentration_Na-22":0.2,"concentration_Pb-210":17.4,"concentration_air-volume":149506.0,"from_timestamp":"2021-05-17T07:05:00Z","id":"103433","site":"Rovaniemi","to_timestamp":"2021-05-24T10:39:00Z","uncertainty_Be-7-uncertainty":5.0,"uncertainty_Cs-137-uncertainty":28.0,"uncertainty_Na-22-uncertainty":25.0,"uncertainty_Pb-210-uncertainty":18.0},"type":"Feature"},{"geometry":{"coordinates":[25.67774,66.51285],"type":"Point"},"properties":{"concentration_Be-7":3467.3,"concentration_Cs-137":0.1,"concentration_Na-22":0.5,"concentration_Pb-210":24.0,"concentration_air-volume":143414.0,"from_timestamp":"2021-05-24T10:41:00Z","id":"103433","site":"Rovaniemi","to_timestamp":"2021-05-31T07:42:00Z","uncertainty_Be-7-uncertainty":5.0,"uncertainty_Cs-137-uncertainty":19.0,"uncertainty_Na-22-uncertainty":9.0,"uncertainty_Pb-210-uncertainty":14.0},"type":"Feature"},{"geometry":{"coordinates":[26.62807,67.36505],"type":"Point"},"properties":{"concentration_Be-7":1689.8,"concentration_Pb-210":150.6,"concentration_air-volume":25240.0,"from_timestamp":"2021-05-17T06:13:00Z","id":"103434","site":"Sodankylä","to_timestamp":"2021-05-24T06:13:00Z","uncertainty_Be-7-uncertainty":6.0,"uncertainty_Pb-210-uncertainty":8.0},"type":"Feature"},{"geometry":{"coordinates":[26.62807,67.36505],"type":"Point"},"properties":{"concentration_Be-7":3662.8,"concentration_Pb-210":167.2,"concentration_air-volume":25514.0,"from_timestamp":"2021-05-24T06:14:00Z","id":"103434","site":"Sodankylä","to_timestamp":"2021-05-31T06:47:00Z","uncertainty_Be-7-uncertainty":6.0,"uncertainty_Pb-210-uncertainty":8.0},"type":"Feature"},{"geometry":{"coordinates":[27.70835,64.08474],"type":"Point"},"properties":{"concentration_Be-7":1791.6,"concentration_Cs-137":0.6,"concentration_Na-22":0.2,"concentration_air-volume":99932.0,"from_timestamp":"2021-05-17T14:40:00Z","id":"103435","site":"Kajaani","to_timestamp":"2021-05-24T19:35:00Z","uncertainty_Be-7-uncertainty":7.0,"uncertainty_Cs-137-uncertainty":9.0,"uncertainty_Na-22-uncertainty":20.0},"type":"Feature"},{"geometry":{"coordinates":[27.70835,64.08474],"type":"Point"},"properties":{"concentration_Be-7":2001.4,"concentration_Cs-137":0.4,"concentration_Na-22":0.2,"concentration_air-volume":138737.0,"from_timestamp":"2021-05-24T19:37:00Z","id":"103435","site":"Kajaani","to_timestamp":"2021-05-31T20:40:00Z","uncertainty_Be-7-uncertainty":7.0,"uncertainty_Cs-137-uncertainty":10.0,"uncertainty_Na-22-uncertainty":17.0},"type":"Feature"}],"name":"stuk_open_data_air_radionuclides","type":"FeatureCollection"}