{"crs":{"properties":{"name":"urn:ogc:def:crs:OGC:1.3:CRS84"},"type":"name"},"features":[{"geometry":{"coordinates":[25.05385,60.20905],"type":"Point"},"properties":{"concentration_Be-7":1840.4,"concentration_Pb-210":175.7,"concentration_air-volume":13992.0,"from_timestamp":"2021-08-26T08:01:00Z","id":"103428","site":"Helsinki","to_timestamp":"2021-08-27T07:58:00Z","uncertainty_Be-7-uncertainty":8.0,"uncertainty_Pb-210-uncertainty":7.0},"type":"Feature"},{"geometry":{"coordinates":[25.05385,60.20905],"type":"Point"},"properties":{"concentration_Be-7":2615.3,"concentration_Pb-210":314.8,"concentration_air-volume":14043.0,"from_timestamp":"2021-08-27T08:01:00Z","id":"103428","site":"Helsinki","to_timestamp":"2021-08-28T07:58:00Z","uncertainty_Be-7-uncertainty":8.0,"uncertainty_Pb-210-uncertainty":7.0},"type":"Feature"},{"geometry":{"coordinates":[25.05385,60.20905],"type":"Point"},"properties":{"concentration_Be-7":3006.3,"concentration_Pb-210":475.7,"concentration_air-volume":13635.0,"from_timestamp":"2021-08-28T08:01:00Z","id":"103428","site":"Helsinki","to_timestamp":"2021-08-29T07:58:00Z","uncertainty_Be-7-uncertainty":8.0,"uncertainty_Pb-210-uncertainty":6.0},"type":"Feature"},{"geometry":{"coordinates":[25.05385,60.20905],"type":"Point"},"properties":{"concentration_Be-7":3390.7,"concentration_Pb-210":422.6,"concentration_air-volume":13699.0,"from_timestamp":"2021-08-29T08:01:00Z","id":"103428","site":"Helsinki","to_timestamp":"2021-08-30T07:57:00Z","uncertainty_Be-7-uncertainty":8.0,"uncertainty_Pb-210-uncertainty":7.0},"type":"Feature"},{"geometry":{"coordinates":[25.05385,60.20905],"type":"Point"},"properties":{"concentration_Be-7":4140.3,"concentration_Pb-210":209.2,"concentration_air-volume":13492.0,"from_timestamp":"2021-08-30T08:01:00Z","id":"103428","site":"Helsinki","to_timestamp":"2021-08-31T07:57:00Z","uncertainty_Be-7-uncertainty":8.0,"uncertainty_Pb-210-uncertainty":7.0},"type":"Feature"},{"geometry":{"coordinates":[25.05385,60.20905],"type":"Point"},"properties":{"concentration_Be-7":3587.7,"concentration_Pb-210":180.4,"concentration_air-volume":13591.0,"from_timestamp":"2021-08-31T08:01:00Z","id":"103428","site":"Helsinki","to_timestamp":"2021-09-01T11:21:00Z","uncertainty_Be-7-uncertainty":8.0,"uncertainty_Pb-210-uncertainty":7.0},"type":"Feature"},{"geometry":{"coordinates":[25.05385,60.20905],"type":"Point"},"properties":{"concentration_Be-7":1888.1,"concentration_Cs-137":1.0,"concentration_Pb-210":46.7,"concentration_air-volume":12034.0,"from_timestamp":"2021-09-01T11:24:00Z","id":"103428","site":"Helsinki","to_timestamp":"2021-09-02T07:57:00Z","uncertainty_Be-7-uncertainty":8.0,"uncertainty_Cs-137-uncertainty":29.0,"uncertainty_Pb-210-uncertainty":10.0},"type":"Feature"},{"geometry":{"coordinates":[26.91808,60.48318],"type":"Point"},"properties":{"concentration_Be-7":1873.3,"concentration_Cs-137":0.8,"concentration_Na-22":0.2,"concentration_air-volume":98776.0,"from_timestamp":"2021-08-23T07:22:00Z","id":"103429","site":"Kotka","to_timestamp":"2021-08-30T08:10:00Z","uncertainty_Be-7-uncertainty":5.0,"uncertainty_Cs-137-uncertainty":7.0,"uncertainty_Na-22-uncertainty":21.0},"type":"Feature"},{"geometry":{"coordinates":[26.91808,60.48318],"type":"Point"},"properties":{"concentration_Be-7":1968.4,"concentration_Cs-137":1.1,"concentration_Na-22":0.3,"concentration_Pb-210":184.6,"concentration_air-volume":97592.0,"from_timestamp":"2021-08-30T08:18:00Z","id":"103429","site":"Kotka","to_timestamp":"2021-09-06T08:00:00Z","uncertainty_Be-7-uncertainty":5.0,"uncertainty_Cs-137-uncertainty":6.0,"uncertainty_Na-22-uncertainty":16.0,"uncertainty_Pb-210-uncertainty":5.0},"type":"Feature"},{"geometry":{"coordinates":[28.82663,61.13229],"type":"Point"},"properties":{"concentration_Be-7":1993.1,"concentration_Cs-137":0.9,"concentration_Pb-210":60.6,"concentration_air-volume":20643.0,"from_timestamp":"2021-08-23T04:05:00Z","id":"103430","site":"Imatra","to_timestamp":"2021-08-30T04:30:00Z","uncertainty_Be-7-uncertainty":6.0,"uncertainty_Cs-137-uncertainty":20.0,"uncertainty_Pb-210-uncertainty":28.0},"type":"Feature"},{"geometry":{"coordinates":[28.82663,61.13229],"type":"Point"},"properties":{"concentration_Be-7":2585.7,"concentration_Cs-137":1.6,"concentration_air-volume":20192.0,"from_timestamp":"2021-08-30T04:30:00Z","id":"103430","site":"Imatra","to_timestamp":"2021-09-05T04:30:00Z","uncertainty_Be-7-uncertainty":10.0,"uncertainty_Cs-137-uncertainty":14.0},"type":"Feature"},{"geometry":{"coordinates":[27.57,68.64],"type":"Point"},"properties":{"concentration_Be-7":2424.0,"concentration_air-volume":25359.0,"from_timestamp":"2021-08-26T06:22:00Z","id":"103431","site":"Ivalo","to_timestamp":"2021-09-02T06:01:00Z","uncertainty_Be-7-uncertainty":10.0},"type":"Feature"},{"geometry":{"coordinates":[27.57,68.64],"type":"Point"},"properties":{"concentration_Be-7":1110.7,"concentration_air-volume":25947.0,"from_timestamp":"2021-09-02T06:04:00Z","id":"103431","site":"Ivalo","to_timestamp":"2021-09-09T09:45:00Z","uncertainty_Be-7-uncertainty":6.0},"type":"Feature"},{"geometry":{"coordinates":[27.63414,62.89195],"type":"Point"},"properties":{"concentration_Be-7":2150.8,"concentration_Cs-137":1.0,"concentration_Pb-210":151.0,"concentration_air-volume":22764.0,"from_timestamp":"2021-08-30T09:35:00Z","id":"103432","site":"Kuopio","to_timestamp":"2021-09-06T12:06:00Z","uncertainty_Be-7-uncertainty":3.0,"uncertainty_Cs-137-uncertainty":22.0,"uncertainty_Pb-210-uncertainty":19.0},"type":"Feature"},{"geometry":{"coordinates":[27.63414,62.89195],"type":"Point"},"properties":{"concentration_Be-7":2401.4,"concentration_Pb-210":185.9,"concentration_air-volume":22420.0,"from_timestamp":"2021-08-23T11:59:00Z","id":"103432","site":"Kuopio","to_timestamp":"2021-08-30T09:32:00Z","uncertainty_Be-7-uncertainty":3.0,"uncertainty_Pb-210-uncertainty":17.0},"type":"Feature"},{"geometry":{"coordinates":[25.67774,66.51285],"type":"Point"},"properties":{"concentration_Be-7":2586.0,"concentration_Cs-137":0.2,"concentration_Na-22":0.3,"concentration_air-volume":145162.0,"from_timestamp":"2021-08-23T10:21:00Z","id":"103433","site":"Rovaniemi","to_timestamp":"2021-08-30T10:14:00Z","uncertainty_Be-7-uncertainty":7.0,"uncertainty_Cs-137-uncertainty":17.0,"uncertainty_Na-22-uncertainty":19.0},"type":"Feature"},{"geometry":{"coordinates":[25.67774,66.51285],"type":"Point"},"properties":{"concentration_Be-7":1046.0,"concentration_Cs-137":0.1,"concentration_Pb-210":83.6,"concentration_air-volume":143660.0,"from_timestamp":"2021-08-30T10:17:00Z","id":"103433","site":"Rovaniemi","to_timestamp":"2021-09-06T07:01:00Z","uncertainty_Be-7-uncertainty":6.0,"uncertainty_Cs-137-uncertainty":18.0,"uncertainty_Pb-210-uncertainty":8.0},"type":"Feature"},{"geometry":{"coordinates":[26.62807,67.36505],"type":"Point"},"properties":{"concentration_Be-7":2304.3,"concentration_Cs-137":0.4,"concentration_Pb-210":146.5,"concentration_air-volume":25629.0,"from_timestamp":"2021-08-23T06:30:00Z","id":"103434","site":"Sodankylä","to_timestamp":"2021-08-30T06:26:00Z","uncertainty_Be-7-uncertainty":6.0,"uncertainty_Cs-137-uncertainty":23.0,"uncertainty_Pb-210-uncertainty":8.0},"type":"Feature"},{"geometry":{"coordinates":[26.62807,67.36505],"type":"Point"},"properties":{"concentration_Be-7":1387.3,"concentration_air-volume":25438.0,"from_timestamp":"2021-08-30T06:27:00Z","id":"103434","site":"Sodankylä","to_timestamp":"2021-09-06T06:12:00Z","uncertainty_Be-7-uncertainty":6.0},"type":"Feature"},{"geometry":{"coordinates":[27.70835,64.08474],"type":"Point"},"properties":{"concentration_Be-7":238.7,"concentration_Pb-210":17.4,"concentration_air-volume":950732.0,"from_timestamp":"2021-08-23T12:00:00Z","id":"103435","site":"Kajaani","to_timestamp":"2021-08-30T12:10:00Z","uncertainty_Be-7-uncertainty":5.0,"uncertainty_Pb-210-uncertainty":5.0},"type":"Feature"},{"geometry":{"coordinates":[27.70835,64.08474],"type":"Point"},"properties":{"concentration_Be-7":1575.8,"concentration_Cs-137":0.2,"concentration_Na-22":0.2,"concentration_air-volume":107148.0,"from_timestamp":"2021-08-30T12:15:00Z","id":"103435","site":"Kajaani","to_timestamp":"2021-09-07T05:10:00Z","uncertainty_Be-7-uncertainty":7.0,"uncertainty_Cs-137-uncertainty":15.0,"uncertainty_Na-22-uncertainty":25.0},"type":"Feature"},{"geometry":{"coordinates":[25.05385,60.20905],"type":"Point"},"properties":{"concentration_Be-7":1840.4,"concentration_Pb-210":175.7,"concentration_air-volume":13992.0,"from_timestamp":"2021-08-26T08:01:00Z","id":"103428","site":"Helsinki","to_timestamp":"2021-08-27T07:58:00Z","uncertainty_Be-7-uncertainty":8.0,"uncertainty_Pb-210-uncertainty":7.0},"type":"Feature"},{"geometry":{"coordinates":[25.05385,60.20905],"type":"Point"},"properties":{"concentration_Be-7":2615.3,"concentration_Pb-210":314.8,"concentration_air-volume":14043.0,"from_timestamp":"2021-08-27T08:01:00Z","id":"103428","site":"Helsinki","to_timestamp":"2021-08-28T07:58:00Z","uncertainty_Be-7-uncertainty":8.0,"uncertainty_Pb-210-uncertainty":7.0},"type":"Feature"},{"geometry":{"coordinates":[25.05385,60.20905],"type":"Point"},"properties":{"concentration_Be-7":3006.3,"concentration_Pb-210":475.7,"concentration_air-volume":13635.0,"from_timestamp":"2021-08-28T08:01:00Z","id":"103428","site":"Helsinki","to_timestamp":"2021-08-29T07:58:00Z","uncertainty_Be-7-uncertainty":8.0,"uncertainty_Pb-210-uncertainty":6.0},"type":"Feature"},{"geometry":{"coordinates":[25.05385,60.20905],"type":"Point"},"properties":{"concentration_Be-7":3390.7,"concentration_Pb-210":422.6,"concentration_air-volume":13699.0,"from_timestamp":"2021-08-29T08:01:00Z","id":"103428","site":"Helsinki","to_timestamp":"2021-08-30T07:57:00Z","uncertainty_Be-7-uncertainty":8.0,"uncertainty_Pb-210-uncertainty":7.0},"type":"Feature"},{"geometry":{"coordinates":[25.05385,60.20905],"type":"Point"},"properties":{"concentration_Be-7":4140.3,"concentration_Pb-210":209.2,"concentration_air-volume":13492.0,"from_timestamp":"2021-08-30T08:01:00Z","id":"103428","site":"Helsinki","to_timestamp":"2021-08-31T07:57:00Z","uncertainty_Be-7-uncertainty":8.0,"uncertainty_Pb-210-uncertainty":7.0},"type":"Feature"},{"geometry":{"coordinates":[25.05385,60.20905],"type":"Point"},"properties":{"concentration_Be-7":3587.7,"concentration_Pb-210":180.4,"concentration_air-volume":13591.0,"from_timestamp":"2021-08-31T08:01:00Z","id":"103428","site":"Helsinki","to_timestamp":"2021-09-01T11:21:00Z","uncertainty_Be-7-uncertainty":8.0,"uncertainty_Pb-210-uncertainty":7.0},"type":"Feature"},{"geometry":{"coordinates":[25.05385,60.20905],"type":"Point"},"properties":{"concentration_Be-7":1888.1,"concentration_Cs-137":1.0,"concentration_Pb-210":46.7,"concentration_air-volume":12034.0,"from_timestamp":"2021-09-01T11:24:00Z","id":"103428","site":"Helsinki","to_timestamp":"2021-09-02T07:57:00Z","uncertainty_Be-7-uncertainty":8.0,"uncertainty_Cs-137-uncertainty":29.0,"uncertainty_Pb-210-uncertainty":10.0},"type":"Feature"}],"name":"stuk_open_data_air_radionuclides","type":"FeatureCollection"}