{"crs":{"properties":{"name":"urn:ogc:def:crs:OGC:1.3:CRS84"},"type":"name"},"features":[{"geometry":{"coordinates":[25.05385,60.20905],"type":"Point"},"properties":{"concentration_Be-7":2230.2,"concentration_Pb-210":58.3,"concentration_air-volume":13022.0,"from_timestamp":"2021-08-16T08:01:00Z","id":"103428","site":"Helsinki","to_timestamp":"2021-08-17T07:58:00Z","uncertainty_Be-7-uncertainty":8.0,"uncertainty_Pb-210-uncertainty":9.0},"type":"Feature"},{"geometry":{"coordinates":[25.05385,60.20905],"type":"Point"},"properties":{"concentration_Be-7":2897.1,"concentration_Pb-210":235.0,"concentration_air-volume":13092.0,"from_timestamp":"2021-08-11T08:01:00Z","id":"103428","site":"Helsinki","to_timestamp":"2021-08-12T07:58:00Z","uncertainty_Be-7-uncertainty":8.0,"uncertainty_Pb-210-uncertainty":7.0},"type":"Feature"},{"geometry":{"coordinates":[25.05385,60.20905],"type":"Point"},"properties":{"concentration_Be-7":1819.0,"concentration_Pb-210":128.7,"concentration_air-volume":13368.0,"from_timestamp":"2021-08-13T08:01:00Z","id":"103428","site":"Helsinki","to_timestamp":"2021-08-14T07:58:00Z","uncertainty_Be-7-uncertainty":8.0,"uncertainty_Pb-210-uncertainty":8.0},"type":"Feature"},{"geometry":{"coordinates":[25.05385,60.20905],"type":"Point"},"properties":{"concentration_Be-7":2413.5,"concentration_Pb-210":107.4,"concentration_air-volume":13279.0,"from_timestamp":"2021-08-10T08:01:00Z","id":"103428","site":"Helsinki","to_timestamp":"2021-08-11T07:58:00Z","uncertainty_Be-7-uncertainty":8.0,"uncertainty_Pb-210-uncertainty":10.0},"type":"Feature"},{"geometry":{"coordinates":[25.05385,60.20905],"type":"Point"},"properties":{"concentration_Be-7":3398.7,"concentration_Pb-210":287.6,"concentration_air-volume":13087.0,"from_timestamp":"2021-08-12T08:01:00Z","id":"103428","site":"Helsinki","to_timestamp":"2021-08-13T07:58:00Z","uncertainty_Be-7-uncertainty":8.0,"uncertainty_Pb-210-uncertainty":7.0},"type":"Feature"},{"geometry":{"coordinates":[25.05385,60.20905],"type":"Point"},"properties":{"concentration_Be-7":1602.8,"concentration_air-volume":13270.0,"from_timestamp":"2021-08-18T08:01:00Z","id":"103428","site":"Helsinki","to_timestamp":"2021-08-19T07:58:00Z","uncertainty_Be-7-uncertainty":8.0},"type":"Feature"},{"geometry":{"coordinates":[26.91808,60.48318],"type":"Point"},"properties":{"concentration_Be-7":2176.1,"concentration_Cs-137":0.7,"concentration_Na-22":0.3,"concentration_Pb-210":398.5,"concentration_air-volume":189612.0,"from_timestamp":"2021-08-09T06:32:00Z","id":"103429","site":"Kotka","to_timestamp":"2021-08-23T07:14:00Z","uncertainty_Be-7-uncertainty":7.0,"uncertainty_Cs-137-uncertainty":8.0,"uncertainty_Na-22-uncertainty":14.0,"uncertainty_Pb-210-uncertainty":24.0},"type":"Feature"},{"geometry":{"coordinates":[28.82663,61.13229],"type":"Point"},"properties":{"concentration_Be-7":3528.4,"concentration_air-volume":19259.0,"from_timestamp":"2021-08-09T05:07:00Z","id":"103430","site":"Imatra","to_timestamp":"2021-08-16T05:00:00Z","uncertainty_Be-7-uncertainty":6.0},"type":"Feature"},{"geometry":{"coordinates":[28.82663,61.13229],"type":"Point"},"properties":{"concentration_Be-7":2638.7,"concentration_Cs-137":0.7,"concentration_air-volume":19503.0,"from_timestamp":"2021-08-16T05:00:00Z","id":"103430","site":"Imatra","to_timestamp":"2021-08-23T04:05:00Z","uncertainty_Be-7-uncertainty":6.0,"uncertainty_Cs-137-uncertainty":23.0},"type":"Feature"},{"geometry":{"coordinates":[27.57,68.64],"type":"Point"},"properties":{"concentration_Be-7":2925.7,"concentration_Na-22":0.7,"concentration_Pb-210":203.9,"concentration_air-volume":24776.0,"from_timestamp":"2021-08-05T06:03:00Z","id":"103431","site":"Ivalo","to_timestamp":"2021-08-12T06:00:00Z","uncertainty_Be-7-uncertainty":6.0,"uncertainty_Na-22-uncertainty":28.0,"uncertainty_Pb-210-uncertainty":8.0},"type":"Feature"},{"geometry":{"coordinates":[27.57,68.64],"type":"Point"},"properties":{"concentration_Be-7":1840.9,"concentration_air-volume":24835.0,"from_timestamp":"2021-08-12T06:00:00Z","id":"103431","site":"Ivalo","to_timestamp":"2021-08-19T05:26:00Z","uncertainty_Be-7-uncertainty":6.0},"type":"Feature"},{"geometry":{"coordinates":[27.63414,62.89195],"type":"Point"},"properties":{"concentration_Be-7":1530.4,"concentration_Pb-210":157.0,"concentration_air-volume":22184.0,"from_timestamp":"2021-08-16T11:30:00Z","id":"103432","site":"Kuopio","to_timestamp":"2021-08-23T11:57:00Z","uncertainty_Be-7-uncertainty":3.0,"uncertainty_Pb-210-uncertainty":17.0},"type":"Feature"},{"geometry":{"coordinates":[25.67774,66.51285],"type":"Point"},"properties":{"concentration_Be-7":1700.2,"concentration_Cs-137":0.2,"concentration_Na-22":0.2,"concentration_Pb-210":42.5,"concentration_air-volume":141670.0,"from_timestamp":"2021-08-09T07:12:00Z","id":"103433","site":"Rovaniemi","to_timestamp":"2021-08-16T08:43:00Z","uncertainty_Be-7-uncertainty":5.0,"uncertainty_Cs-137-uncertainty":13.0,"uncertainty_Na-22-uncertainty":16.0,"uncertainty_Pb-210-uncertainty":9.0},"type":"Feature"},{"geometry":{"coordinates":[25.67774,66.51285],"type":"Point"},"properties":{"concentration_Be-7":1140.2,"concentration_Cs-137":0.2,"concentration_Na-22":0.2,"concentration_air-volume":144890.0,"from_timestamp":"2021-08-16T08:45:00Z","id":"103433","site":"Rovaniemi","to_timestamp":"2021-08-23T10:19:00Z","uncertainty_Be-7-uncertainty":5.0,"uncertainty_Cs-137-uncertainty":16.0,"uncertainty_Na-22-uncertainty":21.0},"type":"Feature"},{"geometry":{"coordinates":[26.62807,67.36505],"type":"Point"},"properties":{"concentration_Be-7":2037.3,"concentration_air-volume":24658.0,"from_timestamp":"2021-08-09T06:26:00Z","id":"103434","site":"Sodankylä","to_timestamp":"2021-08-16T06:16:00Z","uncertainty_Be-7-uncertainty":10.0},"type":"Feature"},{"geometry":{"coordinates":[26.62807,67.36505],"type":"Point"},"properties":{"concentration_Be-7":1354.1,"concentration_air-volume":25046.0,"from_timestamp":"2021-08-16T06:18:00Z","id":"103434","site":"Sodankylä","to_timestamp":"2021-08-23T06:30:00Z","uncertainty_Be-7-uncertainty":6.0},"type":"Feature"},{"geometry":{"coordinates":[27.70835,64.08474],"type":"Point"},"properties":{"concentration_Be-7":2410.1,"concentration_Cs-137":0.4,"concentration_Pb-210":260.6,"concentration_air-volume":94374.0,"from_timestamp":"2021-08-09T07:34:00Z","id":"103435","site":"Kajaani","to_timestamp":"2021-08-16T07:05:00Z","uncertainty_Be-7-uncertainty":5.0,"uncertainty_Cs-137-uncertainty":10.0,"uncertainty_Pb-210-uncertainty":5.0},"type":"Feature"},{"geometry":{"coordinates":[27.70835,64.08474],"type":"Point"},"properties":{"concentration_Be-7":1491.3,"concentration_Cs-137":0.6,"concentration_Na-22":0.2,"concentration_air-volume":97032.0,"from_timestamp":"2021-08-16T07:06:00Z","id":"103435","site":"Kajaani","to_timestamp":"2021-08-23T11:55:00Z","uncertainty_Be-7-uncertainty":7.0,"uncertainty_Cs-137-uncertainty":9.0,"uncertainty_Na-22-uncertainty":22.0},"type":"Feature"},{"geometry":{"coordinates":[25.05385,60.20905],"type":"Point"},"properties":{"concentration_Be-7":2230.2,"concentration_Pb-210":58.3,"concentration_air-volume":13022.0,"from_timestamp":"2021-08-16T08:01:00Z","id":"103428","site":"Helsinki","to_timestamp":"2021-08-17T07:58:00Z","uncertainty_Be-7-uncertainty":8.0,"uncertainty_Pb-210-uncertainty":9.0},"type":"Feature"},{"geometry":{"coordinates":[25.05385,60.20905],"type":"Point"},"properties":{"concentration_Be-7":2897.1,"concentration_Pb-210":235.0,"concentration_air-volume":13092.0,"from_timestamp":"2021-08-11T08:01:00Z","id":"103428","site":"Helsinki","to_timestamp":"2021-08-12T07:58:00Z","uncertainty_Be-7-uncertainty":8.0,"uncertainty_Pb-210-uncertainty":7.0},"type":"Feature"},{"geometry":{"coordinates":[25.05385,60.20905],"type":"Point"},"properties":{"concentration_Be-7":1819.0,"concentration_Pb-210":128.7,"concentration_air-volume":13368.0,"from_timestamp":"2021-08-13T08:01:00Z","id":"103428","site":"Helsinki","to_timestamp":"2021-08-14T07:58:00Z","uncertainty_Be-7-uncertainty":8.0,"uncertainty_Pb-210-uncertainty":8.0},"type":"Feature"},{"geometry":{"coordinates":[25.05385,60.20905],"type":"Point"},"properties":{"concentration_Be-7":2413.5,"concentration_Pb-210":107.4,"concentration_air-volume":13279.0,"from_timestamp":"2021-08-10T08:01:00Z","id":"103428","site":"Helsinki","to_timestamp":"2021-08-11T07:58:00Z","uncertainty_Be-7-uncertainty":8.0,"uncertainty_Pb-210-uncertainty":10.0},"type":"Feature"},{"geometry":{"coordinates":[25.05385,60.20905],"type":"Point"},"properties":{"concentration_Be-7":3398.7,"concentration_Pb-210":287.6,"concentration_air-volume":13087.0,"from_timestamp":"2021-08-12T08:01:00Z","id":"103428","site":"Helsinki","to_timestamp":"2021-08-13T07:58:00Z","uncertainty_Be-7-uncertainty":8.0,"uncertainty_Pb-210-uncertainty":7.0},"type":"Feature"},{"geometry":{"coordinates":[25.05385,60.20905],"type":"Point"},"properties":{"concentration_Be-7":1602.8,"concentration_air-volume":13270.0,"from_timestamp":"2021-08-18T08:01:00Z","id":"103428","site":"Helsinki","to_timestamp":"2021-08-19T07:58:00Z","uncertainty_Be-7-uncertainty":8.0},"type":"Feature"}],"name":"stuk_open_data_air_radionuclides","type":"FeatureCollection"}