{"crs":{"properties":{"name":"urn:ogc:def:crs:OGC:1.3:CRS84"},"type":"name"},"features":[{"geometry":{"coordinates":[25.05385,60.20905],"type":"Point"},"properties":{"concentration_Be-7":3733.9,"concentration_Cs-137":2.2,"concentration_Pb-210":1534.6,"concentration_air-volume":14748.0,"from_timestamp":"2021-03-10T08:01:00Z","id":"103428","site":"Helsinki","to_timestamp":"2021-03-12T08:47:00Z","uncertainty_Be-7-uncertainty":8.0,"uncertainty_Cs-137-uncertainty":24.0,"uncertainty_Pb-210-uncertainty":6.0},"type":"Feature"},{"geometry":{"coordinates":[25.05385,60.20905],"type":"Point"},"properties":{"concentration_Be-7":921.8,"concentration_air-volume":13347.0,"from_timestamp":"2021-03-13T08:01:00Z","id":"103428","site":"Helsinki","to_timestamp":"2021-03-15T06:35:00Z","uncertainty_Be-7-uncertainty":8.0},"type":"Feature"},{"geometry":{"coordinates":[25.05385,60.20905],"type":"Point"},"properties":{"concentration_Be-7":1930.5,"concentration_air-volume":12849.0,"from_timestamp":"2021-03-12T09:05:00Z","id":"103428","site":"Helsinki","to_timestamp":"2021-03-13T07:42:00Z","uncertainty_Be-7-uncertainty":5.0},"type":"Feature"},{"geometry":{"coordinates":[25.05385,60.20905],"type":"Point"},"properties":{"concentration_Be-7":1024.1,"concentration_Pb-210":206.5,"concentration_air-volume":14029.0,"from_timestamp":"2021-03-16T08:01:00Z","id":"103428","site":"Helsinki","to_timestamp":"2021-03-17T07:42:00Z","uncertainty_Be-7-uncertainty":8.0,"uncertainty_Pb-210-uncertainty":7.0},"type":"Feature"},{"geometry":{"coordinates":[25.05385,60.20905],"type":"Point"},"properties":{"concentration_Be-7":624.8,"concentration_Pb-210":48.4,"concentration_air-volume":13988.0,"from_timestamp":"2021-03-15T08:01:00Z","id":"103428","site":"Helsinki","to_timestamp":"2021-03-16T07:42:00Z","uncertainty_Be-7-uncertainty":8.0,"uncertainty_Pb-210-uncertainty":13.0},"type":"Feature"},{"geometry":{"coordinates":[25.05385,60.20905],"type":"Point"},"properties":{"concentration_Be-7":828.2,"concentration_Pb-210":253.8,"concentration_air-volume":14450.0,"from_timestamp":"2021-03-17T08:01:00Z","id":"103428","site":"Helsinki","to_timestamp":"2021-03-18T07:42:00Z","uncertainty_Be-7-uncertainty":8.0,"uncertainty_Pb-210-uncertainty":7.0},"type":"Feature"},{"geometry":{"coordinates":[25.05385,60.20905],"type":"Point"},"properties":{"concentration_Be-7":1741.5,"concentration_Pb-210":123.5,"concentration_air-volume":14539.0,"from_timestamp":"2021-03-18T08:01:00Z","id":"103428","site":"Helsinki","to_timestamp":"2021-03-19T07:42:00Z","uncertainty_Be-7-uncertainty":8.0,"uncertainty_Pb-210-uncertainty":8.0},"type":"Feature"},{"geometry":{"coordinates":[25.05385,60.20905],"type":"Point"},"properties":{"concentration_Be-7":2224.5,"concentration_Pb-210":168.9,"concentration_air-volume":14194.0,"from_timestamp":"2021-03-19T08:01:00Z","id":"103428","site":"Helsinki","to_timestamp":"2021-03-20T07:42:00Z","uncertainty_Be-7-uncertainty":8.0,"uncertainty_Pb-210-uncertainty":7.0},"type":"Feature"},{"geometry":{"coordinates":[26.91808,60.48318],"type":"Point"},"properties":{"concentration_Be-7":2623.1,"concentration_Cs-137":1.2,"concentration_Na-22":0.3,"concentration_Pb-210":906.1,"concentration_air-volume":113352.0,"from_timestamp":"2021-03-08T06:55:00Z","id":"103429","site":"Kotka","to_timestamp":"2021-03-16T06:10:00Z","uncertainty_Be-7-uncertainty":5.0,"uncertainty_Cs-137-uncertainty":6.0,"uncertainty_Na-22-uncertainty":14.0,"uncertainty_Pb-210-uncertainty":5.0},"type":"Feature"},{"geometry":{"coordinates":[26.91808,60.48318],"type":"Point"},"properties":{"concentration_Be-7":1245.8,"concentration_Cs-137":0.9,"concentration_Pb-210":182.2,"concentration_air-volume":91364.0,"from_timestamp":"2021-03-16T06:20:00Z","id":"103429","site":"Kotka","to_timestamp":"2021-03-22T12:24:00Z","uncertainty_Be-7-uncertainty":6.0,"uncertainty_Cs-137-uncertainty":7.0,"uncertainty_Pb-210-uncertainty":8.0},"type":"Feature"},{"geometry":{"coordinates":[28.82663,61.13229],"type":"Point"},"properties":{"concentration_Be-7":2372.5,"concentration_Cs-137":1.8,"concentration_Pb-210":516.3,"concentration_air-volume":21152.0,"from_timestamp":"2021-03-11T05:05:00Z","id":"103430","site":"Imatra","to_timestamp":"2021-03-18T05:30:00Z","uncertainty_Be-7-uncertainty":6.0,"uncertainty_Cs-137-uncertainty":10.0,"uncertainty_Pb-210-uncertainty":8.0},"type":"Feature"},{"geometry":{"coordinates":[28.82663,61.13229],"type":"Point"},"properties":{"concentration_Be-7":1724.0,"concentration_Cs-137":3.2,"concentration_air-volume":14670.0,"from_timestamp":"2021-03-18T05:30:00Z","id":"103430","site":"Imatra","to_timestamp":"2021-03-23T04:15:00Z","uncertainty_Be-7-uncertainty":6.0,"uncertainty_Cs-137-uncertainty":9.0},"type":"Feature"},{"geometry":{"coordinates":[27.63414,62.89195],"type":"Point"},"properties":{"concentration_Be-7":4217.5,"concentration_Pb-210":967.0,"concentration_air-volume":23012.0,"from_timestamp":"2021-03-08T10:56:00Z","id":"103432","site":"Kuopio","to_timestamp":"2021-03-15T11:33:00Z","uncertainty_Be-7-uncertainty":3.0,"uncertainty_Pb-210-uncertainty":5.0},"type":"Feature"},{"geometry":{"coordinates":[27.63414,62.89195],"type":"Point"},"properties":{"concentration_Be-7":1638.2,"concentration_Pb-210":235.2,"concentration_air-volume":24032.0,"from_timestamp":"2021-03-15T11:35:00Z","id":"103432","site":"Kuopio","to_timestamp":"2021-03-22T11:17:00Z","uncertainty_Be-7-uncertainty":3.0,"uncertainty_Pb-210-uncertainty":11.0},"type":"Feature"},{"geometry":{"coordinates":[25.67774,66.51285],"type":"Point"},"properties":{"concentration_Be-7":2687.0,"concentration_Cs-137":0.6,"concentration_Na-22":0.3,"concentration_Pb-210":802.9,"concentration_air-volume":137685.0,"from_timestamp":"2021-03-08T08:47:00Z","id":"103433","site":"Rovaniemi","to_timestamp":"2021-03-15T07:56:00Z","uncertainty_Be-7-uncertainty":5.0,"uncertainty_Cs-137-uncertainty":8.0,"uncertainty_Na-22-uncertainty":13.0,"uncertainty_Pb-210-uncertainty":5.0},"type":"Feature"},{"geometry":{"coordinates":[25.67774,66.51285],"type":"Point"},"properties":{"concentration_Be-7":1704.7,"concentration_Cs-137":0.2,"concentration_air-volume":146120.0,"from_timestamp":"2021-03-15T07:58:00Z","id":"103433","site":"Rovaniemi","to_timestamp":"2021-03-22T08:47:00Z","uncertainty_Be-7-uncertainty":7.0,"uncertainty_Cs-137-uncertainty":12.0},"type":"Feature"},{"geometry":{"coordinates":[26.62807,67.36505],"type":"Point"},"properties":{"concentration_Be-7":2741.7,"concentration_Cs-137":0.8,"concentration_Pb-210":592.0,"concentration_air-volume":25789.0,"from_timestamp":"2021-03-11T06:21:00Z","id":"103434","site":"Sodankylä","to_timestamp":"2021-03-18T06:37:00Z","uncertainty_Be-7-uncertainty":6.0,"uncertainty_Cs-137-uncertainty":13.0,"uncertainty_Pb-210-uncertainty":8.0},"type":"Feature"},{"geometry":{"coordinates":[26.62807,67.36505],"type":"Point"},"properties":{"concentration_Be-7":2010.9,"concentration_air-volume":25884.0,"from_timestamp":"2021-03-18T06:37:00Z","id":"103434","site":"Sodankylä","to_timestamp":"2021-03-25T06:41:00Z","uncertainty_Be-7-uncertainty":6.0},"type":"Feature"},{"geometry":{"coordinates":[27.70835,64.08474],"type":"Point"},"properties":{"concentration_Be-7":3027.0,"concentration_Co-60":0.1,"concentration_Cs-137":0.4,"concentration_Na-22":0.4,"concentration_Pb-210":811.0,"concentration_air-volume":163262.0,"from_timestamp":"2021-03-08T10:37:00Z","id":"103435","site":"Kajaani","to_timestamp":"2021-03-16T04:00:00Z","uncertainty_Be-7-uncertainty":6.0,"uncertainty_Co-60-uncertainty":16.0,"uncertainty_Cs-137-uncertainty":8.0,"uncertainty_Na-22-uncertainty":11.0,"uncertainty_Pb-210-uncertainty":8.0},"type":"Feature"},{"geometry":{"coordinates":[27.70835,64.08474],"type":"Point"},"properties":{"concentration_Be-7":1735.6,"concentration_Cs-137":0.2,"concentration_Na-22":0.2,"concentration_Pb-210":573.1,"concentration_air-volume":133789.0,"from_timestamp":"2021-03-16T04:03:00Z","id":"103435","site":"Kajaani","to_timestamp":"2021-03-22T10:06:00Z","uncertainty_Be-7-uncertainty":7.0,"uncertainty_Cs-137-uncertainty":13.0,"uncertainty_Na-22-uncertainty":18.0,"uncertainty_Pb-210-uncertainty":25.0},"type":"Feature"}],"name":"stuk_open_data_air_radionuclides","type":"FeatureCollection"}