{"crs":{"properties":{"name":"urn:ogc:def:crs:OGC:1.3:CRS84"},"type":"name"},"features":[{"geometry":{"coordinates":[25.05385,60.20905],"type":"Point"},"properties":{"concentration_Be-7":5281.4,"concentration_Pb-210":372.6,"concentration_air-volume":13227.0,"from_timestamp":"2021-07-25T08:01:00Z","id":"103428","site":"Helsinki","to_timestamp":"2021-07-26T07:59:00Z","uncertainty_Be-7-uncertainty":8.0,"uncertainty_Pb-210-uncertainty":8.0},"type":"Feature"},{"geometry":{"coordinates":[25.05385,60.20905],"type":"Point"},"properties":{"concentration_Be-7":4120.6,"concentration_Pb-210":280.3,"concentration_air-volume":13308.0,"from_timestamp":"2021-08-02T08:01:00Z","id":"103428","site":"Helsinki","to_timestamp":"2021-08-03T07:59:00Z","uncertainty_Be-7-uncertainty":8.0,"uncertainty_Pb-210-uncertainty":6.0},"type":"Feature"},{"geometry":{"coordinates":[26.91808,60.48318],"type":"Point"},"properties":{"concentration_Be-7":3510.0,"concentration_Cs-137":1.2,"concentration_Na-22":0.6,"concentration_Pb-210":330.9,"concentration_air-volume":94569.0,"from_timestamp":"2021-07-26T08:49:00Z","id":"103429","site":"Kotka","to_timestamp":"2021-08-02T08:00:00Z","uncertainty_Be-7-uncertainty":6.0,"uncertainty_Cs-137-uncertainty":8.0,"uncertainty_Na-22-uncertainty":14.0,"uncertainty_Pb-210-uncertainty":8.0},"type":"Feature"},{"geometry":{"coordinates":[26.91808,60.48318],"type":"Point"},"properties":{"concentration_Be-7":2471.9,"concentration_Cs-137":1.0,"concentration_Na-22":0.3,"concentration_Pb-210":37.8,"concentration_air-volume":85667.0,"from_timestamp":"2021-07-20T06:25:00Z","id":"103429","site":"Kotka","to_timestamp":"2021-07-26T08:46:00Z","uncertainty_Be-7-uncertainty":5.0,"uncertainty_Cs-137-uncertainty":7.0,"uncertainty_Na-22-uncertainty":17.0,"uncertainty_Pb-210-uncertainty":13.0},"type":"Feature"},{"geometry":{"coordinates":[26.91808,60.48318],"type":"Point"},"properties":{"concentration_Be-7":2756.3,"concentration_Cs-137":0.9,"concentration_Na-22":0.3,"concentration_Pb-210":42.6,"concentration_air-volume":97250.0,"from_timestamp":"2021-08-02T08:00:00Z","id":"103429","site":"Kotka","to_timestamp":"2021-08-09T08:27:00Z","uncertainty_Be-7-uncertainty":5.0,"uncertainty_Cs-137-uncertainty":7.0,"uncertainty_Na-22-uncertainty":14.0,"uncertainty_Pb-210-uncertainty":11.0},"type":"Feature"},{"geometry":{"coordinates":[28.82663,61.13229],"type":"Point"},"properties":{"concentration_Be-7":5259.7,"concentration_Pb-210":110.7,"concentration_air-volume":17487.0,"from_timestamp":"2021-07-22T04:47:00Z","id":"103430","site":"Imatra","to_timestamp":"2021-07-29T04:49:00Z","uncertainty_Be-7-uncertainty":6.0,"uncertainty_Pb-210-uncertainty":22.0},"type":"Feature"},{"geometry":{"coordinates":[28.82663,61.13229],"type":"Point"},"properties":{"concentration_Be-7":3557.1,"concentration_Cs-137":0.7,"concentration_Na-22":1.0,"concentration_Pb-210":280.8,"concentration_air-volume":27784.0,"from_timestamp":"2021-07-29T04:50:00Z","id":"103430","site":"Imatra","to_timestamp":"2021-08-09T05:05:00Z","uncertainty_Be-7-uncertainty":6.0,"uncertainty_Cs-137-uncertainty":14.0,"uncertainty_Na-22-uncertainty":21.0,"uncertainty_Pb-210-uncertainty":8.0},"type":"Feature"},{"geometry":{"coordinates":[27.57,68.64],"type":"Point"},"properties":{"concentration_Be-7":1330.3,"concentration_Pb-210":99.5,"concentration_air-volume":25235.0,"from_timestamp":"2021-07-22T05:38:00Z","id":"103431","site":"Ivalo","to_timestamp":"2021-07-29T06:08:00Z","uncertainty_Be-7-uncertainty":6.0,"uncertainty_Pb-210-uncertainty":8.0},"type":"Feature"},{"geometry":{"coordinates":[27.57,68.64],"type":"Point"},"properties":{"concentration_Be-7":1126.8,"concentration_Pb-210":110.1,"concentration_air-volume":25105.0,"from_timestamp":"2021-07-29T06:11:00Z","id":"103431","site":"Ivalo","to_timestamp":"2021-08-05T06:01:00Z","uncertainty_Be-7-uncertainty":6.0,"uncertainty_Pb-210-uncertainty":8.0},"type":"Feature"},{"geometry":{"coordinates":[27.63414,62.89195],"type":"Point"},"properties":{"concentration_Be-7":2132.4,"concentration_Pb-210":140.1,"concentration_air-volume":22640.0,"from_timestamp":"2021-07-19T09:08:00Z","id":"103432","site":"Kuopio","to_timestamp":"2021-07-26T11:07:00Z","uncertainty_Be-7-uncertainty":3.0,"uncertainty_Pb-210-uncertainty":22.0},"type":"Feature"},{"geometry":{"coordinates":[27.63414,62.89195],"type":"Point"},"properties":{"concentration_Be-7":5830.2,"concentration_Pb-210":404.9,"concentration_air-volume":21678.0,"from_timestamp":"2021-07-26T11:08:00Z","id":"103432","site":"Kuopio","to_timestamp":"2021-08-02T11:07:00Z","uncertainty_Be-7-uncertainty":3.0,"uncertainty_Pb-210-uncertainty":10.0},"type":"Feature"},{"geometry":{"coordinates":[27.63414,62.89195],"type":"Point"},"properties":{"concentration_Be-7":2872.3,"concentration_air-volume":21949.0,"from_timestamp":"2021-08-02T11:10:00Z","id":"103432","site":"Kuopio","to_timestamp":"2021-08-09T09:47:00Z","uncertainty_Be-7-uncertainty":3.0},"type":"Feature"},{"geometry":{"coordinates":[25.67774,66.51285],"type":"Point"},"properties":{"concentration_Be-7":1253.6,"concentration_Na-22":0.1,"concentration_air-volume":141895.0,"from_timestamp":"2021-07-19T07:40:00Z","id":"103433","site":"Rovaniemi","to_timestamp":"2021-07-26T06:35:00Z","uncertainty_Be-7-uncertainty":7.0,"uncertainty_Na-22-uncertainty":20.0},"type":"Feature"},{"geometry":{"coordinates":[25.67774,66.51285],"type":"Point"},"properties":{"concentration_Be-7":2959.4,"concentration_Cs-137":0.2,"concentration_Na-22":0.4,"concentration_Pb-210":683.9,"concentration_air-volume":140424.0,"from_timestamp":"2021-07-26T06:45:00Z","id":"103433","site":"Rovaniemi","to_timestamp":"2021-08-02T08:30:00Z","uncertainty_Be-7-uncertainty":7.0,"uncertainty_Cs-137-uncertainty":14.0,"uncertainty_Na-22-uncertainty":13.0,"uncertainty_Pb-210-uncertainty":30.0},"type":"Feature"},{"geometry":{"coordinates":[25.67774,66.51285],"type":"Point"},"properties":{"concentration_Be-7":2510.1,"concentration_Cs-137":0.2,"concentration_Na-22":0.2,"concentration_air-volume":141336.0,"from_timestamp":"2021-08-02T08:45:00Z","id":"103433","site":"Rovaniemi","to_timestamp":"2021-08-09T07:09:00Z","uncertainty_Be-7-uncertainty":7.0,"uncertainty_Cs-137-uncertainty":14.0,"uncertainty_Na-22-uncertainty":15.0},"type":"Feature"},{"geometry":{"coordinates":[26.62807,67.36505],"type":"Point"},"properties":{"concentration_Be-7":1050.9,"concentration_Pb-210":64.4,"concentration_air-volume":25022.0,"from_timestamp":"2021-07-19T06:29:00Z","id":"103434","site":"Sodankylä","to_timestamp":"2021-07-26T06:26:00Z","uncertainty_Be-7-uncertainty":6.0,"uncertainty_Pb-210-uncertainty":8.0},"type":"Feature"},{"geometry":{"coordinates":[26.62807,67.36505],"type":"Point"},"properties":{"concentration_Be-7":2805.2,"concentration_air-volume":24601.0,"from_timestamp":"2021-07-26T06:26:00Z","id":"103434","site":"Sodankylä","to_timestamp":"2021-08-02T05:56:00Z","uncertainty_Be-7-uncertainty":6.0},"type":"Feature"},{"geometry":{"coordinates":[26.62807,67.36505],"type":"Point"},"properties":{"concentration_Be-7":2069.7,"concentration_Cs-137":0.3,"concentration_Pb-210":133.6,"concentration_air-volume":24934.0,"from_timestamp":"2021-08-02T05:58:00Z","id":"103434","site":"Sodankylä","to_timestamp":"2021-08-09T06:25:00Z","uncertainty_Be-7-uncertainty":6.0,"uncertainty_Cs-137-uncertainty":28.0,"uncertainty_Pb-210-uncertainty":8.0},"type":"Feature"},{"geometry":{"coordinates":[27.70835,64.08474],"type":"Point"},"properties":{"concentration_Be-7":1799.0,"concentration_air-volume":102814.0,"from_timestamp":"2021-07-19T07:35:00Z","id":"103435","site":"Kajaani","to_timestamp":"2021-07-26T21:55:00Z","uncertainty_Be-7-uncertainty":7.0},"type":"Feature"},{"geometry":{"coordinates":[27.70835,64.08474],"type":"Point"},"properties":{"concentration_Be-7":3710.2,"concentration_Cs-137":0.3,"concentration_Na-22":0.5,"concentration_Pb-210":300.2,"concentration_air-volume":86930.0,"from_timestamp":"2021-07-26T21:55:00Z","id":"103435","site":"Kajaani","to_timestamp":"2021-08-02T10:42:00Z","uncertainty_Be-7-uncertainty":5.0,"uncertainty_Cs-137-uncertainty":15.0,"uncertainty_Na-22-uncertainty":13.0,"uncertainty_Pb-210-uncertainty":5.0},"type":"Feature"},{"geometry":{"coordinates":[27.70835,64.08474],"type":"Point"},"properties":{"concentration_Be-7":2132.5,"concentration_Cs-137":0.1,"concentration_Na-22":0.3,"concentration_Pb-210":173.1,"concentration_air-volume":93803.0,"from_timestamp":"2021-08-02T10:48:00Z","id":"103435","site":"Kajaani","to_timestamp":"2021-08-09T07:30:00Z","uncertainty_Be-7-uncertainty":5.0,"uncertainty_Cs-137-uncertainty":19.0,"uncertainty_Na-22-uncertainty":15.0,"uncertainty_Pb-210-uncertainty":5.0},"type":"Feature"},{"geometry":{"coordinates":[25.05385,60.20905],"type":"Point"},"properties":{"concentration_Be-7":5281.4,"concentration_Pb-210":372.6,"concentration_air-volume":13227.0,"from_timestamp":"2021-07-25T08:01:00Z","id":"103428","site":"Helsinki","to_timestamp":"2021-07-26T07:59:00Z","uncertainty_Be-7-uncertainty":8.0,"uncertainty_Pb-210-uncertainty":8.0},"type":"Feature"},{"geometry":{"coordinates":[25.05385,60.20905],"type":"Point"},"properties":{"concentration_Be-7":4120.6,"concentration_Pb-210":280.3,"concentration_air-volume":13308.0,"from_timestamp":"2021-08-02T08:01:00Z","id":"103428","site":"Helsinki","to_timestamp":"2021-08-03T07:59:00Z","uncertainty_Be-7-uncertainty":8.0,"uncertainty_Pb-210-uncertainty":6.0},"type":"Feature"}],"name":"stuk_open_data_air_radionuclides","type":"FeatureCollection"}