{"crs":{"properties":{"name":"urn:ogc:def:crs:OGC:1.3:CRS84"},"type":"name"},"features":[{"geometry":{"coordinates":[25.05385,60.20905],"type":"Point"},"properties":{"concentration_Be-7":2961.1,"concentration_Pb-210":189.0,"concentration_air-volume":13697.0,"from_timestamp":"2021-05-08T08:01:00Z","id":"103428","site":"Helsinki","to_timestamp":"2021-05-09T07:40:00Z","uncertainty_Be-7-uncertainty":8.0,"uncertainty_Pb-210-uncertainty":7.0},"type":"Feature"},{"geometry":{"coordinates":[25.05385,60.20905],"type":"Point"},"properties":{"concentration_Be-7":4461.0,"concentration_Pb-210":245.3,"concentration_air-volume":13399.0,"from_timestamp":"2021-05-09T08:01:00Z","id":"103428","site":"Helsinki","to_timestamp":"2021-05-10T07:39:00Z","uncertainty_Be-7-uncertainty":8.0,"uncertainty_Pb-210-uncertainty":7.0},"type":"Feature"},{"geometry":{"coordinates":[25.05385,60.20905],"type":"Point"},"properties":{"concentration_Be-7":5030.0,"concentration_Pb-210":238.8,"concentration_air-volume":12808.0,"from_timestamp":"2021-05-10T08:01:00Z","id":"103428","site":"Helsinki","to_timestamp":"2021-05-11T07:39:00Z","uncertainty_Be-7-uncertainty":8.0,"uncertainty_Pb-210-uncertainty":7.0},"type":"Feature"},{"geometry":{"coordinates":[25.05385,60.20905],"type":"Point"},"properties":{"concentration_Be-7":5226.7,"concentration_Pb-210":490.7,"concentration_air-volume":12087.0,"from_timestamp":"2021-05-13T08:01:00Z","id":"103428","site":"Helsinki","to_timestamp":"2021-05-14T11:05:00Z","uncertainty_Be-7-uncertainty":8.0,"uncertainty_Pb-210-uncertainty":7.0},"type":"Feature"},{"geometry":{"coordinates":[25.05385,60.20905],"type":"Point"},"properties":{"concentration_Be-7":8737.1,"concentration_Pb-210":503.0,"concentration_air-volume":12381.0,"from_timestamp":"2021-05-12T08:01:00Z","id":"103428","site":"Helsinki","to_timestamp":"2021-05-13T07:39:00Z","uncertainty_Be-7-uncertainty":8.0,"uncertainty_Pb-210-uncertainty":7.0},"type":"Feature"},{"geometry":{"coordinates":[26.91808,60.48318],"type":"Point"},"properties":{"concentration_Be-7":2107.1,"concentration_Cs-137":0.6,"concentration_Na-22":0.3,"concentration_Pb-210":157.2,"concentration_air-volume":105075.0,"from_timestamp":"2021-05-03T08:12:00Z","id":"103429","site":"Kotka","to_timestamp":"2021-05-10T14:45:00Z","uncertainty_Be-7-uncertainty":6.0,"uncertainty_Cs-137-uncertainty":9.0,"uncertainty_Na-22-uncertainty":20.0,"uncertainty_Pb-210-uncertainty":8.0},"type":"Feature"},{"geometry":{"coordinates":[26.91808,60.48318],"type":"Point"},"properties":{"concentration_Be-7":4659.1,"concentration_Cs-137":3.1,"concentration_Na-22":0.6,"concentration_Pb-210":66.4,"concentration_air-volume":121378.0,"from_timestamp":"2021-05-10T14:50:00Z","id":"103429","site":"Kotka","to_timestamp":"2021-05-17T15:02:00Z","uncertainty_Be-7-uncertainty":5.0,"uncertainty_Cs-137-uncertainty":5.0,"uncertainty_Na-22-uncertainty":9.0,"uncertainty_Pb-210-uncertainty":8.0},"type":"Feature"},{"geometry":{"coordinates":[28.82663,61.13229],"type":"Point"},"properties":{"concentration_Be-7":3081.5,"concentration_Cs-137":1.8,"concentration_air-volume":20104.0,"from_timestamp":"2021-05-03T04:20:00Z","id":"103430","site":"Imatra","to_timestamp":"2021-05-10T04:30:00Z","uncertainty_Be-7-uncertainty":10.0,"uncertainty_Cs-137-uncertainty":13.0},"type":"Feature"},{"geometry":{"coordinates":[28.82663,61.13229],"type":"Point"},"properties":{"concentration_Be-7":5857.2,"concentration_Cs-137":1.5,"concentration_Na-22":0.6,"concentration_Pb-210":679.5,"concentration_air-volume":27041.0,"from_timestamp":"2021-05-10T04:32:00Z","id":"103430","site":"Imatra","to_timestamp":"2021-05-20T05:00:00Z","uncertainty_Be-7-uncertainty":6.0,"uncertainty_Cs-137-uncertainty":10.0,"uncertainty_Na-22-uncertainty":28.0,"uncertainty_Pb-210-uncertainty":20.0},"type":"Feature"},{"geometry":{"coordinates":[27.57,68.64],"type":"Point"},"properties":{"concentration_Be-7":1183.0,"concentration_air-volume":29543.0,"from_timestamp":"2021-05-06T05:57:00Z","id":"103431","site":"Ivalo","to_timestamp":"2021-05-13T06:53:00Z","uncertainty_Be-7-uncertainty":10.0},"type":"Feature"},{"geometry":{"coordinates":[27.57,68.64],"type":"Point"},"properties":{"concentration_Be-7":1624.0,"concentration_air-volume":25007.0,"from_timestamp":"2021-05-13T06:54:00Z","id":"103431","site":"Ivalo","to_timestamp":"2021-05-20T06:20:00Z","uncertainty_Be-7-uncertainty":10.0},"type":"Feature"},{"geometry":{"coordinates":[27.63414,62.89195],"type":"Point"},"properties":{"concentration_Be-7":3103.3,"concentration_Pb-210":236.1,"concentration_air-volume":22533.0,"from_timestamp":"2021-05-03T12:12:00Z","id":"103432","site":"Kuopio","to_timestamp":"2021-05-10T11:35:00Z","uncertainty_Be-7-uncertainty":3.0,"uncertainty_Pb-210-uncertainty":14.0},"type":"Feature"},{"geometry":{"coordinates":[27.63414,62.89195],"type":"Point"},"properties":{"concentration_Be-7":6380.4,"concentration_Cs-137":3.7,"concentration_Pb-210":608.2,"concentration_air-volume":20164.0,"from_timestamp":"2021-05-10T11:37:00Z","id":"103432","site":"Kuopio","to_timestamp":"2021-05-17T08:59:00Z","uncertainty_Be-7-uncertainty":3.0,"uncertainty_Cs-137-uncertainty":8.0,"uncertainty_Pb-210-uncertainty":9.0},"type":"Feature"},{"geometry":{"coordinates":[25.67774,66.51285],"type":"Point"},"properties":{"concentration_Be-7":1259.8,"concentration_air-volume":141620.0,"from_timestamp":"2021-05-03T11:37:00Z","id":"103433","site":"Rovaniemi","to_timestamp":"2021-05-10T09:12:00Z","uncertainty_Be-7-uncertainty":5.0},"type":"Feature"},{"geometry":{"coordinates":[25.67774,66.51285],"type":"Point"},"properties":{"concentration_Be-7":909.0,"concentration_Cs-137":0.1,"concentration_Pb-210":250.9,"concentration_air-volume":141225.0,"from_timestamp":"2021-05-10T09:15:00Z","id":"103433","site":"Rovaniemi","to_timestamp":"2021-05-17T07:03:00Z","uncertainty_Be-7-uncertainty":6.0,"uncertainty_Cs-137-uncertainty":18.0,"uncertainty_Pb-210-uncertainty":20.0},"type":"Feature"},{"geometry":{"coordinates":[26.62807,67.36505],"type":"Point"},"properties":{"concentration_Be-7":1478.1,"concentration_air-volume":25749.0,"from_timestamp":"2021-05-03T06:34:00Z","id":"103434","site":"Sodankylä","to_timestamp":"2021-05-10T06:33:00Z","uncertainty_Be-7-uncertainty":6.0},"type":"Feature"},{"geometry":{"coordinates":[26.62807,67.36505],"type":"Point"},"properties":{"concentration_Be-7":330.2,"concentration_Pb-210":51.3,"concentration_air-volume":123175.0,"from_timestamp":"2021-05-10T06:33:00Z","id":"103434","site":"Sodankylä","to_timestamp":"2021-05-17T06:11:00Z","uncertainty_Be-7-uncertainty":6.0,"uncertainty_Pb-210-uncertainty":20.0},"type":"Feature"},{"geometry":{"coordinates":[27.70835,64.08474],"type":"Point"},"properties":{"concentration_Be-7":1975.4,"concentration_Na-22":0.2,"concentration_Pb-210":35.7,"concentration_air-volume":97552.0,"from_timestamp":"2021-05-03T14:00:00Z","id":"103435","site":"Kajaani","to_timestamp":"2021-05-10T13:21:00Z","uncertainty_Be-7-uncertainty":5.0,"uncertainty_Na-22-uncertainty":30.0,"uncertainty_Pb-210-uncertainty":14.0},"type":"Feature"},{"geometry":{"coordinates":[27.70835,64.08474],"type":"Point"},"properties":{"concentration_Be-7":3478.5,"concentration_Cs-137":1.2,"concentration_Na-22":0.6,"concentration_Pb-210":54.6,"concentration_air-volume":92383.0,"from_timestamp":"2021-05-10T13:30:00Z","id":"103435","site":"Kajaani","to_timestamp":"2021-05-17T14:38:00Z","uncertainty_Be-7-uncertainty":5.0,"uncertainty_Cs-137-uncertainty":7.0,"uncertainty_Na-22-uncertainty":13.0,"uncertainty_Pb-210-uncertainty":13.0},"type":"Feature"}],"name":"stuk_open_data_air_radionuclides","type":"FeatureCollection"}