{"crs":{"properties":{"name":"urn:ogc:def:crs:OGC:1.3:CRS84"},"type":"name"},"features":[{"geometry":{"coordinates":[26.91808,60.48318],"type":"Point"},"properties":{"concentration_Be-7":1945.2,"concentration_Cs-137":1.1,"concentration_Mn-54":0.3,"concentration_Na-22":0.3,"concentration_Pb-210":221.4,"concentration_air-volume":96141.0,"from_timestamp":"2022-05-30T13:20:00Z","id":"103429","site":"Kotka","to_timestamp":"2022-06-06T08:55:00Z","uncertainty_Be-7-uncertainty":5.0,"uncertainty_Cs-137-uncertainty":7.0,"uncertainty_Mn-54-uncertainty":14.0,"uncertainty_Na-22-uncertainty":18.0,"uncertainty_Pb-210-uncertainty":5.0},"type":"Feature"},{"geometry":{"coordinates":[26.91808,60.48318],"type":"Point"},"properties":{"concentration_Be-7":2328.6,"concentration_Cs-137":2.2,"concentration_Na-22":0.4,"concentration_Pb-210":269.7,"concentration_air-volume":100265.0,"from_timestamp":"2022-06-06T09:08:00Z","id":"103429","site":"Kotka","to_timestamp":"2022-06-13T11:18:00Z","uncertainty_Be-7-uncertainty":5.0,"uncertainty_Cs-137-uncertainty":6.0,"uncertainty_Na-22-uncertainty":14.0,"uncertainty_Pb-210-uncertainty":5.0},"type":"Feature"},{"geometry":{"coordinates":[28.82663,61.13229],"type":"Point"},"properties":{"concentration_Be-7":3709.3,"concentration_Cs-137":1.5,"concentration_Na-22":0.6,"concentration_air-volume":31873.0,"from_timestamp":"2022-06-02T04:07:00Z","id":"103430","site":"Imatra","to_timestamp":"2022-06-13T05:15:00Z","uncertainty_Be-7-uncertainty":10.0,"uncertainty_Cs-137-uncertainty":11.0,"uncertainty_Na-22-uncertainty":22.0},"type":"Feature"},{"geometry":{"coordinates":[27.57,68.64],"type":"Point"},"properties":{"concentration_Be-7":2680.9,"concentration_Na-22":0.8,"concentration_air-volume":24461.0,"from_timestamp":"2022-06-02T05:25:00Z","id":"103431","site":"Ivalo","to_timestamp":"2022-06-09T09:27:00Z","uncertainty_Be-7-uncertainty":10.0,"uncertainty_Na-22-uncertainty":23.0},"type":"Feature"},{"geometry":{"coordinates":[27.57,68.64],"type":"Point"},"properties":{"concentration_Be-7":2223.3,"concentration_air-volume":23540.0,"from_timestamp":"2022-06-09T09:30:00Z","id":"103431","site":"Ivalo","to_timestamp":"2022-06-16T07:28:00Z","uncertainty_Be-7-uncertainty":10.0},"type":"Feature"},{"geometry":{"coordinates":[27.63414,62.89195],"type":"Point"},"properties":{"concentration_Be-7":2787.7,"concentration_Pb-210":218.0,"concentration_air-volume":21955.0,"from_timestamp":"2022-05-30T08:16:00Z","id":"103432","site":"Kuopio","to_timestamp":"2022-06-06T08:35:00Z","uncertainty_Be-7-uncertainty":3.0,"uncertainty_Pb-210-uncertainty":15.0},"type":"Feature"},{"geometry":{"coordinates":[27.63414,62.89195],"type":"Point"},"properties":{"concentration_Be-7":4766.8,"concentration_Cs-137":4.9,"concentration_Pb-210":310.4,"concentration_air-volume":21635.0,"from_timestamp":"2022-06-06T08:39:00Z","id":"103432","site":"Kuopio","to_timestamp":"2022-06-13T08:14:00Z","uncertainty_Be-7-uncertainty":3.0,"uncertainty_Cs-137-uncertainty":6.0,"uncertainty_Pb-210-uncertainty":12.0},"type":"Feature"},{"geometry":{"coordinates":[25.67774,66.51285],"type":"Point"},"properties":{"concentration_Be-7":2311.2,"concentration_Cs-137":0.1,"concentration_Na-22":0.3,"concentration_Pb-210":176.4,"concentration_air-volume":144505.0,"from_timestamp":"2022-05-30T09:48:00Z","id":"103433","site":"Rovaniemi","to_timestamp":"2022-06-06T07:38:00Z","uncertainty_Be-7-uncertainty":6.0,"uncertainty_Cs-137-uncertainty":17.0,"uncertainty_Na-22-uncertainty":12.0,"uncertainty_Pb-210-uncertainty":20.0},"type":"Feature"},{"geometry":{"coordinates":[25.67774,66.51285],"type":"Point"},"properties":{"concentration_Be-7":3076.1,"concentration_Cs-137":0.2,"concentration_Na-22":0.5,"concentration_Pb-210":112.4,"concentration_air-volume":143830.0,"from_timestamp":"2022-06-06T07:42:00Z","id":"103433","site":"Rovaniemi","to_timestamp":"2022-06-13T07:24:00Z","uncertainty_Be-7-uncertainty":6.0,"uncertainty_Cs-137-uncertainty":12.0,"uncertainty_Na-22-uncertainty":10.0,"uncertainty_Pb-210-uncertainty":8.0},"type":"Feature"},{"geometry":{"coordinates":[26.62807,67.36505],"type":"Point"},"properties":{"concentration_Be-7":2969.1,"concentration_Pb-210":176.5,"concentration_air-volume":24191.0,"from_timestamp":"2022-06-02T06:21:00Z","id":"103434","site":"Sodankylä","to_timestamp":"2022-06-09T06:12:00Z","uncertainty_Be-7-uncertainty":6.0,"uncertainty_Pb-210-uncertainty":20.0},"type":"Feature"},{"geometry":{"coordinates":[26.62807,67.36505],"type":"Point"},"properties":{"concentration_Be-7":2785.6,"concentration_Cs-137":0.4,"concentration_Pb-210":173.1,"concentration_air-volume":23929.0,"from_timestamp":"2022-06-09T06:13:00Z","id":"103434","site":"Sodankylä","to_timestamp":"2022-06-16T06:10:00Z","uncertainty_Be-7-uncertainty":5.0,"uncertainty_Cs-137-uncertainty":28.0,"uncertainty_Pb-210-uncertainty":5.0},"type":"Feature"},{"geometry":{"coordinates":[27.70835,64.08474],"type":"Point"},"properties":{"concentration_Be-7":2064.8,"concentration_Cs-137":0.4,"concentration_Na-22":0.4,"concentration_Pb-210":167.9,"concentration_air-volume":102074.0,"from_timestamp":"2022-05-30T11:41:00Z","id":"103435","site":"Kajaani","to_timestamp":"2022-06-06T17:36:00Z","uncertainty_Be-7-uncertainty":5.0,"uncertainty_Cs-137-uncertainty":11.0,"uncertainty_Na-22-uncertainty":15.0,"uncertainty_Pb-210-uncertainty":5.0},"type":"Feature"},{"geometry":{"coordinates":[27.70835,64.08474],"type":"Point"},"properties":{"concentration_Be-7":3798.5,"concentration_Cs-137":0.8,"concentration_Na-22":0.5,"concentration_air-volume":134454.0,"from_timestamp":"2022-06-06T17:42:00Z","id":"103435","site":"Kajaani","to_timestamp":"2022-06-13T16:19:00Z","uncertainty_Be-7-uncertainty":7.0,"uncertainty_Cs-137-uncertainty":9.0,"uncertainty_Na-22-uncertainty":11.0},"type":"Feature"},{"geometry":{"coordinates":[25.05334,60.29049],"type":"Point"},"properties":{"concentration_Be-7":2574.8,"concentration_Cs-137":0.5,"concentration_Pb-210":176.8,"concentration_air-volume":35271.0,"from_timestamp":"2022-05-27T09:14:00Z","id":"107554","site":"Vantaa","to_timestamp":"2022-06-06T10:27:00Z","uncertainty_Be-7-uncertainty":2.0,"uncertainty_Cs-137-uncertainty":17.0,"uncertainty_Pb-210-uncertainty":4.0},"type":"Feature"},{"geometry":{"coordinates":[25.05334,60.29049],"type":"Point"},"properties":{"concentration_Be-7":3112.8,"concentration_Cs-137":0.8,"concentration_Pb-210":257.9,"concentration_air-volume":34956.0,"from_timestamp":"2022-06-06T10:30:00Z","id":"107554","site":"Vantaa","to_timestamp":"2022-06-16T09:53:00Z","uncertainty_Be-7-uncertainty":2.0,"uncertainty_Cs-137-uncertainty":10.0,"uncertainty_Pb-210-uncertainty":4.0},"type":"Feature"}],"name":"stuk_open_data_air_radionuclides","type":"FeatureCollection"}