{"crs":{"properties":{"name":"urn:ogc:def:crs:OGC:1.3:CRS84"},"type":"name"},"features":[{"geometry":{"coordinates":[26.91808,60.48318],"type":"Point"},"properties":{"concentration_Be-7":3854.3,"concentration_Co-60":0.6,"concentration_Cs-137":0.9,"concentration_Fe-59":0.2,"concentration_Na-22":0.6,"concentration_Pb-210":233.9,"concentration_Sc-46":0.8,"concentration_air-volume":100902.0,"from_timestamp":"2022-05-23T08:20:00Z","id":"103429","site":"Kotka","to_timestamp":"2022-05-30T13:20:00Z","uncertainty_Be-7-uncertainty":6.0,"uncertainty_Co-60-uncertainty":7.0,"uncertainty_Cs-137-uncertainty":7.0,"uncertainty_Fe-59-uncertainty":19.0,"uncertainty_Na-22-uncertainty":11.0,"uncertainty_Pb-210-uncertainty":8.0,"uncertainty_Sc-46-uncertainty":7.0},"type":"Feature"},{"geometry":{"coordinates":[26.91808,60.48318],"type":"Point"},"properties":{"concentration_Be-7":1945.2,"concentration_Cs-137":1.1,"concentration_Mn-54":0.3,"concentration_Na-22":0.3,"concentration_Pb-210":221.4,"concentration_air-volume":96141.0,"from_timestamp":"2022-05-30T13:20:00Z","id":"103429","site":"Kotka","to_timestamp":"2022-06-06T08:55:00Z","uncertainty_Be-7-uncertainty":5.0,"uncertainty_Cs-137-uncertainty":7.0,"uncertainty_Mn-54-uncertainty":14.0,"uncertainty_Na-22-uncertainty":18.0,"uncertainty_Pb-210-uncertainty":5.0},"type":"Feature"},{"geometry":{"coordinates":[28.82663,61.13229],"type":"Point"},"properties":{"concentration_Be-7":9819.7,"concentration_Cs-137":1.6,"concentration_Sc-46":17.3,"concentration_air-volume":12511.0,"from_timestamp":"2022-05-19T15:32:00Z","id":"103430","site":"Imatra","to_timestamp":"2022-05-26T04:40:00Z","uncertainty_Be-7-uncertainty":10.0,"uncertainty_Cs-137-uncertainty":21.0,"uncertainty_Sc-46-uncertainty":8.0},"type":"Feature"},{"geometry":{"coordinates":[28.82663,61.13229],"type":"Point"},"properties":{"concentration_Be-7":3004.0,"concentration_Cs-137":0.7,"concentration_Pb-210":249.1,"concentration_air-volume":20569.0,"from_timestamp":"2022-05-26T04:41:00Z","id":"103430","site":"Imatra","to_timestamp":"2022-06-02T04:03:00Z","uncertainty_Be-7-uncertainty":6.0,"uncertainty_Cs-137-uncertainty":17.0,"uncertainty_Pb-210-uncertainty":8.0},"type":"Feature"},{"geometry":{"coordinates":[28.82663,61.13229],"type":"Point"},"properties":{"concentration_Be-7":3709.3,"concentration_Cs-137":1.5,"concentration_Na-22":0.6,"concentration_air-volume":31873.0,"from_timestamp":"2022-06-02T04:07:00Z","id":"103430","site":"Imatra","to_timestamp":"2022-06-13T05:15:00Z","uncertainty_Be-7-uncertainty":10.0,"uncertainty_Cs-137-uncertainty":11.0,"uncertainty_Na-22-uncertainty":22.0},"type":"Feature"},{"geometry":{"coordinates":[27.57,68.64],"type":"Point"},"properties":{"concentration_Be-7":3406.8,"concentration_Pb-210":220.1,"concentration_air-volume":27620.0,"from_timestamp":"2022-05-19T06:32:00Z","id":"103431","site":"Ivalo","to_timestamp":"2022-05-27T06:57:00Z","uncertainty_Be-7-uncertainty":6.0,"uncertainty_Pb-210-uncertainty":8.0},"type":"Feature"},{"geometry":{"coordinates":[27.57,68.64],"type":"Point"},"properties":{"concentration_Be-7":3979.2,"concentration_air-volume":20452.0,"from_timestamp":"2022-05-27T06:58:00Z","id":"103431","site":"Ivalo","to_timestamp":"2022-06-02T05:23:00Z","uncertainty_Be-7-uncertainty":10.0},"type":"Feature"},{"geometry":{"coordinates":[27.57,68.64],"type":"Point"},"properties":{"concentration_Be-7":2680.9,"concentration_Na-22":0.8,"concentration_air-volume":24461.0,"from_timestamp":"2022-06-02T05:25:00Z","id":"103431","site":"Ivalo","to_timestamp":"2022-06-09T09:27:00Z","uncertainty_Be-7-uncertainty":10.0,"uncertainty_Na-22-uncertainty":23.0},"type":"Feature"},{"geometry":{"coordinates":[27.63414,62.89195],"type":"Point"},"properties":{"concentration_Be-7":6421.6,"concentration_Na-22":1.3,"concentration_Pb-210":251.4,"concentration_air-volume":21583.0,"from_timestamp":"2022-05-23T08:02:00Z","id":"103432","site":"Kuopio","to_timestamp":"2022-05-30T08:15:00Z","uncertainty_Be-7-uncertainty":3.0,"uncertainty_Na-22-uncertainty":24.0,"uncertainty_Pb-210-uncertainty":15.0},"type":"Feature"},{"geometry":{"coordinates":[27.63414,62.89195],"type":"Point"},"properties":{"concentration_Be-7":2787.7,"concentration_Pb-210":218.0,"concentration_air-volume":21955.0,"from_timestamp":"2022-05-30T08:16:00Z","id":"103432","site":"Kuopio","to_timestamp":"2022-06-06T08:35:00Z","uncertainty_Be-7-uncertainty":3.0,"uncertainty_Pb-210-uncertainty":15.0},"type":"Feature"},{"geometry":{"coordinates":[25.67774,66.51285],"type":"Point"},"properties":{"concentration_Be-7":3329.9,"concentration_Cs-137":0.1,"concentration_Na-22":0.4,"concentration_Pb-210":153.9,"concentration_air-volume":145953.0,"from_timestamp":"2022-05-23T07:36:00Z","id":"103433","site":"Rovaniemi","to_timestamp":"2022-05-30T09:46:00Z","uncertainty_Be-7-uncertainty":6.0,"uncertainty_Cs-137-uncertainty":23.0,"uncertainty_Na-22-uncertainty":13.0,"uncertainty_Pb-210-uncertainty":8.0},"type":"Feature"},{"geometry":{"coordinates":[25.67774,66.51285],"type":"Point"},"properties":{"concentration_Be-7":2311.2,"concentration_Cs-137":0.1,"concentration_Na-22":0.3,"concentration_Pb-210":176.4,"concentration_air-volume":144505.0,"from_timestamp":"2022-05-30T09:48:00Z","id":"103433","site":"Rovaniemi","to_timestamp":"2022-06-06T07:38:00Z","uncertainty_Be-7-uncertainty":6.0,"uncertainty_Cs-137-uncertainty":17.0,"uncertainty_Na-22-uncertainty":12.0,"uncertainty_Pb-210-uncertainty":20.0},"type":"Feature"},{"geometry":{"coordinates":[26.62807,67.36505],"type":"Point"},"properties":{"concentration_Be-7":4558.1,"concentration_Na-22":0.6,"concentration_air-volume":34568.0,"from_timestamp":"2022-05-23T06:10:00Z","id":"103434","site":"Sodankylä","to_timestamp":"2022-06-02T06:20:00Z","uncertainty_Be-7-uncertainty":10.0,"uncertainty_Na-22-uncertainty":23.0},"type":"Feature"},{"geometry":{"coordinates":[26.62807,67.36505],"type":"Point"},"properties":{"concentration_Be-7":2969.1,"concentration_Pb-210":176.5,"concentration_air-volume":24191.0,"from_timestamp":"2022-06-02T06:21:00Z","id":"103434","site":"Sodankylä","to_timestamp":"2022-06-09T06:12:00Z","uncertainty_Be-7-uncertainty":6.0,"uncertainty_Pb-210-uncertainty":20.0},"type":"Feature"},{"geometry":{"coordinates":[27.70835,64.08474],"type":"Point"},"properties":{"concentration_Be-7":4276.2,"concentration_Na-22":0.7,"concentration_Pb-210":193.9,"concentration_air-volume":83062.0,"from_timestamp":"2022-05-24T11:19:00Z","id":"103435","site":"Kajaani","to_timestamp":"2022-05-30T11:39:00Z","uncertainty_Be-7-uncertainty":2.0,"uncertainty_Na-22-uncertainty":16.0,"uncertainty_Pb-210-uncertainty":4.0},"type":"Feature"},{"geometry":{"coordinates":[27.70835,64.08474],"type":"Point"},"properties":{"concentration_Be-7":2064.8,"concentration_Cs-137":0.4,"concentration_Na-22":0.4,"concentration_Pb-210":167.9,"concentration_air-volume":102074.0,"from_timestamp":"2022-05-30T11:41:00Z","id":"103435","site":"Kajaani","to_timestamp":"2022-06-06T17:36:00Z","uncertainty_Be-7-uncertainty":5.0,"uncertainty_Cs-137-uncertainty":11.0,"uncertainty_Na-22-uncertainty":15.0,"uncertainty_Pb-210-uncertainty":5.0},"type":"Feature"},{"geometry":{"coordinates":[25.05334,60.29049],"type":"Point"},"properties":{"concentration_Be-7":5406.0,"concentration_Cs-137":0.6,"concentration_Na-22":0.8,"concentration_air-volume":28627.0,"from_timestamp":"2022-05-19T08:32:00Z","id":"107554","site":"Vantaa","to_timestamp":"2022-05-27T09:13:00Z","uncertainty_Be-7-uncertainty":10.0,"uncertainty_Cs-137-uncertainty":18.0,"uncertainty_Na-22-uncertainty":22.0},"type":"Feature"},{"geometry":{"coordinates":[25.05334,60.29049],"type":"Point"},"properties":{"concentration_Be-7":2574.8,"concentration_Cs-137":0.5,"concentration_Pb-210":176.8,"concentration_air-volume":35271.0,"from_timestamp":"2022-05-27T09:14:00Z","id":"107554","site":"Vantaa","to_timestamp":"2022-06-06T10:27:00Z","uncertainty_Be-7-uncertainty":2.0,"uncertainty_Cs-137-uncertainty":17.0,"uncertainty_Pb-210-uncertainty":4.0},"type":"Feature"}],"name":"stuk_open_data_air_radionuclides","type":"FeatureCollection"}