{"crs":{"properties":{"name":"urn:ogc:def:crs:OGC:1.3:CRS84"},"type":"name"},"features":[{"geometry":{"coordinates":[25.05385,60.20905],"type":"Point"},"properties":{"concentration_Be-7":1714.0,"concentration_air-volume":13984.0,"from_timestamp":"2022-01-03T08:01:00Z","id":"103428","site":"Helsinki","to_timestamp":"2022-01-04T07:51:00Z","uncertainty_Be-7-uncertainty":8.0},"type":"Feature"},{"geometry":{"coordinates":[25.05385,60.20905],"type":"Point"},"properties":{"concentration_Be-7":1944.0,"concentration_Pb-210":93.0,"concentration_air-volume":13639.0,"from_timestamp":"2022-01-04T08:01:00Z","id":"103428","site":"Helsinki","to_timestamp":"2022-01-05T07:51:00Z","uncertainty_Be-7-uncertainty":8.0,"uncertainty_Pb-210-uncertainty":8.0},"type":"Feature"},{"geometry":{"coordinates":[25.05385,60.20905],"type":"Point"},"properties":{"concentration_Be-7":1971.6,"concentration_Pb-210":294.6,"concentration_air-volume":14562.0,"from_timestamp":"2022-01-06T08:01:00Z","id":"103428","site":"Helsinki","to_timestamp":"2022-01-07T07:51:00Z","uncertainty_Be-7-uncertainty":8.0,"uncertainty_Pb-210-uncertainty":7.0},"type":"Feature"},{"geometry":{"coordinates":[25.05385,60.20905],"type":"Point"},"properties":{"concentration_Be-7":2295.9,"concentration_air-volume":14340.0,"from_timestamp":"2022-01-08T08:01:00Z","id":"103428","site":"Helsinki","to_timestamp":"2022-01-09T07:51:00Z","uncertainty_Be-7-uncertainty":8.0},"type":"Feature"},{"geometry":{"coordinates":[25.05385,60.20905],"type":"Point"},"properties":{"concentration_Be-7":3346.1,"concentration_air-volume":13660.0,"from_timestamp":"2022-01-05T08:01:00Z","id":"103428","site":"Helsinki","to_timestamp":"2022-01-06T07:51:00Z","uncertainty_Be-7-uncertainty":8.0},"type":"Feature"},{"geometry":{"coordinates":[25.05385,60.20905],"type":"Point"},"properties":{"concentration_Be-7":1786.6,"concentration_air-volume":14772.0,"from_timestamp":"2022-01-07T08:01:00Z","id":"103428","site":"Helsinki","to_timestamp":"2022-01-08T07:51:00Z","uncertainty_Be-7-uncertainty":8.0},"type":"Feature"},{"geometry":{"coordinates":[25.05385,60.20905],"type":"Point"},"properties":{"concentration_Be-7":2183.7,"concentration_Pb-210":323.7,"concentration_air-volume":14443.0,"from_timestamp":"2022-01-09T08:01:00Z","id":"103428","site":"Helsinki","to_timestamp":"2022-01-10T07:51:00Z","uncertainty_Be-7-uncertainty":8.0,"uncertainty_Pb-210-uncertainty":7.0},"type":"Feature"},{"geometry":{"coordinates":[26.91808,60.48318],"type":"Point"},"properties":{"concentration_Be-7":1960.6,"concentration_Cs-137":1.8,"concentration_Na-22":0.1,"concentration_Pb-210":875.8,"concentration_air-volume":175221.0,"from_timestamp":"2021-12-27T12:55:00Z","id":"103429","site":"Kotka","to_timestamp":"2022-01-10T09:30:00Z","uncertainty_Be-7-uncertainty":7.0,"uncertainty_Cs-137-uncertainty":7.0,"uncertainty_Na-22-uncertainty":21.0,"uncertainty_Pb-210-uncertainty":16.0},"type":"Feature"},{"geometry":{"coordinates":[28.82663,61.13229],"type":"Point"},"properties":{"concentration_Be-7":2045.1,"concentration_Cs-137":1.1,"concentration_air-volume":20904.0,"from_timestamp":"2021-12-27T04:50:00Z","id":"103430","site":"Imatra","to_timestamp":"2022-01-03T06:40:00Z","uncertainty_Be-7-uncertainty":10.0,"uncertainty_Cs-137-uncertainty":18.0},"type":"Feature"},{"geometry":{"coordinates":[28.82663,61.13229],"type":"Point"},"properties":{"concentration_Be-7":3150.0,"concentration_Cs-137":1.0,"concentration_Pb-210":87.5,"concentration_air-volume":16988.0,"from_timestamp":"2022-01-03T06:50:00Z","id":"103430","site":"Imatra","to_timestamp":"2022-01-10T05:00:00Z","uncertainty_Be-7-uncertainty":6.0,"uncertainty_Cs-137-uncertainty":22.0,"uncertainty_Pb-210-uncertainty":23.0},"type":"Feature"},{"geometry":{"coordinates":[27.57,68.64],"type":"Point"},"properties":{"concentration_Be-7":1604.4,"concentration_Pb-210":91.6,"concentration_air-volume":26318.0,"from_timestamp":"2021-12-30T06:42:00Z","id":"103431","site":"Ivalo","to_timestamp":"2022-01-06T06:55:00Z","uncertainty_Be-7-uncertainty":6.0,"uncertainty_Pb-210-uncertainty":13.0},"type":"Feature"},{"geometry":{"coordinates":[27.57,68.64],"type":"Point"},"properties":{"concentration_Be-7":1330.6,"concentration_Cs-137":0.4,"concentration_Pb-210":282.2,"concentration_air-volume":25679.0,"from_timestamp":"2022-01-06T06:58:00Z","id":"103431","site":"Ivalo","to_timestamp":"2022-01-13T06:05:00Z","uncertainty_Be-7-uncertainty":5.0,"uncertainty_Cs-137-uncertainty":23.0,"uncertainty_Pb-210-uncertainty":5.0},"type":"Feature"},{"geometry":{"coordinates":[27.63414,62.89195],"type":"Point"},"properties":{"concentration_Be-7":7423.3,"concentration_Pb-210":287.3,"concentration_air-volume":24088.0,"from_timestamp":"2021-12-20T08:40:00Z","id":"103432","site":"Kuopio","to_timestamp":"2022-01-03T12:37:00Z","uncertainty_Be-7-uncertainty":3.0,"uncertainty_Pb-210-uncertainty":9.0},"type":"Feature"},{"geometry":{"coordinates":[27.63414,62.89195],"type":"Point"},"properties":{"concentration_Be-7":2629.4,"concentration_Pb-210":538.0,"concentration_air-volume":23778.0,"from_timestamp":"2022-01-03T08:30:00Z","id":"103432","site":"Kuopio","to_timestamp":"2022-01-10T09:03:00Z","uncertainty_Be-7-uncertainty":3.0,"uncertainty_Pb-210-uncertainty":7.0},"type":"Feature"},{"geometry":{"coordinates":[25.67774,66.51285],"type":"Point"},"properties":{"concentration_Be-7":1267.0,"concentration_Cs-137":0.3,"concentration_Na-22":0.1,"concentration_Pb-210":917.3,"concentration_air-volume":149511.0,"from_timestamp":"2021-12-27T10:11:00Z","id":"103433","site":"Rovaniemi","to_timestamp":"2022-01-03T09:19:00Z","uncertainty_Be-7-uncertainty":7.0,"uncertainty_Cs-137-uncertainty":11.0,"uncertainty_Na-22-uncertainty":25.0,"uncertainty_Pb-210-uncertainty":20.0},"type":"Feature"},{"geometry":{"coordinates":[25.67774,66.51285],"type":"Point"},"properties":{"concentration_Be-7":1559.6,"concentration_Cs-137":0.2,"concentration_Na-22":0.2,"concentration_air-volume":149478.0,"from_timestamp":"2022-01-03T09:24:00Z","id":"103433","site":"Rovaniemi","to_timestamp":"2022-01-10T08:30:00Z","uncertainty_Be-7-uncertainty":5.0,"uncertainty_Cs-137-uncertainty":11.0,"uncertainty_Na-22-uncertainty":18.0},"type":"Feature"},{"geometry":{"coordinates":[26.62807,67.36505],"type":"Point"},"properties":{"concentration_Be-7":1460.8,"concentration_Pb-210":525.7,"concentration_air-volume":25518.0,"from_timestamp":"2021-12-27T06:26:00Z","id":"103434","site":"Sodankylä","to_timestamp":"2022-01-03T06:03:00Z","uncertainty_Be-7-uncertainty":5.0,"uncertainty_Pb-210-uncertainty":5.0},"type":"Feature"},{"geometry":{"coordinates":[26.62807,67.36505],"type":"Point"},"properties":{"concentration_Be-7":1529.5,"concentration_Pb-210":368.1,"concentration_air-volume":26277.0,"from_timestamp":"2022-01-03T06:05:00Z","id":"103434","site":"Sodankylä","to_timestamp":"2022-01-10T06:33:00Z","uncertainty_Be-7-uncertainty":6.0,"uncertainty_Pb-210-uncertainty":8.0},"type":"Feature"},{"geometry":{"coordinates":[27.70835,64.08474],"type":"Point"},"properties":{"concentration_Be-7":1404.0,"concentration_Cs-137":0.4,"concentration_Pb-210":499.2,"concentration_air-volume":103706.0,"from_timestamp":"2021-12-27T12:20:00Z","id":"103435","site":"Kajaani","to_timestamp":"2022-01-03T19:00:00Z","uncertainty_Be-7-uncertainty":7.0,"uncertainty_Cs-137-uncertainty":12.0,"uncertainty_Pb-210-uncertainty":22.0},"type":"Feature"},{"geometry":{"coordinates":[27.70835,64.08474],"type":"Point"},"properties":{"concentration_Be-7":1859.8,"concentration_Cs-137":0.2,"concentration_Pb-210":425.6,"concentration_air-volume":140229.0,"from_timestamp":"2022-01-03T19:05:00Z","id":"103435","site":"Kajaani","to_timestamp":"2022-01-13T11:06:00Z","uncertainty_Be-7-uncertainty":7.0,"uncertainty_Cs-137-uncertainty":14.0,"uncertainty_Pb-210-uncertainty":22.0},"type":"Feature"}],"name":"stuk_open_data_air_radionuclides","type":"FeatureCollection"}