{"crs":{"properties":{"name":"urn:ogc:def:crs:OGC:1.3:CRS84"},"type":"name"},"features":[{"geometry":{"coordinates":[26.91808,60.48318],"type":"Point"},"properties":{"concentration_Be-7":1818.8,"concentration_Cs-137":0.5,"concentration_Pb-210":378.9,"concentration_air-volume":99965.0,"from_timestamp":"2022-10-08T10:50:00Z","id":"103429","site":"Kotka","to_timestamp":"2022-10-17T14:21:00Z","uncertainty_Be-7-uncertainty":5.0,"uncertainty_Cs-137-uncertainty":9.0,"uncertainty_Pb-210-uncertainty":5.0},"type":"Feature"},{"geometry":{"coordinates":[26.91808,60.48318],"type":"Point"},"properties":{"concentration_Be-7":1485.3,"concentration_Cs-137":1.3,"concentration_Na-22":0.2,"concentration_Pb-210":295.8,"concentration_air-volume":97874.0,"from_timestamp":"2022-10-17T14:23:00Z","id":"103429","site":"Kotka","to_timestamp":"2022-10-24T10:18:00Z","uncertainty_Be-7-uncertainty":5.0,"uncertainty_Cs-137-uncertainty":6.0,"uncertainty_Na-22-uncertainty":26.0,"uncertainty_Pb-210-uncertainty":5.0},"type":"Feature"},{"geometry":{"coordinates":[26.91808,60.48318],"type":"Point"},"properties":{"concentration_Be-7":1139.7,"concentration_Cs-137":0.9,"concentration_Pb-210":202.7,"concentration_air-volume":98466.0,"from_timestamp":"2022-10-24T10:21:00Z","id":"103429","site":"Kotka","to_timestamp":"2022-10-31T09:28:00Z","uncertainty_Be-7-uncertainty":6.0,"uncertainty_Cs-137-uncertainty":7.0,"uncertainty_Pb-210-uncertainty":8.0},"type":"Feature"},{"geometry":{"coordinates":[28.82663,61.13229],"type":"Point"},"properties":{"concentration_Be-7":1287.8,"concentration_Cs-137":0.6,"concentration_Pb-210":222.2,"concentration_air-volume":17110.0,"from_timestamp":"2022-10-24T06:23:00Z","id":"103430","site":"Imatra","to_timestamp":"2022-10-31T07:00:00Z","uncertainty_Be-7-uncertainty":5.0,"uncertainty_Cs-137-uncertainty":20.0,"uncertainty_Pb-210-uncertainty":5.0},"type":"Feature"},{"geometry":{"coordinates":[27.57,68.64],"type":"Point"},"properties":{"concentration_Be-7":1322.2,"concentration_Pb-210":228.5,"concentration_air-volume":22569.0,"from_timestamp":"2022-10-10T08:27:00Z","id":"103431","site":"Ivalo","to_timestamp":"2022-10-17T08:20:00Z","uncertainty_Be-7-uncertainty":5.0,"uncertainty_Pb-210-uncertainty":10.0},"type":"Feature"},{"geometry":{"coordinates":[27.57,68.64],"type":"Point"},"properties":{"concentration_Be-7":863.8,"concentration_Cs-137":0.2,"concentration_Pb-210":161.6,"concentration_air-volume":25428.0,"from_timestamp":"2022-10-24T08:41:00Z","id":"103431","site":"Ivalo","to_timestamp":"2022-10-31T08:43:00Z","uncertainty_Be-7-uncertainty":6.0,"uncertainty_Cs-137-uncertainty":28.0,"uncertainty_Pb-210-uncertainty":19.0},"type":"Feature"},{"geometry":{"coordinates":[27.63414,62.89195],"type":"Point"},"properties":{"concentration_Be-7":1418.5,"concentration_Cs-137":0.8,"concentration_Pb-210":220.2,"concentration_air-volume":23055.0,"from_timestamp":"2022-10-17T08:19:00Z","id":"103432","site":"Kuopio","to_timestamp":"2022-10-24T08:14:00Z","uncertainty_Be-7-uncertainty":3.0,"uncertainty_Cs-137-uncertainty":25.0,"uncertainty_Pb-210-uncertainty":13.0},"type":"Feature"},{"geometry":{"coordinates":[27.63414,62.89195],"type":"Point"},"properties":{"concentration_Be-7":2371.1,"concentration_Cs-137":0.8,"concentration_Pb-210":415.1,"concentration_air-volume":22514.0,"from_timestamp":"2022-10-10T08:23:00Z","id":"103432","site":"Kuopio","to_timestamp":"2022-10-17T08:18:00Z","uncertainty_Be-7-uncertainty":3.0,"uncertainty_Cs-137-uncertainty":25.0,"uncertainty_Pb-210-uncertainty":8.0},"type":"Feature"},{"geometry":{"coordinates":[27.63414,62.89195],"type":"Point"},"properties":{"concentration_Be-7":1215.3,"concentration_Pb-210":108.1,"concentration_air-volume":22957.0,"from_timestamp":"2022-10-24T08:15:00Z","id":"103432","site":"Kuopio","to_timestamp":"2022-10-31T07:43:00Z","uncertainty_Be-7-uncertainty":3.0,"uncertainty_Pb-210-uncertainty":26.0},"type":"Feature"},{"geometry":{"coordinates":[25.67774,66.51285],"type":"Point"},"properties":{"concentration_Be-7":1153.3,"concentration_Cs-137":0.2,"concentration_Na-22":0.1,"concentration_Pb-210":221.6,"concentration_air-volume":166140.0,"from_timestamp":"2022-10-10T10:43:00Z","id":"103433","site":"Rovaniemi","to_timestamp":"2022-10-18T09:08:00Z","uncertainty_Be-7-uncertainty":6.0,"uncertainty_Cs-137-uncertainty":10.0,"uncertainty_Na-22-uncertainty":21.0,"uncertainty_Pb-210-uncertainty":8.0},"type":"Feature"},{"geometry":{"coordinates":[25.67774,66.51285],"type":"Point"},"properties":{"concentration_Be-7":950.9,"concentration_Cs-137":0.1,"concentration_air-volume":126612.0,"from_timestamp":"2022-10-18T09:12:00Z","id":"103433","site":"Rovaniemi","to_timestamp":"2022-10-24T09:51:00Z","uncertainty_Be-7-uncertainty":7.0,"uncertainty_Cs-137-uncertainty":21.0},"type":"Feature"},{"geometry":{"coordinates":[25.67774,66.51285],"type":"Point"},"properties":{"concentration_Be-7":813.2,"concentration_Cs-137":0.2,"concentration_Pb-210":104.1,"concentration_air-volume":140958.0,"from_timestamp":"2022-10-24T09:54:00Z","id":"103433","site":"Rovaniemi","to_timestamp":"2022-10-31T09:36:00Z","uncertainty_Be-7-uncertainty":2.0,"uncertainty_Cs-137-uncertainty":13.0,"uncertainty_Pb-210-uncertainty":4.0},"type":"Feature"},{"geometry":{"coordinates":[26.62807,67.36505],"type":"Point"},"properties":{"concentration_Be-7":1260.6,"concentration_Pb-210":219.7,"concentration_air-volume":24310.0,"from_timestamp":"2022-10-10T08:20:00Z","id":"103434","site":"Sodankylä","to_timestamp":"2022-10-17T08:39:00Z","uncertainty_Be-7-uncertainty":6.0,"uncertainty_Pb-210-uncertainty":8.0},"type":"Feature"},{"geometry":{"coordinates":[26.62807,67.36505],"type":"Point"},"properties":{"concentration_Be-7":1023.8,"concentration_Pb-210":83.5,"concentration_air-volume":24791.0,"from_timestamp":"2022-10-17T08:40:00Z","id":"103434","site":"Sodankylä","to_timestamp":"2022-10-24T08:44:00Z","uncertainty_Be-7-uncertainty":3.0,"uncertainty_Pb-210-uncertainty":4.0},"type":"Feature"},{"geometry":{"coordinates":[26.62807,67.36505],"type":"Point"},"properties":{"concentration_Be-7":838.7,"concentration_Pb-210":146.8,"concentration_air-volume":25218.0,"from_timestamp":"2022-10-24T08:44:00Z","id":"103434","site":"Sodankylä","to_timestamp":"2022-10-31T08:30:00Z","uncertainty_Be-7-uncertainty":3.0,"uncertainty_Pb-210-uncertainty":4.0},"type":"Feature"},{"geometry":{"coordinates":[27.70835,64.08474],"type":"Point"},"properties":{"concentration_Be-7":1823.1,"concentration_Cs-137":0.6,"concentration_Na-22":0.3,"concentration_Pb-210":310.7,"concentration_air-volume":87897.0,"from_timestamp":"2022-10-11T08:02:00Z","id":"103435","site":"Kajaani","to_timestamp":"2022-10-17T15:16:00Z","uncertainty_Be-7-uncertainty":6.0,"uncertainty_Cs-137-uncertainty":9.0,"uncertainty_Na-22-uncertainty":23.0,"uncertainty_Pb-210-uncertainty":8.0},"type":"Feature"},{"geometry":{"coordinates":[27.70835,64.08474],"type":"Point"},"properties":{"concentration_Be-7":1038.1,"concentration_Cs-137":0.2,"concentration_Pb-210":67.6,"concentration_air-volume":103819.0,"from_timestamp":"2022-10-17T15:20:00Z","id":"103435","site":"Kajaani","to_timestamp":"2022-10-24T21:08:00Z","uncertainty_Be-7-uncertainty":5.0,"uncertainty_Cs-137-uncertainty":13.0,"uncertainty_Pb-210-uncertainty":5.0},"type":"Feature"},{"geometry":{"coordinates":[27.70835,64.08474],"type":"Point"},"properties":{"concentration_Be-7":642.4,"concentration_Cs-137":0.1,"concentration_Pb-210":90.0,"concentration_air-volume":190558.0,"from_timestamp":"2022-10-24T21:10:00Z","id":"103435","site":"Kajaani","to_timestamp":"2022-11-07T11:26:00Z","uncertainty_Be-7-uncertainty":2.0,"uncertainty_Cs-137-uncertainty":11.0,"uncertainty_Pb-210-uncertainty":4.0},"type":"Feature"}],"name":"stuk_open_data_air_radionuclides","type":"FeatureCollection"}