{"crs":{"properties":{"name":"urn:ogc:def:crs:OGC:1.3:CRS84"},"type":"name"},"features":[{"geometry":{"coordinates":[25.05385,60.20905],"type":"Point"},"properties":{"concentration_Be-7":719.8,"concentration_Cs-137":2.8,"concentration_Pb-210":1801.5,"concentration_air-volume":14955.0,"from_timestamp":"2022-02-03T08:01:00Z","id":"103428","site":"Helsinki","to_timestamp":"2022-02-04T07:50:00Z","uncertainty_Be-7-uncertainty":8.0,"uncertainty_Cs-137-uncertainty":18.0,"uncertainty_Pb-210-uncertainty":6.0},"type":"Feature"},{"geometry":{"coordinates":[25.05385,60.20905],"type":"Point"},"properties":{"concentration_Be-7":593.6,"concentration_Cs-137":3.0,"concentration_Pb-210":1579.5,"concentration_air-volume":14870.0,"from_timestamp":"2022-02-02T08:01:00Z","id":"103428","site":"Helsinki","to_timestamp":"2022-02-03T07:50:00Z","uncertainty_Be-7-uncertainty":8.0,"uncertainty_Cs-137-uncertainty":19.0,"uncertainty_Pb-210-uncertainty":6.0},"type":"Feature"},{"geometry":{"coordinates":[25.05385,60.20905],"type":"Point"},"properties":{"concentration_Be-7":1256.0,"concentration_Pb-210":327.6,"concentration_air-volume":14596.0,"from_timestamp":"2022-02-04T08:01:00Z","id":"103428","site":"Helsinki","to_timestamp":"2022-02-05T07:50:00Z","uncertainty_Be-7-uncertainty":8.0,"uncertainty_Pb-210-uncertainty":7.0},"type":"Feature"},{"geometry":{"coordinates":[25.05385,60.20905],"type":"Point"},"properties":{"concentration_Be-7":1302.2,"concentration_air-volume":14452.0,"from_timestamp":"2022-02-05T08:01:00Z","id":"103428","site":"Helsinki","to_timestamp":"2022-02-06T07:50:00Z","uncertainty_Be-7-uncertainty":8.0},"type":"Feature"},{"geometry":{"coordinates":[25.05385,60.20905],"type":"Point"},"properties":{"concentration_Be-7":2295.1,"concentration_air-volume":14422.0,"from_timestamp":"2022-02-06T08:01:00Z","id":"103428","site":"Helsinki","to_timestamp":"2022-02-07T07:50:00Z","uncertainty_Be-7-uncertainty":8.0},"type":"Feature"},{"geometry":{"coordinates":[25.05385,60.20905],"type":"Point"},"properties":{"concentration_Be-7":2279.0,"concentration_air-volume":14745.0,"from_timestamp":"2022-02-07T08:01:00Z","id":"103428","site":"Helsinki","to_timestamp":"2022-02-08T07:50:00Z","uncertainty_Be-7-uncertainty":8.0},"type":"Feature"},{"geometry":{"coordinates":[25.05385,60.20905],"type":"Point"},"properties":{"concentration_Be-7":697.7,"concentration_Pb-210":69.1,"concentration_air-volume":14839.0,"from_timestamp":"2022-02-08T08:01:00Z","id":"103428","site":"Helsinki","to_timestamp":"2022-02-09T07:50:00Z","uncertainty_Be-7-uncertainty":8.0,"uncertainty_Pb-210-uncertainty":11.0},"type":"Feature"},{"geometry":{"coordinates":[25.05385,60.20905],"type":"Point"},"properties":{"concentration_Be-7":1216.1,"concentration_air-volume":14844.0,"from_timestamp":"2022-02-10T08:01:00Z","id":"103428","site":"Helsinki","to_timestamp":"2022-02-11T07:50:00Z","uncertainty_Be-7-uncertainty":8.0},"type":"Feature"},{"geometry":{"coordinates":[25.05385,60.20905],"type":"Point"},"properties":{"concentration_Be-7":1667.2,"concentration_air-volume":14708.0,"from_timestamp":"2022-02-09T08:01:00Z","id":"103428","site":"Helsinki","to_timestamp":"2022-02-10T07:50:00Z","uncertainty_Be-7-uncertainty":8.0},"type":"Feature"},{"geometry":{"coordinates":[26.91808,60.48318],"type":"Point"},"properties":{"concentration_Be-7":941.5,"concentration_Cs-137":1.5,"concentration_Pb-210":741.9,"concentration_air-volume":90884.0,"from_timestamp":"2022-02-01T06:30:00Z","id":"103429","site":"Kotka","to_timestamp":"2022-02-07T14:51:00Z","uncertainty_Be-7-uncertainty":6.0,"uncertainty_Cs-137-uncertainty":7.0,"uncertainty_Pb-210-uncertainty":8.0},"type":"Feature"},{"geometry":{"coordinates":[26.91808,60.48318],"type":"Point"},"properties":{"concentration_Be-7":1470.0,"concentration_Cs-137":0.3,"concentration_Na-22":0.1,"concentration_Pb-210":382.0,"concentration_air-volume":98460.0,"from_timestamp":"2022-02-07T15:00:00Z","id":"103429","site":"Kotka","to_timestamp":"2022-02-14T08:00:00Z","uncertainty_Be-7-uncertainty":7.0,"uncertainty_Cs-137-uncertainty":9.0,"uncertainty_Na-22-uncertainty":16.0,"uncertainty_Pb-210-uncertainty":24.0},"type":"Feature"},{"geometry":{"coordinates":[28.82663,61.13229],"type":"Point"},"properties":{"concentration_Be-7":1308.0,"concentration_Cs-137":3.1,"concentration_Pb-210":244.5,"concentration_air-volume":21082.0,"from_timestamp":"2022-01-31T04:58:00Z","id":"103430","site":"Imatra","to_timestamp":"2022-02-07T04:30:00Z","uncertainty_Be-7-uncertainty":6.0,"uncertainty_Cs-137-uncertainty":8.0,"uncertainty_Pb-210-uncertainty":9.0},"type":"Feature"},{"geometry":{"coordinates":[28.82663,61.13229],"type":"Point"},"properties":{"concentration_Be-7":1588.7,"concentration_Cs-137":1.1,"concentration_air-volume":21348.0,"from_timestamp":"2022-02-07T04:30:00Z","id":"103430","site":"Imatra","to_timestamp":"2022-02-14T05:35:00Z","uncertainty_Be-7-uncertainty":10.0,"uncertainty_Cs-137-uncertainty":16.0},"type":"Feature"},{"geometry":{"coordinates":[27.57,68.64],"type":"Point"},"properties":{"concentration_Be-7":1354.6,"concentration_air-volume":25696.0,"from_timestamp":"2022-02-03T06:34:00Z","id":"103431","site":"Ivalo","to_timestamp":"2022-02-10T06:15:00Z","uncertainty_Be-7-uncertainty":10.0},"type":"Feature"},{"geometry":{"coordinates":[27.57,68.64],"type":"Point"},"properties":{"concentration_Be-7":898.4,"concentration_air-volume":26534.0,"from_timestamp":"2022-01-27T07:38:00Z","id":"103431","site":"Ivalo","to_timestamp":"2022-02-03T06:31:00Z","uncertainty_Be-7-uncertainty":10.0},"type":"Feature"},{"geometry":{"coordinates":[27.57,68.64],"type":"Point"},"properties":{"concentration_Be-7":1205.7,"concentration_Pb-210":137.0,"concentration_air-volume":26182.0,"from_timestamp":"2022-02-10T06:18:00Z","id":"103431","site":"Ivalo","to_timestamp":"2022-02-17T05:39:00Z","uncertainty_Be-7-uncertainty":5.0,"uncertainty_Pb-210-uncertainty":10.0},"type":"Feature"},{"geometry":{"coordinates":[27.63414,62.89195],"type":"Point"},"properties":{"concentration_Be-7":1854.8,"concentration_air-volume":22552.0,"from_timestamp":"2022-02-07T09:25:00Z","id":"103432","site":"Kuopio","to_timestamp":"2022-02-14T08:35:00Z","uncertainty_Be-7-uncertainty":3.0},"type":"Feature"},{"geometry":{"coordinates":[25.67774,66.51285],"type":"Point"},"properties":{"concentration_Be-7":1203.8,"concentration_Cs-137":0.3,"concentration_Na-22":0.1,"concentration_Pb-210":1005.0,"concentration_air-volume":145322.0,"from_timestamp":"2022-01-31T07:57:00Z","id":"103433","site":"Rovaniemi","to_timestamp":"2022-02-07T07:53:00Z","uncertainty_Be-7-uncertainty":7.0,"uncertainty_Cs-137-uncertainty":10.0,"uncertainty_Na-22-uncertainty":23.0,"uncertainty_Pb-210-uncertainty":17.0},"type":"Feature"},{"geometry":{"coordinates":[25.67774,66.51285],"type":"Point"},"properties":{"concentration_Be-7":932.8,"concentration_Cs-137":0.3,"concentration_Pb-210":123.3,"concentration_air-volume":149728.0,"from_timestamp":"2022-02-07T07:57:00Z","id":"103433","site":"Rovaniemi","to_timestamp":"2022-02-14T08:20:00Z","uncertainty_Be-7-uncertainty":6.0,"uncertainty_Cs-137-uncertainty":10.0,"uncertainty_Pb-210-uncertainty":8.0},"type":"Feature"},{"geometry":{"coordinates":[26.62807,67.36505],"type":"Point"},"properties":{"concentration_Be-7":1234.5,"concentration_Pb-210":66.8,"concentration_air-volume":26144.0,"from_timestamp":"2022-01-31T06:10:00Z","id":"103434","site":"Sodankylä","to_timestamp":"2022-02-07T06:46:00Z","uncertainty_Be-7-uncertainty":6.0,"uncertainty_Pb-210-uncertainty":20.0},"type":"Feature"},{"geometry":{"coordinates":[26.62807,67.36505],"type":"Point"},"properties":{"concentration_Be-7":1157.5,"concentration_Pb-210":75.0,"concentration_air-volume":25459.0,"from_timestamp":"2022-02-07T06:50:00Z","id":"103434","site":"Sodankylä","to_timestamp":"2022-02-14T06:37:00Z","uncertainty_Be-7-uncertainty":6.0,"uncertainty_Pb-210-uncertainty":21.0},"type":"Feature"},{"geometry":{"coordinates":[27.70835,64.08474],"type":"Point"},"properties":{"concentration_Be-7":1016.7,"concentration_Cs-137":0.4,"concentration_Pb-210":683.7,"concentration_air-volume":100243.0,"from_timestamp":"2022-01-31T13:16:00Z","id":"103435","site":"Kajaani","to_timestamp":"2022-02-07T11:30:00Z","uncertainty_Be-7-uncertainty":5.0,"uncertainty_Cs-137-uncertainty":9.0,"uncertainty_Pb-210-uncertainty":5.0},"type":"Feature"},{"geometry":{"coordinates":[27.70835,64.08474],"type":"Point"},"properties":{"concentration_Be-7":1368.7,"concentration_Cs-137":0.3,"concentration_air-volume":104554.0,"from_timestamp":"2022-02-07T11:40:00Z","id":"103435","site":"Kajaani","to_timestamp":"2022-02-14T19:58:00Z","uncertainty_Be-7-uncertainty":7.0,"uncertainty_Cs-137-uncertainty":13.0},"type":"Feature"}],"name":"stuk_open_data_air_radionuclides","type":"FeatureCollection"}