{"crs":{"properties":{"name":"urn:ogc:def:crs:OGC:1.3:CRS84"},"type":"name"},"features":[{"geometry":{"coordinates":[26.91808,60.48318],"type":"Point"},"properties":{"concentration_Be-7":1600.8,"concentration_Cs-137":0.4,"concentration_Na-22":0.3,"concentration_Pb-210":128.4,"concentration_air-volume":296676.0,"from_timestamp":"2022-07-11T08:34:00Z","id":"103429","site":"Kotka","to_timestamp":"2022-07-25T12:20:00Z","uncertainty_Be-7-uncertainty":2.0,"uncertainty_Cs-137-uncertainty":5.0,"uncertainty_Na-22-uncertainty":9.0,"uncertainty_Pb-210-uncertainty":4.0},"type":"Feature"},{"geometry":{"coordinates":[26.91808,60.48318],"type":"Point"},"properties":{"concentration_Be-7":1886.1,"concentration_Cs-137":0.7,"concentration_Na-22":0.3,"concentration_air-volume":95842.0,"from_timestamp":"2022-07-25T12:25:00Z","id":"103429","site":"Kotka","to_timestamp":"2022-08-01T08:24:00Z","uncertainty_Be-7-uncertainty":7.0,"uncertainty_Cs-137-uncertainty":9.0,"uncertainty_Na-22-uncertainty":16.0},"type":"Feature"},{"geometry":{"coordinates":[28.82663,61.13229],"type":"Point"},"properties":{"concentration_Be-7":3408.8,"concentration_Cs-137":1.1,"concentration_Na-22":0.8,"concentration_Pb-210":358.8,"concentration_air-volume":20203.0,"from_timestamp":"2022-07-18T04:17:00Z","id":"103430","site":"Imatra","to_timestamp":"2022-07-25T04:35:00Z","uncertainty_Be-7-uncertainty":5.0,"uncertainty_Cs-137-uncertainty":15.0,"uncertainty_Na-22-uncertainty":27.0,"uncertainty_Pb-210-uncertainty":5.0},"type":"Feature"},{"geometry":{"coordinates":[28.82663,61.13229],"type":"Point"},"properties":{"concentration_Be-7":2952.8,"concentration_Cs-137":0.7,"concentration_air-volume":20313.0,"from_timestamp":"2022-07-25T04:35:00Z","id":"103430","site":"Imatra","to_timestamp":"2022-08-01T03:49:00Z","uncertainty_Be-7-uncertainty":10.0,"uncertainty_Cs-137-uncertainty":21.0},"type":"Feature"},{"geometry":{"coordinates":[27.57,68.64],"type":"Point"},"properties":{"concentration_Be-7":2749.2,"concentration_air-volume":24782.0,"from_timestamp":"2022-07-14T05:43:00Z","id":"103431","site":"Ivalo","to_timestamp":"2022-07-21T06:48:00Z","uncertainty_Be-7-uncertainty":10.0},"type":"Feature"},{"geometry":{"coordinates":[27.57,68.64],"type":"Point"},"properties":{"concentration_Be-7":2115.2,"concentration_Pb-210":114.9,"concentration_air-volume":24458.0,"from_timestamp":"2022-07-21T06:49:00Z","id":"103431","site":"Ivalo","to_timestamp":"2022-07-28T05:49:00Z","uncertainty_Be-7-uncertainty":2.0,"uncertainty_Pb-210-uncertainty":5.0},"type":"Feature"},{"geometry":{"coordinates":[27.57,68.64],"type":"Point"},"properties":{"concentration_Be-7":2152.5,"concentration_Pb-210":167.3,"concentration_air-volume":24953.0,"from_timestamp":"2022-07-28T05:51:00Z","id":"103431","site":"Ivalo","to_timestamp":"2022-08-04T06:46:00Z","uncertainty_Be-7-uncertainty":5.0,"uncertainty_Pb-210-uncertainty":5.0},"type":"Feature"},{"geometry":{"coordinates":[27.63414,62.89195],"type":"Point"},"properties":{"concentration_Be-7":3257.6,"concentration_Pb-210":325.4,"concentration_air-volume":18442.0,"from_timestamp":"2022-07-19T07:40:00Z","id":"103432","site":"Kuopio","to_timestamp":"2022-07-25T07:40:00Z","uncertainty_Be-7-uncertainty":3.0,"uncertainty_Pb-210-uncertainty":12.0},"type":"Feature"},{"geometry":{"coordinates":[27.63414,62.89195],"type":"Point"},"properties":{"concentration_Be-7":2985.4,"concentration_Cs-137":1.0,"concentration_Pb-210":296.3,"concentration_air-volume":21870.0,"from_timestamp":"2022-07-25T07:43:00Z","id":"103432","site":"Kuopio","to_timestamp":"2022-08-01T09:09:00Z","uncertainty_Be-7-uncertainty":3.0,"uncertainty_Cs-137-uncertainty":20.0,"uncertainty_Pb-210-uncertainty":11.0},"type":"Feature"},{"geometry":{"coordinates":[25.67774,66.51285],"type":"Point"},"properties":{"concentration_Be-7":1751.3,"concentration_Cs-137":0.1,"concentration_Na-22":0.2,"concentration_Pb-210":128.4,"concentration_air-volume":152985.0,"from_timestamp":"2022-07-18T07:07:00Z","id":"103433","site":"Rovaniemi","to_timestamp":"2022-07-25T11:40:00Z","uncertainty_Be-7-uncertainty":2.0,"uncertainty_Cs-137-uncertainty":15.0,"uncertainty_Na-22-uncertainty":14.0,"uncertainty_Pb-210-uncertainty":4.0},"type":"Feature"},{"geometry":{"coordinates":[25.67774,66.51285],"type":"Point"},"properties":{"concentration_Be-7":1871.7,"concentration_Cs-137":0.2,"concentration_Na-22":0.3,"concentration_Pb-210":125.1,"concentration_air-volume":141207.0,"from_timestamp":"2022-07-25T11:53:00Z","id":"103433","site":"Rovaniemi","to_timestamp":"2022-08-01T07:27:00Z","uncertainty_Be-7-uncertainty":2.0,"uncertainty_Cs-137-uncertainty":14.0,"uncertainty_Na-22-uncertainty":16.0,"uncertainty_Pb-210-uncertainty":4.0},"type":"Feature"},{"geometry":{"coordinates":[26.62807,67.36505],"type":"Point"},"properties":{"concentration_Be-7":1746.8,"concentration_Pb-210":154.6,"concentration_air-volume":23836.0,"from_timestamp":"2022-07-18T06:19:00Z","id":"103434","site":"Sodankylä","to_timestamp":"2022-07-25T06:18:00Z","uncertainty_Be-7-uncertainty":5.0,"uncertainty_Pb-210-uncertainty":5.0},"type":"Feature"},{"geometry":{"coordinates":[26.62807,67.36505],"type":"Point"},"properties":{"concentration_Be-7":1803.3,"concentration_Pb-210":134.8,"concentration_air-volume":23838.0,"from_timestamp":"2022-07-25T06:19:00Z","id":"103434","site":"Sodankylä","to_timestamp":"2022-08-01T06:34:00Z","uncertainty_Be-7-uncertainty":6.0,"uncertainty_Pb-210-uncertainty":8.0},"type":"Feature"},{"geometry":{"coordinates":[27.70835,64.08474],"type":"Point"},"properties":{"concentration_Be-7":1925.0,"concentration_Cs-137":0.5,"concentration_Na-22":0.4,"concentration_Pb-210":174.3,"concentration_air-volume":91677.0,"from_timestamp":"2022-07-26T06:51:00Z","id":"103435","site":"Kajaani","to_timestamp":"2022-08-01T19:00:00Z","uncertainty_Be-7-uncertainty":5.0,"uncertainty_Cs-137-uncertainty":8.0,"uncertainty_Na-22-uncertainty":12.0,"uncertainty_Pb-210-uncertainty":5.0},"type":"Feature"},{"geometry":{"coordinates":[27.70835,64.08474],"type":"Point"},"properties":{"concentration_Be-7":2665.0,"concentration_Cs-137":0.4,"concentration_Na-22":0.3,"concentration_air-volume":102157.0,"from_timestamp":"2022-07-18T21:30:00Z","id":"103435","site":"Kajaani","to_timestamp":"2022-07-26T06:50:00Z","uncertainty_Be-7-uncertainty":7.0,"uncertainty_Cs-137-uncertainty":12.0,"uncertainty_Na-22-uncertainty":16.0},"type":"Feature"},{"geometry":{"coordinates":[25.05334,60.29049],"type":"Point"},"properties":{"concentration_Be-7":2521.5,"concentration_Cs-137":0.4,"concentration_Pb-210":247.1,"concentration_air-volume":35741.0,"from_timestamp":"2022-07-15T09:39:00Z","id":"107554","site":"Vantaa","to_timestamp":"2022-07-25T12:29:00Z","uncertainty_Be-7-uncertainty":2.0,"uncertainty_Cs-137-uncertainty":23.0,"uncertainty_Pb-210-uncertainty":4.0},"type":"Feature"},{"geometry":{"coordinates":[25.05334,60.29049],"type":"Point"},"properties":{"concentration_Be-7":2415.7,"concentration_Pb-210":245.2,"concentration_air-volume":24110.0,"from_timestamp":"2022-07-25T12:30:00Z","id":"107554","site":"Vantaa","to_timestamp":"2022-08-01T08:26:00Z","uncertainty_Be-7-uncertainty":2.0,"uncertainty_Pb-210-uncertainty":4.0},"type":"Feature"}],"name":"stuk_open_data_air_radionuclides","type":"FeatureCollection"}