{"crs":{"properties":{"name":"urn:ogc:def:crs:OGC:1.3:CRS84"},"type":"name"},"features":[{"geometry":{"coordinates":[26.91808,60.48318],"type":"Point"},"properties":{"concentration_Be-7":1262.5,"concentration_Cs-137":1.1,"concentration_Pb-210":214.4,"concentration_air-volume":89899.0,"from_timestamp":"2022-12-19T10:50:00Z","id":"103429","site":"Kotka","to_timestamp":"2022-12-26T11:05:00Z","uncertainty_Be-7-uncertainty":6.0,"uncertainty_Cs-137-uncertainty":7.0,"uncertainty_Pb-210-uncertainty":8.0},"type":"Feature"},{"geometry":{"coordinates":[26.91808,60.48318],"type":"Point"},"properties":{"concentration_Be-7":1066.1,"concentration_Cs-137":0.3,"concentration_Pb-210":126.1,"concentration_air-volume":96800.0,"from_timestamp":"2022-12-26T11:10:00Z","id":"103429","site":"Kotka","to_timestamp":"2023-01-02T09:00:00Z","uncertainty_Be-7-uncertainty":5.0,"uncertainty_Cs-137-uncertainty":12.0,"uncertainty_Pb-210-uncertainty":5.0},"type":"Feature"},{"geometry":{"coordinates":[28.82663,61.13229],"type":"Point"},"properties":{"concentration_Be-7":1685.0,"concentration_Pb-210":325.1,"concentration_air-volume":20866.0,"from_timestamp":"2022-12-15T07:00:00Z","id":"103430","site":"Imatra","to_timestamp":"2022-12-22T08:00:00Z","uncertainty_Be-7-uncertainty":6.0,"uncertainty_Pb-210-uncertainty":8.0},"type":"Feature"},{"geometry":{"coordinates":[28.82663,61.13229],"type":"Point"},"properties":{"concentration_Be-7":2045.7,"concentration_Cs-137":0.9,"concentration_air-volume":21239.0,"from_timestamp":"2022-12-22T08:00:00Z","id":"103430","site":"Imatra","to_timestamp":"2022-12-29T06:45:00Z","uncertainty_Be-7-uncertainty":10.0,"uncertainty_Cs-137-uncertainty":17.0},"type":"Feature"},{"geometry":{"coordinates":[27.57,68.64],"type":"Point"},"properties":{"concentration_Be-7":542.1,"concentration_Pb-210":178.9,"concentration_air-volume":42590.0,"from_timestamp":"2022-12-19T00:00:00Z","id":"103431","site":"Ivalo","to_timestamp":"2022-12-27T08:35:00Z","uncertainty_Be-7-uncertainty":6.0,"uncertainty_Pb-210-uncertainty":8.0},"type":"Feature"},{"geometry":{"coordinates":[27.57,68.64],"type":"Point"},"properties":{"concentration_Be-7":989.0,"concentration_Pb-210":234.4,"concentration_air-volume":21648.0,"from_timestamp":"2022-12-27T08:39:00Z","id":"103431","site":"Ivalo","to_timestamp":"2023-01-02T09:01:00Z","uncertainty_Be-7-uncertainty":6.0,"uncertainty_Pb-210-uncertainty":19.0},"type":"Feature"},{"geometry":{"coordinates":[27.63414,62.89195],"type":"Point"},"properties":{"concentration_Be-7":1654.0,"concentration_Pb-210":157.3,"concentration_air-volume":25806.0,"from_timestamp":"2022-12-19T11:44:00Z","id":"103432","site":"Kuopio","to_timestamp":"2022-12-27T09:14:00Z","uncertainty_Be-7-uncertainty":3.0,"uncertainty_Pb-210-uncertainty":13.0},"type":"Feature"},{"geometry":{"coordinates":[27.63414,62.89195],"type":"Point"},"properties":{"concentration_Be-7":1346.6,"concentration_Pb-210":138.1,"concentration_air-volume":19627.0,"from_timestamp":"2022-12-27T09:17:00Z","id":"103432","site":"Kuopio","to_timestamp":"2023-01-02T09:34:00Z","uncertainty_Be-7-uncertainty":3.0,"uncertainty_Pb-210-uncertainty":19.0},"type":"Feature"},{"geometry":{"coordinates":[25.67774,66.51285],"type":"Point"},"properties":{"concentration_Be-7":823.7,"concentration_Cs-137":0.1,"concentration_Na-22":0.1,"concentration_Pb-210":121.0,"concentration_air-volume":132285.0,"from_timestamp":"2022-12-27T10:17:00Z","id":"103433","site":"Rovaniemi","to_timestamp":"2023-01-02T10:13:00Z","uncertainty_Be-7-uncertainty":5.0,"uncertainty_Cs-137-uncertainty":26.0,"uncertainty_Na-22-uncertainty":30.0,"uncertainty_Pb-210-uncertainty":5.0},"type":"Feature"},{"geometry":{"coordinates":[25.67774,66.51285],"type":"Point"},"properties":{"concentration_Be-7":1074.3,"concentration_Cs-137":0.3,"concentration_Pb-210":583.7,"concentration_air-volume":161680.0,"from_timestamp":"2022-12-19T11:39:00Z","id":"103433","site":"Rovaniemi","to_timestamp":"2022-12-27T10:13:00Z","uncertainty_Be-7-uncertainty":7.0,"uncertainty_Cs-137-uncertainty":9.0,"uncertainty_Pb-210-uncertainty":19.0},"type":"Feature"},{"geometry":{"coordinates":[26.62807,67.36505],"type":"Point"},"properties":{"concentration_Be-7":1044.0,"concentration_Pb-210":205.9,"concentration_air-volume":21470.0,"from_timestamp":"2022-12-27T08:13:00Z","id":"103434","site":"Sodankylä","to_timestamp":"2023-01-02T08:04:00Z","uncertainty_Be-7-uncertainty":6.0,"uncertainty_Pb-210-uncertainty":19.0},"type":"Feature"},{"geometry":{"coordinates":[26.62807,67.36505],"type":"Point"},"properties":{"concentration_Be-7":1136.2,"concentration_Pb-210":333.7,"concentration_air-volume":29102.0,"from_timestamp":"2022-12-19T08:10:00Z","id":"103434","site":"Sodankylä","to_timestamp":"2022-12-27T08:12:00Z","uncertainty_Be-7-uncertainty":5.0,"uncertainty_Pb-210-uncertainty":5.0},"type":"Feature"},{"geometry":{"coordinates":[27.70835,64.08474],"type":"Point"},"properties":{"concentration_Be-7":1144.7,"concentration_Cs-137":0.3,"concentration_Na-22":0.1,"concentration_Pb-210":362.8,"concentration_air-volume":114540.0,"from_timestamp":"2022-12-12T13:30:00Z","id":"103435","site":"Kajaani","to_timestamp":"2022-12-20T07:24:00Z","uncertainty_Be-7-uncertainty":5.0,"uncertainty_Cs-137-uncertainty":8.0,"uncertainty_Na-22-uncertainty":22.0,"uncertainty_Pb-210-uncertainty":5.0},"type":"Feature"},{"geometry":{"coordinates":[27.70835,64.08474],"type":"Point"},"properties":{"concentration_Be-7":1013.6,"concentration_Cs-137":0.2,"concentration_Na-22":0.2,"concentration_Pb-210":204.9,"concentration_air-volume":92972.0,"from_timestamp":"2022-12-20T07:26:00Z","id":"103435","site":"Kajaani","to_timestamp":"2022-12-26T17:03:00Z","uncertainty_Be-7-uncertainty":5.0,"uncertainty_Cs-137-uncertainty":13.0,"uncertainty_Na-22-uncertainty":29.0,"uncertainty_Pb-210-uncertainty":5.0},"type":"Feature"},{"geometry":{"coordinates":[27.70835,64.08474],"type":"Point"},"properties":{"concentration_Be-7":994.8,"concentration_Cs-137":0.1,"concentration_Pb-210":14.5,"concentration_air-volume":102239.0,"from_timestamp":"2022-12-26T17:04:00Z","id":"103435","site":"Kajaani","to_timestamp":"2023-01-02T21:43:00Z","uncertainty_Be-7-uncertainty":5.0,"uncertainty_Cs-137-uncertainty":27.0,"uncertainty_Pb-210-uncertainty":26.0},"type":"Feature"}],"name":"stuk_open_data_air_radionuclides","type":"FeatureCollection"}