{"crs":{"properties":{"name":"urn:ogc:def:crs:OGC:1.3:CRS84"},"type":"name"},"features":[{"geometry":{"coordinates":[26.91808,60.48318],"type":"Point"},"properties":{"concentration_Be-7":2625.9,"concentration_Cs-137":0.8,"concentration_Na-22":0.4,"concentration_Pb-210":258.8,"concentration_air-volume":97948.0,"from_timestamp":"2023-08-07T09:20:00Z","id":"103429","site":"Kotka","to_timestamp":"2023-08-14T10:11:00Z","uncertainty_Be-7-uncertainty":5.0,"uncertainty_Cs-137-uncertainty":8.0,"uncertainty_Na-22-uncertainty":15.0,"uncertainty_Pb-210-uncertainty":5.0},"type":"Feature"},{"geometry":{"coordinates":[26.91808,60.48318],"type":"Point"},"properties":{"concentration_Be-7":2284.9,"concentration_Cs-137":0.5,"concentration_Na-22":0.3,"concentration_Pb-210":288.9,"concentration_air-volume":98262.0,"from_timestamp":"2023-08-14T10:12:00Z","id":"103429","site":"Kotka","to_timestamp":"2023-08-21T09:05:00Z","uncertainty_Be-7-uncertainty":5.0,"uncertainty_Cs-137-uncertainty":9.0,"uncertainty_Na-22-uncertainty":17.0,"uncertainty_Pb-210-uncertainty":5.0},"type":"Feature"},{"geometry":{"coordinates":[28.82663,61.13229],"type":"Point"},"properties":{"concentration_Be-7":2961.8,"concentration_Cs-137":0.4,"concentration_Na-22":0.5,"concentration_Pb-210":57.1,"concentration_air-volume":39684.0,"from_timestamp":"2023-08-07T07:00:00Z","id":"103430","site":"Imatra","to_timestamp":"2023-08-17T07:10:00Z","uncertainty_Be-7-uncertainty":6.0,"uncertainty_Cs-137-uncertainty":23.0,"uncertainty_Na-22-uncertainty":21.0,"uncertainty_Pb-210-uncertainty":16.0},"type":"Feature"},{"geometry":{"coordinates":[27.57,68.64],"type":"Point"},"properties":{"concentration_Be-7":2123.9,"concentration_Pb-210":208.3,"concentration_air-volume":23050.0,"from_timestamp":"2023-08-10T08:54:00Z","id":"103431","site":"Ivalo","to_timestamp":"2023-08-17T08:23:00Z","uncertainty_Be-7-uncertainty":5.0,"uncertainty_Pb-210-uncertainty":5.0},"type":"Feature"},{"geometry":{"coordinates":[27.57,68.64],"type":"Point"},"properties":{"concentration_Be-7":2407.3,"concentration_Pb-210":292.2,"concentration_air-volume":23094.0,"from_timestamp":"2023-08-03T08:19:00Z","id":"103431","site":"Ivalo","to_timestamp":"2023-08-10T08:52:00Z","uncertainty_Be-7-uncertainty":5.0,"uncertainty_Pb-210-uncertainty":10.0},"type":"Feature"},{"geometry":{"coordinates":[27.57,68.64],"type":"Point"},"properties":{"concentration_Be-7":7098.7,"concentration_air-volume":25617.0,"from_timestamp":"2023-01-19T08:35:00Z","id":"103431","site":"Ivalo","to_timestamp":"2023-10-26T09:10:00Z","uncertainty_Be-7-uncertainty":10.0},"type":"Feature"},{"geometry":{"coordinates":[27.63414,62.89195],"type":"Point"},"properties":{"concentration_Be-7":3458.6,"concentration_Pb-210":351.3,"concentration_air-volume":21633.0,"from_timestamp":"2023-08-07T09:12:00Z","id":"103432","site":"Kuopio","to_timestamp":"2023-08-14T09:43:00Z","uncertainty_Be-7-uncertainty":3.0,"uncertainty_Pb-210-uncertainty":10.0},"type":"Feature"},{"geometry":{"coordinates":[27.63414,62.89195],"type":"Point"},"properties":{"concentration_Be-7":2847.9,"concentration_Pb-210":265.6,"concentration_air-volume":22116.0,"from_timestamp":"2023-08-14T09:50:00Z","id":"103432","site":"Kuopio","to_timestamp":"2023-08-21T09:46:00Z","uncertainty_Be-7-uncertainty":3.0,"uncertainty_Pb-210-uncertainty":13.0},"type":"Feature"},{"geometry":{"coordinates":[25.67774,66.51285],"type":"Point"},"properties":{"concentration_Be-7":2392.4,"concentration_Cs-137":0.2,"concentration_Na-22":0.4,"concentration_Pb-210":260.9,"concentration_air-volume":129869.0,"from_timestamp":"2023-08-07T10:19:00Z","id":"103433","site":"Rovaniemi","to_timestamp":"2023-08-14T09:42:00Z","uncertainty_Be-7-uncertainty":5.0,"uncertainty_Cs-137-uncertainty":18.0,"uncertainty_Na-22-uncertainty":13.0,"uncertainty_Pb-210-uncertainty":4.0},"type":"Feature"},{"geometry":{"coordinates":[25.67774,66.51285],"type":"Point"},"properties":{"concentration_Be-7":1620.2,"concentration_Cs-137":0.2,"concentration_Pb-210":175.4,"concentration_air-volume":131223.0,"from_timestamp":"2023-08-14T09:45:00Z","id":"103433","site":"Rovaniemi","to_timestamp":"2023-08-21T08:51:00Z","uncertainty_Be-7-uncertainty":5.0,"uncertainty_Cs-137-uncertainty":22.0,"uncertainty_Pb-210-uncertainty":4.0},"type":"Feature"},{"geometry":{"coordinates":[26.62807,67.36505],"type":"Point"},"properties":{"concentration_Be-7":2107.8,"concentration_air-volume":22488.0,"from_timestamp":"2023-08-07T08:23:00Z","id":"103434","site":"Sodankylä","to_timestamp":"2023-08-14T08:40:00Z","uncertainty_Be-7-uncertainty":6.0},"type":"Feature"},{"geometry":{"coordinates":[26.62807,67.36505],"type":"Point"},"properties":{"concentration_Be-7":2012.6,"concentration_air-volume":22789.0,"from_timestamp":"2023-08-14T08:40:00Z","id":"103434","site":"Sodankylä","to_timestamp":"2023-08-21T08:28:00Z","uncertainty_Be-7-uncertainty":10.0},"type":"Feature"},{"geometry":{"coordinates":[27.70835,64.08474],"type":"Point"},"properties":{"concentration_Be-7":2805.4,"concentration_Cs-137":0.4,"concentration_Na-22":0.4,"concentration_Pb-210":822.9,"concentration_air-volume":92995.0,"from_timestamp":"2023-08-07T19:15:00Z","id":"103435","site":"Kajaani","to_timestamp":"2023-08-14T16:09:00Z","uncertainty_Be-7-uncertainty":7.0,"uncertainty_Cs-137-uncertainty":12.0,"uncertainty_Na-22-uncertainty":14.0,"uncertainty_Pb-210-uncertainty":25.0},"type":"Feature"},{"geometry":{"coordinates":[27.70835,64.08474],"type":"Point"},"properties":{"concentration_Be-7":2076.6,"concentration_Cs-137":0.3,"concentration_Na-22":0.4,"concentration_Pb-210":160.5,"concentration_air-volume":106438.0,"from_timestamp":"2023-08-14T16:10:00Z","id":"103435","site":"Kajaani","to_timestamp":"2023-08-21T11:10:00Z","uncertainty_Be-7-uncertainty":5.0,"uncertainty_Cs-137-uncertainty":11.0,"uncertainty_Na-22-uncertainty":14.0,"uncertainty_Pb-210-uncertainty":5.0},"type":"Feature"}],"name":"stuk_open_data_air_radionuclides","type":"FeatureCollection"}