{"crs":{"properties":{"name":"urn:ogc:def:crs:OGC:1.3:CRS84"},"type":"name"},"features":[{"geometry":{"coordinates":[26.91808,60.48318],"type":"Point"},"properties":{"concentration_Be-7":1052.6,"concentration_Cs-137":1.6,"concentration_Pb-210":497.9,"concentration_air-volume":100162.0,"from_timestamp":"2023-02-13T09:20:00Z","id":"103429","site":"Kotka","to_timestamp":"2023-02-20T09:05:00Z","uncertainty_Be-7-uncertainty":7.0,"uncertainty_Cs-137-uncertainty":8.0,"uncertainty_Pb-210-uncertainty":22.0},"type":"Feature"},{"geometry":{"coordinates":[26.91808,60.48318],"type":"Point"},"properties":{"concentration_Be-7":1475.4,"concentration_Co-60":0.3,"concentration_Cs-137":1.4,"concentration_Fe-59":0.3,"concentration_Na-22":0.2,"concentration_Pb-210":1344.5,"concentration_Sc-46":0.4,"concentration_air-volume":99555.0,"from_timestamp":"2023-02-20T08:55:00Z","id":"103429","site":"Kotka","to_timestamp":"2023-02-27T11:20:00Z","uncertainty_Be-7-uncertainty":2.0,"uncertainty_Co-60-uncertainty":9.0,"uncertainty_Cs-137-uncertainty":4.0,"uncertainty_Fe-59-uncertainty":22.0,"uncertainty_Na-22-uncertainty":24.0,"uncertainty_Pb-210-uncertainty":4.0,"uncertainty_Sc-46-uncertainty":10.0},"type":"Feature"},{"geometry":{"coordinates":[28.82663,61.13229],"type":"Point"},"properties":{"concentration_Be-7":1978.2,"concentration_Co-60":2.4,"concentration_Cs-137":0.9,"concentration_Pb-210":568.4,"concentration_air-volume":12048.0,"from_timestamp":"2023-02-16T06:58:00Z","id":"103430","site":"Imatra","to_timestamp":"2023-02-20T06:40:00Z","uncertainty_Be-7-uncertainty":2.0,"uncertainty_Co-60-uncertainty":9.0,"uncertainty_Cs-137-uncertainty":23.0,"uncertainty_Pb-210-uncertainty":4.0},"type":"Feature"},{"geometry":{"coordinates":[28.82663,61.13229],"type":"Point"},"properties":{"concentration_Be-7":1611.9,"concentration_Pb-210":169.6,"concentration_air-volume":9241.0,"from_timestamp":"2023-02-13T06:15:00Z","id":"103430","site":"Imatra","to_timestamp":"2023-02-16T06:54:00Z","uncertainty_Be-7-uncertainty":3.0,"uncertainty_Pb-210-uncertainty":4.0},"type":"Feature"},{"geometry":{"coordinates":[28.82663,61.13229],"type":"Point"},"properties":{"concentration_Be-7":2018.8,"concentration_Cs-137":2.7,"concentration_Pb-210":2377.1,"concentration_air-volume":21271.0,"from_timestamp":"2023-02-20T06:50:00Z","id":"103430","site":"Imatra","to_timestamp":"2023-02-28T07:00:00Z","uncertainty_Be-7-uncertainty":2.0,"uncertainty_Cs-137-uncertainty":6.0,"uncertainty_Pb-210-uncertainty":4.0},"type":"Feature"},{"geometry":{"coordinates":[27.57,68.64],"type":"Point"},"properties":{"concentration_Be-7":1044.6,"concentration_air-volume":31222.0,"from_timestamp":"2023-02-16T09:10:00Z","id":"103431","site":"Ivalo","to_timestamp":"2023-02-23T08:23:00Z","uncertainty_Be-7-uncertainty":10.0},"type":"Feature"},{"geometry":{"coordinates":[27.57,68.64],"type":"Point"},"properties":{"concentration_Be-7":1248.7,"concentration_Pb-210":119.3,"concentration_air-volume":15001.0,"from_timestamp":"2023-02-13T08:40:00Z","id":"103431","site":"Ivalo","to_timestamp":"2023-02-16T09:03:00Z","uncertainty_Be-7-uncertainty":6.0,"uncertainty_Pb-210-uncertainty":20.0},"type":"Feature"},{"geometry":{"coordinates":[27.57,68.64],"type":"Point"},"properties":{"concentration_Be-7":7098.7,"concentration_air-volume":25617.0,"from_timestamp":"2023-01-19T08:35:00Z","id":"103431","site":"Ivalo","to_timestamp":"2023-10-26T09:10:00Z","uncertainty_Be-7-uncertainty":10.0},"type":"Feature"},{"geometry":{"coordinates":[27.63414,62.89195],"type":"Point"},"properties":{"concentration_Be-7":1435.3,"concentration_Pb-210":273.0,"concentration_air-volume":23161.0,"from_timestamp":"2023-02-13T09:46:00Z","id":"103432","site":"Kuopio","to_timestamp":"2023-02-20T09:02:00Z","uncertainty_Be-7-uncertainty":3.0,"uncertainty_Pb-210-uncertainty":10.0},"type":"Feature"},{"geometry":{"coordinates":[27.63414,62.89195],"type":"Point"},"properties":{"concentration_Be-7":1718.8,"concentration_Cs-137":0.8,"concentration_Pb-210":1669.2,"concentration_air-volume":23783.0,"from_timestamp":"2023-02-20T09:04:00Z","id":"103432","site":"Kuopio","to_timestamp":"2023-02-27T09:58:00Z","uncertainty_Be-7-uncertainty":3.0,"uncertainty_Cs-137-uncertainty":24.0,"uncertainty_Pb-210-uncertainty":4.0},"type":"Feature"},{"geometry":{"coordinates":[25.67774,66.51285],"type":"Point"},"properties":{"concentration_Be-7":1136.0,"concentration_Cs-137":0.2,"concentration_Pb-210":219.0,"concentration_air-volume":148955.0,"from_timestamp":"2023-02-13T09:08:00Z","id":"103433","site":"Rovaniemi","to_timestamp":"2023-02-24T11:34:00Z","uncertainty_Be-7-uncertainty":5.0,"uncertainty_Cs-137-uncertainty":18.0,"uncertainty_Pb-210-uncertainty":4.0},"type":"Feature"},{"geometry":{"coordinates":[25.67774,66.51285],"type":"Point"},"properties":{"concentration_Be-7":1337.4,"concentration_Cs-137":0.4,"concentration_Na-22":0.2,"concentration_Pb-210":989.5,"concentration_air-volume":117773.0,"from_timestamp":"2023-02-20T09:16:00Z","id":"103433","site":"Rovaniemi","to_timestamp":"2023-02-27T09:48:00Z","uncertainty_Be-7-uncertainty":5.0,"uncertainty_Cs-137-uncertainty":11.0,"uncertainty_Na-22-uncertainty":30.0,"uncertainty_Pb-210-uncertainty":4.0},"type":"Feature"},{"geometry":{"coordinates":[26.62807,67.36505],"type":"Point"},"properties":{"concentration_Be-7":1379.8,"concentration_Pb-210":756.7,"concentration_air-volume":25403.0,"from_timestamp":"2023-02-16T08:26:00Z","id":"103434","site":"Sodankylä","to_timestamp":"2023-02-23T08:22:00Z","uncertainty_Be-7-uncertainty":6.0,"uncertainty_Pb-210-uncertainty":8.0},"type":"Feature"},{"geometry":{"coordinates":[26.62807,67.36505],"type":"Point"},"properties":{"concentration_Be-7":1405.8,"concentration_Pb-210":141.8,"concentration_air-volume":10804.0,"from_timestamp":"2023-02-13T08:09:00Z","id":"103434","site":"Sodankylä","to_timestamp":"2023-02-16T08:25:00Z","uncertainty_Be-7-uncertainty":5.0,"uncertainty_Pb-210-uncertainty":5.0},"type":"Feature"},{"geometry":{"coordinates":[27.70835,64.08474],"type":"Point"},"properties":{"concentration_Be-7":1198.0,"concentration_Cs-137":0.3,"concentration_Pb-210":254.3,"concentration_Sc-46":0.4,"concentration_air-volume":99868.0,"from_timestamp":"2023-02-13T10:05:00Z","id":"103435","site":"Kajaani","to_timestamp":"2023-02-20T09:37:00Z","uncertainty_Be-7-uncertainty":5.0,"uncertainty_Cs-137-uncertainty":10.0,"uncertainty_Pb-210-uncertainty":5.0,"uncertainty_Sc-46-uncertainty":9.0},"type":"Feature"},{"geometry":{"coordinates":[25.05334,60.29049],"type":"Point"},"properties":{"concentration_Be-7":1221.3,"concentration_Pb-210":203.1,"concentration_air-volume":14411.0,"from_timestamp":"2023-02-15T08:01:00Z","id":"107554","site":"Vantaa","to_timestamp":"2023-02-17T06:12:00Z","uncertainty_Be-7-uncertainty":8.0,"uncertainty_Pb-210-uncertainty":7.0},"type":"Feature"},{"geometry":{"coordinates":[25.05334,60.29049],"type":"Point"},"properties":{"concentration_Be-7":940.3,"concentration_Pb-210":377.6,"concentration_air-volume":13885.0,"from_timestamp":"2023-02-17T08:01:00Z","id":"107554","site":"Vantaa","to_timestamp":"2023-02-18T07:36:00Z","uncertainty_Be-7-uncertainty":8.0,"uncertainty_Pb-210-uncertainty":6.0},"type":"Feature"},{"geometry":{"coordinates":[25.05334,60.29049],"type":"Point"},"properties":{"concentration_Be-7":1042.0,"concentration_Pb-210":399.5,"concentration_air-volume":818.0,"from_timestamp":"2023-02-17T06:37:00Z","id":"107554","site":"Vantaa","to_timestamp":"2023-02-17T07:36:00Z","uncertainty_Be-7-uncertainty":10.0,"uncertainty_Pb-210-uncertainty":17.0},"type":"Feature"},{"geometry":{"coordinates":[25.05334,60.29049],"type":"Point"},"properties":{"concentration_Be-7":913.3,"concentration_Pb-210":876.4,"concentration_air-volume":14051.0,"from_timestamp":"2023-02-20T08:01:00Z","id":"107554","site":"Vantaa","to_timestamp":"2023-02-21T07:36:00Z","uncertainty_Be-7-uncertainty":8.0,"uncertainty_Pb-210-uncertainty":6.0},"type":"Feature"},{"geometry":{"coordinates":[25.05334,60.29049],"type":"Point"},"properties":{"concentration_Be-7":835.9,"concentration_Pb-210":422.4,"concentration_air-volume":13886.0,"from_timestamp":"2023-02-18T08:01:00Z","id":"107554","site":"Vantaa","to_timestamp":"2023-02-19T07:36:00Z","uncertainty_Be-7-uncertainty":8.0,"uncertainty_Pb-210-uncertainty":6.0},"type":"Feature"},{"geometry":{"coordinates":[25.05334,60.29049],"type":"Point"},"properties":{"concentration_Be-7":997.9,"concentration_Pb-210":883.2,"concentration_air-volume":14269.0,"from_timestamp":"2023-02-19T08:01:00Z","id":"107554","site":"Vantaa","to_timestamp":"2023-02-20T07:36:00Z","uncertainty_Be-7-uncertainty":8.0,"uncertainty_Pb-210-uncertainty":6.0},"type":"Feature"},{"geometry":{"coordinates":[25.05334,60.29049],"type":"Point"},"properties":{"concentration_Be-7":1402.7,"concentration_Pb-210":2312.3,"concentration_air-volume":14678.0,"from_timestamp":"2023-02-21T08:01:00Z","id":"107554","site":"Vantaa","to_timestamp":"2023-02-22T07:36:00Z","uncertainty_Be-7-uncertainty":8.0,"uncertainty_Pb-210-uncertainty":6.0},"type":"Feature"}],"name":"stuk_open_data_air_radionuclides","type":"FeatureCollection"}