{"crs":{"properties":{"name":"urn:ogc:def:crs:OGC:1.3:CRS84"},"type":"name"},"features":[{"geometry":{"coordinates":[26.91808,60.48318],"type":"Point"},"properties":{"concentration_Be-7":408.4,"concentration_Cs-137":0.4,"concentration_Pb-210":457.9,"concentration_air-volume":94467.0,"from_timestamp":"2023-01-09T10:15:00Z","id":"103429","site":"Kotka","to_timestamp":"2023-01-16T10:57:00Z","uncertainty_Be-7-uncertainty":5.0,"uncertainty_Cs-137-uncertainty":10.0,"uncertainty_Pb-210-uncertainty":5.0},"type":"Feature"},{"geometry":{"coordinates":[26.91808,60.48318],"type":"Point"},"properties":{"concentration_Be-7":831.5,"concentration_Cs-137":1.2,"concentration_Pb-210":216.6,"concentration_air-volume":97760.0,"from_timestamp":"2023-01-16T11:01:00Z","id":"103429","site":"Kotka","to_timestamp":"2023-01-23T10:05:00Z","uncertainty_Be-7-uncertainty":5.0,"uncertainty_Cs-137-uncertainty":6.0,"uncertainty_Pb-210-uncertainty":5.0},"type":"Feature"},{"geometry":{"coordinates":[28.82663,61.13229],"type":"Point"},"properties":{"concentration_Be-7":815.0,"concentration_Cs-137":0.5,"concentration_Pb-210":297.9,"concentration_air-volume":20866.0,"from_timestamp":"2023-01-12T07:30:00Z","id":"103430","site":"Imatra","to_timestamp":"2023-01-19T06:50:00Z","uncertainty_Be-7-uncertainty":5.0,"uncertainty_Cs-137-uncertainty":26.0,"uncertainty_Pb-210-uncertainty":5.0},"type":"Feature"},{"geometry":{"coordinates":[28.82663,61.13229],"type":"Point"},"properties":{"concentration_Be-7":980.3,"concentration_Cs-137":1.0,"concentration_Pb-210":233.3,"concentration_air-volume":21439.0,"from_timestamp":"2023-01-19T06:50:00Z","id":"103430","site":"Imatra","to_timestamp":"2023-01-26T06:45:00Z","uncertainty_Be-7-uncertainty":5.0,"uncertainty_Cs-137-uncertainty":9.0,"uncertainty_Pb-210-uncertainty":5.0},"type":"Feature"},{"geometry":{"coordinates":[27.57,68.64],"type":"Point"},"properties":{"concentration_Be-7":1183.9,"concentration_Cs-137":0.4,"concentration_air-volume":24949.0,"from_timestamp":"2023-01-09T08:23:00Z","id":"103431","site":"Ivalo","to_timestamp":"2023-01-16T08:37:00Z","uncertainty_Be-7-uncertainty":6.0,"uncertainty_Cs-137-uncertainty":27.0},"type":"Feature"},{"geometry":{"coordinates":[27.57,68.64],"type":"Point"},"properties":{"concentration_Be-7":816.3,"concentration_Cs-137":0.5,"concentration_air-volume":25044.0,"from_timestamp":"2023-01-16T08:40:00Z","id":"103431","site":"Ivalo","to_timestamp":"2023-01-23T08:27:00Z","uncertainty_Be-7-uncertainty":6.0,"uncertainty_Cs-137-uncertainty":21.0},"type":"Feature"},{"geometry":{"coordinates":[27.57,68.64],"type":"Point"},"properties":{"concentration_Be-7":7098.7,"concentration_air-volume":25617.0,"from_timestamp":"2023-01-19T08:35:00Z","id":"103431","site":"Ivalo","to_timestamp":"2023-10-26T09:10:00Z","uncertainty_Be-7-uncertainty":10.0},"type":"Feature"},{"geometry":{"coordinates":[27.63414,62.89195],"type":"Point"},"properties":{"concentration_Be-7":1219.8,"concentration_Pb-210":434.8,"concentration_air-volume":22386.0,"from_timestamp":"2023-01-09T09:02:00Z","id":"103432","site":"Kuopio","to_timestamp":"2023-01-16T08:27:00Z","uncertainty_Be-7-uncertainty":3.0,"uncertainty_Pb-210-uncertainty":8.0},"type":"Feature"},{"geometry":{"coordinates":[27.63414,62.89195],"type":"Point"},"properties":{"concentration_Be-7":952.6,"concentration_Pb-210":150.5,"concentration_air-volume":23237.0,"from_timestamp":"2023-01-16T08:30:00Z","id":"103432","site":"Kuopio","to_timestamp":"2023-01-23T09:30:00Z","uncertainty_Be-7-uncertainty":3.0,"uncertainty_Pb-210-uncertainty":17.0},"type":"Feature"},{"geometry":{"coordinates":[25.67774,66.51285],"type":"Point"},"properties":{"concentration_Be-7":681.0,"concentration_Cs-137":0.1,"concentration_Pb-210":276.9,"concentration_air-volume":157740.0,"from_timestamp":"2023-01-09T10:00:00Z","id":"103433","site":"Rovaniemi","to_timestamp":"2023-01-16T15:31:00Z","uncertainty_Be-7-uncertainty":5.0,"uncertainty_Cs-137-uncertainty":14.0,"uncertainty_Pb-210-uncertainty":4.0},"type":"Feature"},{"geometry":{"coordinates":[25.67774,66.51285],"type":"Point"},"properties":{"concentration_Be-7":787.5,"concentration_Cs-137":0.2,"concentration_Na-22":0.1,"concentration_Pb-210":171.1,"concentration_air-volume":145931.0,"from_timestamp":"2023-01-16T15:33:00Z","id":"103433","site":"Rovaniemi","to_timestamp":"2023-01-23T10:02:00Z","uncertainty_Be-7-uncertainty":5.0,"uncertainty_Cs-137-uncertainty":11.0,"uncertainty_Na-22-uncertainty":30.0,"uncertainty_Pb-210-uncertainty":4.0},"type":"Feature"},{"geometry":{"coordinates":[26.62807,67.36505],"type":"Point"},"properties":{"concentration_Be-7":1203.6,"concentration_Pb-210":523.1,"concentration_air-volume":25096.0,"from_timestamp":"2023-01-09T08:06:00Z","id":"103434","site":"Sodankylä","to_timestamp":"2023-01-16T08:19:00Z","uncertainty_Be-7-uncertainty":6.0,"uncertainty_Pb-210-uncertainty":19.0},"type":"Feature"},{"geometry":{"coordinates":[26.62807,67.36505],"type":"Point"},"properties":{"concentration_Be-7":877.0,"concentration_Pb-210":163.2,"concentration_air-volume":25336.0,"from_timestamp":"2023-01-16T08:20:00Z","id":"103434","site":"Sodankylä","to_timestamp":"2023-01-23T08:19:00Z","uncertainty_Be-7-uncertainty":3.0,"uncertainty_Pb-210-uncertainty":4.0},"type":"Feature"},{"geometry":{"coordinates":[27.70835,64.08474],"type":"Point"},"properties":{"concentration_Be-7":1766.3,"concentration_Cs-137":0.3,"concentration_Na-22":0.2,"concentration_Pb-210":344.7,"concentration_air-volume":183369.0,"from_timestamp":"2023-01-02T21:20:00Z","id":"103435","site":"Kajaani","to_timestamp":"2023-01-20T14:51:00Z","uncertainty_Be-7-uncertainty":5.0,"uncertainty_Cs-137-uncertainty":9.0,"uncertainty_Na-22-uncertainty":15.0,"uncertainty_Pb-210-uncertainty":5.0},"type":"Feature"},{"geometry":{"coordinates":[27.70835,64.08474],"type":"Point"},"properties":{"concentration_Be-7":737.1,"concentration_Cs-137":0.2,"concentration_Na-22":0.1,"concentration_Pb-210":291.0,"concentration_air-volume":255939.0,"from_timestamp":"2023-01-11T07:10:00Z","id":"103435","site":"Kajaani","to_timestamp":"2023-01-23T13:00:00Z","uncertainty_Be-7-uncertainty":7.0,"uncertainty_Cs-137-uncertainty":8.0,"uncertainty_Na-22-uncertainty":18.0,"uncertainty_Pb-210-uncertainty":17.0},"type":"Feature"}],"name":"stuk_open_data_air_radionuclides","type":"FeatureCollection"}