{"crs":{"properties":{"name":"urn:ogc:def:crs:OGC:1.3:CRS84"},"type":"name"},"features":[{"geometry":{"coordinates":[26.91808,60.48318],"type":"Point"},"properties":{"concentration_Be-7":4114.3,"concentration_Cs-137":0.8,"concentration_Na-22":0.6,"concentration_Pb-210":327.9,"concentration_air-volume":98162.0,"from_timestamp":"2023-06-26T08:53:00Z","id":"103429","site":"Kotka","to_timestamp":"2023-07-03T11:27:00Z","uncertainty_Be-7-uncertainty":2.0,"uncertainty_Cs-137-uncertainty":5.0,"uncertainty_Na-22-uncertainty":9.0,"uncertainty_Pb-210-uncertainty":4.0},"type":"Feature"},{"geometry":{"coordinates":[26.91808,60.48318],"type":"Point"},"properties":{"concentration_Be-7":2251.3,"concentration_Cs-137":0.4,"concentration_Na-22":0.3,"concentration_air-volume":98433.0,"from_timestamp":"2023-07-03T11:35:00Z","id":"103429","site":"Kotka","to_timestamp":"2023-07-10T10:30:00Z","uncertainty_Be-7-uncertainty":7.0,"uncertainty_Cs-137-uncertainty":10.0,"uncertainty_Na-22-uncertainty":16.0},"type":"Feature"},{"geometry":{"coordinates":[28.82663,61.13229],"type":"Point"},"properties":{"concentration_Be-7":3681.4,"concentration_Cs-137":0.8,"concentration_Na-22":0.7,"concentration_Pb-210":284.0,"concentration_air-volume":76177.0,"from_timestamp":"2023-06-15T06:15:00Z","id":"103430","site":"Imatra","to_timestamp":"2023-07-13T06:40:00Z","uncertainty_Be-7-uncertainty":2.0,"uncertainty_Cs-137-uncertainty":7.0,"uncertainty_Na-22-uncertainty":10.0,"uncertainty_Pb-210-uncertainty":4.0},"type":"Feature"},{"geometry":{"coordinates":[27.57,68.64],"type":"Point"},"properties":{"concentration_Be-7":1087.1,"concentration_Pb-210":84.1,"concentration_air-volume":20825.0,"from_timestamp":"2023-06-29T08:56:00Z","id":"103431","site":"Ivalo","to_timestamp":"2023-07-06T08:18:00Z","uncertainty_Be-7-uncertainty":6.0,"uncertainty_Pb-210-uncertainty":19.0},"type":"Feature"},{"geometry":{"coordinates":[27.57,68.64],"type":"Point"},"properties":{"concentration_Be-7":3378.3,"concentration_Na-22":1.0,"concentration_Pb-210":191.2,"concentration_air-volume":22036.0,"from_timestamp":"2023-07-06T08:20:00Z","id":"103431","site":"Ivalo","to_timestamp":"2023-07-13T08:54:00Z","uncertainty_Be-7-uncertainty":2.0,"uncertainty_Na-22-uncertainty":20.0,"uncertainty_Pb-210-uncertainty":4.0},"type":"Feature"},{"geometry":{"coordinates":[27.57,68.64],"type":"Point"},"properties":{"concentration_Be-7":7098.7,"concentration_air-volume":25617.0,"from_timestamp":"2023-01-19T08:35:00Z","id":"103431","site":"Ivalo","to_timestamp":"2023-10-26T09:10:00Z","uncertainty_Be-7-uncertainty":10.0},"type":"Feature"},{"geometry":{"coordinates":[25.67774,66.51285],"type":"Point"},"properties":{"concentration_Be-7":3886.3,"concentration_Cs-137":0.1,"concentration_Na-22":0.6,"concentration_Pb-210":227.6,"concentration_air-volume":126575.0,"from_timestamp":"2023-06-26T10:36:00Z","id":"103433","site":"Rovaniemi","to_timestamp":"2023-07-03T09:11:00Z","uncertainty_Be-7-uncertainty":5.0,"uncertainty_Cs-137-uncertainty":25.0,"uncertainty_Na-22-uncertainty":10.0,"uncertainty_Pb-210-uncertainty":4.0},"type":"Feature"},{"geometry":{"coordinates":[25.67774,66.51285],"type":"Point"},"properties":{"concentration_Be-7":2240.7,"concentration_Cs-137":0.1,"concentration_I-131":1.8,"concentration_Na-22":0.4,"concentration_air-volume":135232.0,"from_timestamp":"2023-07-03T09:17:00Z","id":"103433","site":"Rovaniemi","to_timestamp":"2023-07-10T09:38:00Z","uncertainty_Be-7-uncertainty":7.0,"uncertainty_Cs-137-uncertainty":25.0,"uncertainty_I-131-uncertainty":9.0,"uncertainty_Na-22-uncertainty":12.0},"type":"Feature"},{"geometry":{"coordinates":[26.62807,67.36505],"type":"Point"},"properties":{"concentration_Be-7":2459.4,"concentration_air-volume":22682.0,"from_timestamp":"2023-06-26T08:29:00Z","id":"103434","site":"Sodankylä","to_timestamp":"2023-07-03T08:32:00Z","uncertainty_Be-7-uncertainty":6.0},"type":"Feature"},{"geometry":{"coordinates":[26.62807,67.36505],"type":"Point"},"properties":{"concentration_Be-7":2479.7,"concentration_Cs-137":0.4,"concentration_Pb-210":136.0,"concentration_air-volume":22881.0,"from_timestamp":"2023-07-03T08:34:00Z","id":"103434","site":"Sodankylä","to_timestamp":"2023-07-10T08:46:00Z","uncertainty_Be-7-uncertainty":2.0,"uncertainty_Cs-137-uncertainty":22.0,"uncertainty_Pb-210-uncertainty":4.0},"type":"Feature"},{"geometry":{"coordinates":[27.70835,64.08474],"type":"Point"},"properties":{"concentration_Be-7":1383.1,"concentration_Cs-137":0.3,"concentration_Na-22":0.2,"concentration_Pb-210":112.9,"concentration_air-volume":96055.0,"from_timestamp":"2023-07-03T19:28:00Z","id":"103435","site":"Kajaani","to_timestamp":"2023-07-10T16:55:00Z","uncertainty_Be-7-uncertainty":5.0,"uncertainty_Cs-137-uncertainty":12.0,"uncertainty_Na-22-uncertainty":27.0,"uncertainty_Pb-210-uncertainty":5.0},"type":"Feature"},{"geometry":{"coordinates":[27.70835,64.08474],"type":"Point"},"properties":{"concentration_Be-7":2881.3,"concentration_Cs-137":0.2,"concentration_Na-22":0.6,"concentration_Pb-210":165.7,"concentration_air-volume":99637.0,"from_timestamp":"2023-06-26T12:51:00Z","id":"103435","site":"Kajaani","to_timestamp":"2023-07-03T19:21:00Z","uncertainty_Be-7-uncertainty":5.0,"uncertainty_Cs-137-uncertainty":18.0,"uncertainty_Na-22-uncertainty":11.0,"uncertainty_Pb-210-uncertainty":5.0},"type":"Feature"},{"geometry":{"coordinates":[25.05334,60.29049],"type":"Point"},"properties":{"concentration_Be-7":1639.4,"concentration_Pb-210":70.0,"concentration_air-volume":12894.0,"from_timestamp":"2023-07-03T08:01:00Z","id":"107554","site":"Vantaa","to_timestamp":"2023-07-04T07:25:00Z","uncertainty_Be-7-uncertainty":8.0,"uncertainty_Pb-210-uncertainty":9.0},"type":"Feature"},{"geometry":{"coordinates":[25.05334,60.29049],"type":"Point"},"properties":{"concentration_Be-7":3813.4,"concentration_Pb-210":311.4,"concentration_air-volume":12746.0,"from_timestamp":"2023-07-01T08:01:00Z","id":"107554","site":"Vantaa","to_timestamp":"2023-07-02T07:26:00Z","uncertainty_Be-7-uncertainty":8.0,"uncertainty_Pb-210-uncertainty":7.0},"type":"Feature"},{"geometry":{"coordinates":[25.05334,60.29049],"type":"Point"},"properties":{"concentration_Be-7":1879.9,"concentration_Pb-210":135.4,"concentration_air-volume":12684.0,"from_timestamp":"2023-07-02T08:01:00Z","id":"107554","site":"Vantaa","to_timestamp":"2023-07-03T07:26:00Z","uncertainty_Be-7-uncertainty":8.0,"uncertainty_Pb-210-uncertainty":7.0},"type":"Feature"},{"geometry":{"coordinates":[25.05334,60.29049],"type":"Point"},"properties":{"concentration_Be-7":5258.0,"concentration_Pb-210":489.6,"concentration_air-volume":12357.0,"from_timestamp":"2023-06-30T08:01:00Z","id":"107554","site":"Vantaa","to_timestamp":"2023-07-01T07:26:00Z","uncertainty_Be-7-uncertainty":8.0,"uncertainty_Pb-210-uncertainty":7.0},"type":"Feature"},{"geometry":{"coordinates":[25.05334,60.29049],"type":"Point"},"properties":{"concentration_Be-7":4458.6,"concentration_Pb-210":619.9,"concentration_air-volume":12607.0,"from_timestamp":"2023-06-29T08:01:00Z","id":"107554","site":"Vantaa","to_timestamp":"2023-06-30T07:26:00Z","uncertainty_Be-7-uncertainty":8.0,"uncertainty_Pb-210-uncertainty":6.0},"type":"Feature"},{"geometry":{"coordinates":[25.05334,60.29049],"type":"Point"},"properties":{"concentration_Be-7":2338.6,"concentration_Pb-210":91.9,"concentration_air-volume":13100.0,"from_timestamp":"2023-07-04T08:01:00Z","id":"107554","site":"Vantaa","to_timestamp":"2023-07-05T07:25:00Z","uncertainty_Be-7-uncertainty":8.0,"uncertainty_Pb-210-uncertainty":8.0},"type":"Feature"},{"geometry":{"coordinates":[25.05334,60.29049],"type":"Point"},"properties":{"concentration_Be-7":2537.2,"concentration_Pb-210":239.7,"concentration_air-volume":13129.0,"from_timestamp":"2023-07-06T08:01:00Z","id":"107554","site":"Vantaa","to_timestamp":"2023-07-07T07:25:00Z","uncertainty_Be-7-uncertainty":8.0,"uncertainty_Pb-210-uncertainty":7.0},"type":"Feature"},{"geometry":{"coordinates":[25.05334,60.29049],"type":"Point"},"properties":{"concentration_Be-7":2080.0,"concentration_Pb-210":157.1,"concentration_air-volume":13167.0,"from_timestamp":"2023-07-05T08:01:00Z","id":"107554","site":"Vantaa","to_timestamp":"2023-07-06T07:25:00Z","uncertainty_Be-7-uncertainty":8.0,"uncertainty_Pb-210-uncertainty":7.0},"type":"Feature"},{"geometry":{"coordinates":[25.05334,60.29049],"type":"Point"},"properties":{"concentration_Be-7":1781.9,"concentration_Pb-210":211.3,"concentration_air-volume":13124.0,"from_timestamp":"2023-07-07T08:01:00Z","id":"107554","site":"Vantaa","to_timestamp":"2023-07-08T07:25:00Z","uncertainty_Be-7-uncertainty":8.0,"uncertainty_Pb-210-uncertainty":7.0},"type":"Feature"}],"name":"stuk_open_data_air_radionuclides","type":"FeatureCollection"}