{"crs":{"properties":{"name":"urn:ogc:def:crs:OGC:1.3:CRS84"},"type":"name"},"features":[{"geometry":{"coordinates":[26.91808,60.48318],"type":"Point"},"properties":{"concentration_Be-7":1526.7,"concentration_Cs-137":0.9,"concentration_air-volume":22932.0,"from_timestamp":"2023-03-23T12:25:00Z","id":"103429","site":"Kotka","to_timestamp":"2023-03-27T11:00:00Z","uncertainty_Be-7-uncertainty":7.0,"uncertainty_Cs-137-uncertainty":16.0},"type":"Feature"},{"geometry":{"coordinates":[28.82663,61.13229],"type":"Point"},"properties":{"concentration_Be-7":2764.2,"concentration_Cs-137":1.0,"concentration_Pb-210":300.4,"concentration_air-volume":21222.0,"from_timestamp":"2023-03-16T00:00:00Z","id":"103430","site":"Imatra","to_timestamp":"2023-03-23T07:20:00Z","uncertainty_Be-7-uncertainty":6.0,"uncertainty_Cs-137-uncertainty":13.0,"uncertainty_Pb-210-uncertainty":19.0},"type":"Feature"},{"geometry":{"coordinates":[27.57,68.64],"type":"Point"},"properties":{"concentration_Be-7":1760.8,"concentration_air-volume":25726.0,"from_timestamp":"2023-03-16T07:53:00Z","id":"103431","site":"Ivalo","to_timestamp":"2023-03-23T08:31:00Z","uncertainty_Be-7-uncertainty":10.0},"type":"Feature"},{"geometry":{"coordinates":[27.57,68.64],"type":"Point"},"properties":{"concentration_Be-7":1514.8,"concentration_Pb-210":213.7,"concentration_air-volume":25199.0,"from_timestamp":"2023-03-23T08:33:00Z","id":"103431","site":"Ivalo","to_timestamp":"2023-03-30T08:37:00Z","uncertainty_Be-7-uncertainty":6.0,"uncertainty_Pb-210-uncertainty":8.0},"type":"Feature"},{"geometry":{"coordinates":[27.57,68.64],"type":"Point"},"properties":{"concentration_Be-7":7098.7,"concentration_air-volume":25617.0,"from_timestamp":"2023-01-19T08:35:00Z","id":"103431","site":"Ivalo","to_timestamp":"2023-10-26T09:10:00Z","uncertainty_Be-7-uncertainty":10.0},"type":"Feature"},{"geometry":{"coordinates":[27.63414,62.89195],"type":"Point"},"properties":{"concentration_Be-7":1677.7,"concentration_Cs-137":0.6,"concentration_Pb-210":148.0,"concentration_air-volume":30609.0,"from_timestamp":"2023-03-13T09:48:00Z","id":"103432","site":"Kuopio","to_timestamp":"2023-03-22T07:08:00Z","uncertainty_Be-7-uncertainty":3.0,"uncertainty_Cs-137-uncertainty":25.0,"uncertainty_Pb-210-uncertainty":13.0},"type":"Feature"},{"geometry":{"coordinates":[27.63414,62.89195],"type":"Point"},"properties":{"concentration_Be-7":1922.9,"concentration_Pb-210":181.3,"concentration_air-volume":15204.0,"from_timestamp":"2023-03-22T07:10:00Z","id":"103432","site":"Kuopio","to_timestamp":"2023-03-27T09:39:00Z","uncertainty_Be-7-uncertainty":3.0,"uncertainty_Pb-210-uncertainty":19.0},"type":"Feature"},{"geometry":{"coordinates":[25.67774,66.51285],"type":"Point"},"properties":{"concentration_Be-7":1354.1,"concentration_Cs-137":0.2,"concentration_Na-22":0.2,"concentration_Pb-210":156.2,"concentration_air-volume":153912.0,"from_timestamp":"2023-03-13T09:00:00Z","id":"103433","site":"Rovaniemi","to_timestamp":"2023-03-20T09:25:00Z","uncertainty_Be-7-uncertainty":5.0,"uncertainty_Cs-137-uncertainty":12.0,"uncertainty_Na-22-uncertainty":16.0,"uncertainty_Pb-210-uncertainty":4.0},"type":"Feature"},{"geometry":{"coordinates":[25.67774,66.51285],"type":"Point"},"properties":{"concentration_Be-7":1747.3,"concentration_Pb-210":195.7,"concentration_air-volume":151723.0,"from_timestamp":"2023-03-20T09:28:00Z","id":"103433","site":"Rovaniemi","to_timestamp":"2023-03-27T09:02:00Z","uncertainty_Be-7-uncertainty":5.0,"uncertainty_Pb-210-uncertainty":4.0},"type":"Feature"},{"geometry":{"coordinates":[26.62807,67.36505],"type":"Point"},"properties":{"concentration_Be-7":1685.0,"concentration_Pb-210":214.1,"concentration_air-volume":25825.0,"from_timestamp":"2023-03-16T07:55:00Z","id":"103434","site":"Sodankylä","to_timestamp":"2023-03-23T08:36:00Z","uncertainty_Be-7-uncertainty":2.0,"uncertainty_Pb-210-uncertainty":4.0},"type":"Feature"},{"geometry":{"coordinates":[26.62807,67.36505],"type":"Point"},"properties":{"concentration_Be-7":1732.1,"concentration_Cs-137":0.2,"concentration_Na-22":0.3,"concentration_Pb-210":229.0,"concentration_air-volume":29459.0,"from_timestamp":"2023-03-23T08:37:00Z","id":"103434","site":"Sodankylä","to_timestamp":"2023-03-31T07:55:00Z","uncertainty_Be-7-uncertainty":2.0,"uncertainty_Cs-137-uncertainty":23.0,"uncertainty_Na-22-uncertainty":27.0,"uncertainty_Pb-210-uncertainty":4.0},"type":"Feature"},{"geometry":{"coordinates":[27.70835,64.08474],"type":"Point"},"properties":{"concentration_Be-7":1284.1,"concentration_Cs-137":0.2,"concentration_Pb-210":123.7,"concentration_air-volume":103494.0,"from_timestamp":"2023-03-13T11:48:00Z","id":"103435","site":"Kajaani","to_timestamp":"2023-03-20T17:40:00Z","uncertainty_Be-7-uncertainty":2.0,"uncertainty_Cs-137-uncertainty":14.0,"uncertainty_Pb-210-uncertainty":4.0},"type":"Feature"},{"geometry":{"coordinates":[27.70835,64.08474],"type":"Point"},"properties":{"concentration_Be-7":1880.5,"concentration_Cs-137":0.2,"concentration_Na-22":0.3,"concentration_Pb-210":276.6,"concentration_air-volume":156134.0,"from_timestamp":"2023-03-20T17:40:00Z","id":"103435","site":"Kajaani","to_timestamp":"2023-03-31T12:39:00Z","uncertainty_Be-7-uncertainty":7.0,"uncertainty_Cs-137-uncertainty":10.0,"uncertainty_Na-22-uncertainty":11.0,"uncertainty_Pb-210-uncertainty":28.0},"type":"Feature"}],"name":"stuk_open_data_air_radionuclides","type":"FeatureCollection"}