{"crs":{"properties":{"name":"urn:ogc:def:crs:OGC:1.3:CRS84"},"type":"name"},"features":[{"geometry":{"coordinates":[26.91808,60.48318],"type":"Point"},"properties":{"concentration_Be-7":1930.9,"concentration_Cs-137":1.7,"concentration_Na-22":0.2,"concentration_Pb-210":472.7,"concentration_air-volume":99776.0,"from_timestamp":"2023-01-02T11:00:00Z","id":"103429","site":"Kotka","to_timestamp":"2023-01-09T10:15:00Z","uncertainty_Be-7-uncertainty":5.0,"uncertainty_Cs-137-uncertainty":6.0,"uncertainty_Na-22-uncertainty":20.0,"uncertainty_Pb-210-uncertainty":5.0},"type":"Feature"},{"geometry":{"coordinates":[26.91808,60.48318],"type":"Point"},"properties":{"concentration_Be-7":408.4,"concentration_Cs-137":0.4,"concentration_Pb-210":457.9,"concentration_air-volume":94467.0,"from_timestamp":"2023-01-09T10:15:00Z","id":"103429","site":"Kotka","to_timestamp":"2023-01-16T10:57:00Z","uncertainty_Be-7-uncertainty":5.0,"uncertainty_Cs-137-uncertainty":10.0,"uncertainty_Pb-210-uncertainty":5.0},"type":"Feature"},{"geometry":{"coordinates":[28.82663,61.13229],"type":"Point"},"properties":{"concentration_Be-7":1677.5,"concentration_Cs-137":0.8,"concentration_Pb-210":230.2,"concentration_air-volume":21573.0,"from_timestamp":"2022-12-29T06:50:00Z","id":"103430","site":"Imatra","to_timestamp":"2023-01-05T07:00:00Z","uncertainty_Be-7-uncertainty":6.0,"uncertainty_Cs-137-uncertainty":15.0,"uncertainty_Pb-210-uncertainty":19.0},"type":"Feature"},{"geometry":{"coordinates":[28.82663,61.13229],"type":"Point"},"properties":{"concentration_Be-7":3239.4,"concentration_Cs-137":1.4,"concentration_Pb-210":137.3,"concentration_air-volume":21163.0,"from_timestamp":"2023-01-05T07:00:00Z","id":"103430","site":"Imatra","to_timestamp":"2023-01-12T06:30:00Z","uncertainty_Be-7-uncertainty":6.0,"uncertainty_Cs-137-uncertainty":13.0,"uncertainty_Pb-210-uncertainty":15.0},"type":"Feature"},{"geometry":{"coordinates":[28.82663,61.13229],"type":"Point"},"properties":{"concentration_Be-7":815.0,"concentration_Cs-137":0.5,"concentration_Pb-210":297.9,"concentration_air-volume":20866.0,"from_timestamp":"2023-01-12T07:30:00Z","id":"103430","site":"Imatra","to_timestamp":"2023-01-19T06:50:00Z","uncertainty_Be-7-uncertainty":5.0,"uncertainty_Cs-137-uncertainty":26.0,"uncertainty_Pb-210-uncertainty":5.0},"type":"Feature"},{"geometry":{"coordinates":[27.57,68.64],"type":"Point"},"properties":{"concentration_Be-7":2569.1,"concentration_air-volume":25581.0,"from_timestamp":"2023-01-02T09:06:00Z","id":"103431","site":"Ivalo","to_timestamp":"2023-01-09T08:20:00Z","uncertainty_Be-7-uncertainty":10.0},"type":"Feature"},{"geometry":{"coordinates":[27.57,68.64],"type":"Point"},"properties":{"concentration_Be-7":1183.9,"concentration_Cs-137":0.4,"concentration_air-volume":24949.0,"from_timestamp":"2023-01-09T08:23:00Z","id":"103431","site":"Ivalo","to_timestamp":"2023-01-16T08:37:00Z","uncertainty_Be-7-uncertainty":6.0,"uncertainty_Cs-137-uncertainty":27.0},"type":"Feature"},{"geometry":{"coordinates":[27.63414,62.89195],"type":"Point"},"properties":{"concentration_Be-7":2477.4,"concentration_Cs-137":0.7,"concentration_Pb-210":328.9,"concentration_air-volume":23562.0,"from_timestamp":"2023-01-02T09:36:00Z","id":"103432","site":"Kuopio","to_timestamp":"2023-01-09T09:00:00Z","uncertainty_Be-7-uncertainty":3.0,"uncertainty_Cs-137-uncertainty":26.0,"uncertainty_Pb-210-uncertainty":9.0},"type":"Feature"},{"geometry":{"coordinates":[27.63414,62.89195],"type":"Point"},"properties":{"concentration_Be-7":1219.8,"concentration_Pb-210":434.8,"concentration_air-volume":22386.0,"from_timestamp":"2023-01-09T09:02:00Z","id":"103432","site":"Kuopio","to_timestamp":"2023-01-16T08:27:00Z","uncertainty_Be-7-uncertainty":3.0,"uncertainty_Pb-210-uncertainty":8.0},"type":"Feature"},{"geometry":{"coordinates":[25.67774,66.51285],"type":"Point"},"properties":{"concentration_Be-7":1656.3,"concentration_Cs-137":0.4,"concentration_Na-22":0.2,"concentration_Pb-210":209.8,"concentration_air-volume":95747.0,"from_timestamp":"2023-01-02T10:19:00Z","id":"103433","site":"Rovaniemi","to_timestamp":"2023-01-09T09:54:00Z","uncertainty_Be-7-uncertainty":5.0,"uncertainty_Cs-137-uncertainty":9.0,"uncertainty_Na-22-uncertainty":24.0,"uncertainty_Pb-210-uncertainty":4.0},"type":"Feature"},{"geometry":{"coordinates":[25.67774,66.51285],"type":"Point"},"properties":{"concentration_Be-7":681.0,"concentration_Cs-137":0.1,"concentration_Pb-210":276.9,"concentration_air-volume":157740.0,"from_timestamp":"2023-01-09T10:00:00Z","id":"103433","site":"Rovaniemi","to_timestamp":"2023-01-16T15:31:00Z","uncertainty_Be-7-uncertainty":5.0,"uncertainty_Cs-137-uncertainty":14.0,"uncertainty_Pb-210-uncertainty":4.0},"type":"Feature"},{"geometry":{"coordinates":[26.62807,67.36505],"type":"Point"},"properties":{"concentration_Be-7":2392.4,"concentration_Pb-210":370.7,"concentration_air-volume":26150.0,"from_timestamp":"2023-01-02T08:06:00Z","id":"103434","site":"Sodankylä","to_timestamp":"2023-01-09T08:05:00Z","uncertainty_Be-7-uncertainty":5.0,"uncertainty_Pb-210-uncertainty":5.0},"type":"Feature"},{"geometry":{"coordinates":[26.62807,67.36505],"type":"Point"},"properties":{"concentration_Be-7":1203.6,"concentration_Pb-210":523.1,"concentration_air-volume":25096.0,"from_timestamp":"2023-01-09T08:06:00Z","id":"103434","site":"Sodankylä","to_timestamp":"2023-01-16T08:19:00Z","uncertainty_Be-7-uncertainty":6.0,"uncertainty_Pb-210-uncertainty":19.0},"type":"Feature"},{"geometry":{"coordinates":[27.70835,64.08474],"type":"Point"},"properties":{"concentration_Be-7":1766.3,"concentration_Cs-137":0.3,"concentration_Na-22":0.2,"concentration_Pb-210":344.7,"concentration_air-volume":183369.0,"from_timestamp":"2023-01-02T21:20:00Z","id":"103435","site":"Kajaani","to_timestamp":"2023-01-20T14:51:00Z","uncertainty_Be-7-uncertainty":5.0,"uncertainty_Cs-137-uncertainty":9.0,"uncertainty_Na-22-uncertainty":15.0,"uncertainty_Pb-210-uncertainty":5.0},"type":"Feature"},{"geometry":{"coordinates":[27.70835,64.08474],"type":"Point"},"properties":{"concentration_Be-7":737.1,"concentration_Cs-137":0.2,"concentration_Na-22":0.1,"concentration_Pb-210":291.0,"concentration_air-volume":255939.0,"from_timestamp":"2023-01-11T07:10:00Z","id":"103435","site":"Kajaani","to_timestamp":"2023-01-23T13:00:00Z","uncertainty_Be-7-uncertainty":7.0,"uncertainty_Cs-137-uncertainty":8.0,"uncertainty_Na-22-uncertainty":18.0,"uncertainty_Pb-210-uncertainty":17.0},"type":"Feature"}],"name":"stuk_open_data_air_radionuclides","type":"FeatureCollection"}