{"crs":{"properties":{"name":"urn:ogc:def:crs:OGC:1.3:CRS84"},"type":"name"},"features":[{"geometry":{"coordinates":[26.91808,60.48318],"type":"Point"},"properties":{"concentration_Be-7":7317.1,"concentration_Cs-137":8.9,"concentration_Pb-210":3549.3,"concentration_air-volume":12009.0,"from_timestamp":"2023-11-27T08:46:00Z","id":"103429","site":"Kotka","to_timestamp":"2023-12-04T09:18:00Z","uncertainty_Be-7-uncertainty":2.0,"uncertainty_Cs-137-uncertainty":5.0,"uncertainty_Pb-210-uncertainty":4.0},"type":"Feature"},{"geometry":{"coordinates":[26.91808,60.48318],"type":"Point"},"properties":{"concentration_Be-7":80.2,"concentration_Cs-137":0.3,"concentration_Pb-210":74.0,"concentration_air-volume":938823.0,"from_timestamp":"2023-12-04T09:21:00Z","id":"103429","site":"Kotka","to_timestamp":"2023-12-11T14:14:00Z","uncertainty_Be-7-uncertainty":2.0,"uncertainty_Cs-137-uncertainty":3.0,"uncertainty_Pb-210-uncertainty":4.0},"type":"Feature"},{"geometry":{"coordinates":[28.82663,61.13229],"type":"Point"},"properties":{"concentration_Be-7":923.4,"concentration_Co-60":0.2,"concentration_Cs-137":1.9,"concentration_Pb-210":428.9,"concentration_air-volume":72409.0,"from_timestamp":"2023-11-20T07:00:00Z","id":"103430","site":"Imatra","to_timestamp":"2023-12-07T07:00:00Z","uncertainty_Be-7-uncertainty":6.0,"uncertainty_Co-60-uncertainty":11.0,"uncertainty_Cs-137-uncertainty":6.0,"uncertainty_Pb-210-uncertainty":19.0},"type":"Feature"},{"geometry":{"coordinates":[27.57,68.64],"type":"Point"},"properties":{"concentration_Be-7":682.0,"concentration_Cs-137":0.4,"concentration_air-volume":25973.0,"from_timestamp":"2023-11-23T08:40:00Z","id":"103431","site":"Ivalo","to_timestamp":"2023-12-07T08:37:00Z","uncertainty_Be-7-uncertainty":10.0,"uncertainty_Cs-137-uncertainty":25.0},"type":"Feature"},{"geometry":{"coordinates":[27.57,68.64],"type":"Point"},"properties":{"concentration_Be-7":1403.2,"concentration_air-volume":25860.0,"from_timestamp":"2023-11-23T08:36:00Z","id":"103431","site":"Ivalo","to_timestamp":"2023-11-30T08:38:00Z","uncertainty_Be-7-uncertainty":10.0},"type":"Feature"},{"geometry":{"coordinates":[27.63414,62.89195],"type":"Point"},"properties":{"concentration_Be-7":1121.0,"concentration_Pb-210":606.3,"concentration_air-volume":23679.0,"from_timestamp":"2023-11-27T13:27:00Z","id":"103432","site":"Kuopio","to_timestamp":"2023-12-04T07:16:00Z","uncertainty_Be-7-uncertainty":3.0,"uncertainty_Pb-210-uncertainty":6.0},"type":"Feature"},{"geometry":{"coordinates":[27.63414,62.89195],"type":"Point"},"properties":{"concentration_Be-7":741.9,"concentration_Cs-137":1.1,"concentration_Pb-210":848.7,"concentration_air-volume":23789.0,"from_timestamp":"2023-12-04T07:21:00Z","id":"103432","site":"Kuopio","to_timestamp":"2023-12-11T09:59:00Z","uncertainty_Be-7-uncertainty":3.0,"uncertainty_Cs-137-uncertainty":20.0,"uncertainty_Pb-210-uncertainty":5.0},"type":"Feature"},{"geometry":{"coordinates":[25.67774,66.51285],"type":"Point"},"properties":{"concentration_Be-7":1225.4,"concentration_Cs-137":0.1,"concentration_Pb-210":561.9,"concentration_air-volume":145521.0,"from_timestamp":"2023-11-27T10:19:00Z","id":"103433","site":"Rovaniemi","to_timestamp":"2023-12-04T09:21:00Z","uncertainty_Be-7-uncertainty":5.0,"uncertainty_Cs-137-uncertainty":18.0,"uncertainty_Pb-210-uncertainty":4.0},"type":"Feature"},{"geometry":{"coordinates":[25.67774,66.51285],"type":"Point"},"properties":{"concentration_Be-7":675.4,"concentration_Cs-137":0.3,"concentration_Pb-210":574.6,"concentration_air-volume":125487.0,"from_timestamp":"2023-12-04T09:27:00Z","id":"103433","site":"Rovaniemi","to_timestamp":"2023-12-11T09:51:00Z","uncertainty_Be-7-uncertainty":5.0,"uncertainty_Cs-137-uncertainty":11.0,"uncertainty_Pb-210-uncertainty":4.0},"type":"Feature"},{"geometry":{"coordinates":[26.62807,67.36505],"type":"Point"},"properties":{"concentration_Be-7":1022.1,"concentration_Pb-210":556.0,"concentration_air-volume":25002.0,"from_timestamp":"2023-11-27T08:20:00Z","id":"103434","site":"Sodankylä","to_timestamp":"2023-12-04T08:35:00Z","uncertainty_Be-7-uncertainty":5.0,"uncertainty_Pb-210-uncertainty":5.0},"type":"Feature"},{"geometry":{"coordinates":[26.62807,67.36505],"type":"Point"},"properties":{"concentration_Be-7":692.0,"concentration_Pb-210":600.8,"concentration_air-volume":25146.0,"from_timestamp":"2023-12-04T08:35:00Z","id":"103434","site":"Sodankylä","to_timestamp":"2023-12-11T08:25:00Z","uncertainty_Be-7-uncertainty":6.0,"uncertainty_Pb-210-uncertainty":8.0},"type":"Feature"},{"geometry":{"coordinates":[27.70835,64.08474],"type":"Point"},"properties":{"concentration_Be-7":1152.8,"concentration_Cs-137":0.4,"concentration_Pb-210":522.3,"concentration_air-volume":99101.0,"from_timestamp":"2023-11-27T18:06:00Z","id":"103435","site":"Kajaani","to_timestamp":"2023-12-04T14:21:00Z","uncertainty_Be-7-uncertainty":2.0,"uncertainty_Cs-137-uncertainty":10.0,"uncertainty_Pb-210-uncertainty":4.0},"type":"Feature"},{"geometry":{"coordinates":[27.70835,64.08474],"type":"Point"},"properties":{"concentration_Be-7":662.6,"concentration_Cs-137":0.4,"concentration_Pb-210":1771.5,"concentration_air-volume":101886.0,"from_timestamp":"2023-12-04T14:24:00Z","id":"103435","site":"Kajaani","to_timestamp":"2023-12-11T13:43:00Z","uncertainty_Be-7-uncertainty":7.0,"uncertainty_Cs-137-uncertainty":10.0,"uncertainty_Pb-210-uncertainty":15.0},"type":"Feature"},{"geometry":{"coordinates":[25.05334,60.29049],"type":"Point"},"properties":{"concentration_Be-7":634.4,"concentration_Pb-210":474.8,"concentration_air-volume":13997.0,"from_timestamp":"2023-11-28T08:01:00Z","id":"107554","site":"Vantaa","to_timestamp":"2023-11-29T07:03:00Z","uncertainty_Be-7-uncertainty":8.0,"uncertainty_Pb-210-uncertainty":6.0},"type":"Feature"},{"geometry":{"coordinates":[25.05334,60.29049],"type":"Point"},"properties":{"concentration_Be-7":654.6,"concentration_Pb-210":621.3,"concentration_air-volume":14690.0,"from_timestamp":"2023-12-02T08:01:00Z","id":"107554","site":"Vantaa","to_timestamp":"2023-12-03T07:03:00Z","uncertainty_Be-7-uncertainty":8.0,"uncertainty_Pb-210-uncertainty":6.0},"type":"Feature"},{"geometry":{"coordinates":[25.05334,60.29049],"type":"Point"},"properties":{"concentration_Be-7":773.8,"concentration_Pb-210":536.4,"concentration_air-volume":14227.0,"from_timestamp":"2023-11-29T08:01:00Z","id":"107554","site":"Vantaa","to_timestamp":"2023-11-30T07:03:00Z","uncertainty_Be-7-uncertainty":8.0,"uncertainty_Pb-210-uncertainty":6.0},"type":"Feature"},{"geometry":{"coordinates":[25.05334,60.29049],"type":"Point"},"properties":{"concentration_Be-7":804.4,"concentration_Pb-210":519.5,"concentration_air-volume":14587.0,"from_timestamp":"2023-12-01T08:01:00Z","id":"107554","site":"Vantaa","to_timestamp":"2023-12-02T07:03:00Z","uncertainty_Be-7-uncertainty":8.0,"uncertainty_Pb-210-uncertainty":6.0},"type":"Feature"},{"geometry":{"coordinates":[25.05334,60.29049],"type":"Point"},"properties":{"concentration_Be-7":1094.6,"concentration_Pb-210":531.2,"concentration_air-volume":14330.0,"from_timestamp":"2023-11-30T08:01:00Z","id":"107554","site":"Vantaa","to_timestamp":"2023-12-01T07:03:00Z","uncertainty_Be-7-uncertainty":8.0,"uncertainty_Pb-210-uncertainty":6.0},"type":"Feature"},{"geometry":{"coordinates":[25.05334,60.29049],"type":"Point"},"properties":{"concentration_Be-7":603.6,"concentration_Cs-137":3.6,"concentration_Pb-210":1192.6,"concentration_air-volume":13455.0,"from_timestamp":"2023-12-05T08:01:00Z","id":"107554","site":"Vantaa","to_timestamp":"2023-12-06T07:03:00Z","uncertainty_Be-7-uncertainty":8.0,"uncertainty_Cs-137-uncertainty":17.0,"uncertainty_Pb-210-uncertainty":6.0},"type":"Feature"},{"geometry":{"coordinates":[25.05334,60.29049],"type":"Point"},"properties":{"concentration_Be-7":938.1,"concentration_Pb-210":809.9,"concentration_air-volume":14613.0,"from_timestamp":"2023-12-06T08:01:00Z","id":"107554","site":"Vantaa","to_timestamp":"2023-12-07T07:03:00Z","uncertainty_Be-7-uncertainty":8.0,"uncertainty_Pb-210-uncertainty":6.0},"type":"Feature"},{"geometry":{"coordinates":[25.05334,60.29049],"type":"Point"},"properties":{"concentration_Be-7":605.4,"concentration_Cs-137":3.0,"concentration_Pb-210":832.7,"concentration_air-volume":14508.0,"from_timestamp":"2023-12-03T08:01:00Z","id":"107554","site":"Vantaa","to_timestamp":"2023-12-04T07:03:00Z","uncertainty_Be-7-uncertainty":8.0,"uncertainty_Cs-137-uncertainty":18.0,"uncertainty_Pb-210-uncertainty":6.0},"type":"Feature"},{"geometry":{"coordinates":[25.05334,60.29049],"type":"Point"},"properties":{"concentration_Be-7":653.8,"concentration_Pb-210":899.3,"concentration_air-volume":14843.0,"from_timestamp":"2023-12-04T08:01:00Z","id":"107554","site":"Vantaa","to_timestamp":"2023-12-05T07:03:00Z","uncertainty_Be-7-uncertainty":8.0,"uncertainty_Pb-210-uncertainty":6.0},"type":"Feature"}],"name":"stuk_open_data_air_radionuclides","type":"FeatureCollection"}