{"crs":{"properties":{"name":"urn:ogc:def:crs:OGC:1.3:CRS84"},"type":"name"},"features":[{"geometry":{"coordinates":[26.91808,60.48318],"type":"Point"},"properties":{"concentration_Be-7":4324.1,"concentration_Cs-137":1.1,"concentration_Na-22":0.6,"concentration_Pb-210":541.9,"concentration_air-volume":24325.0,"from_timestamp":"2023-04-17T09:56:00Z","id":"103429","site":"Kotka","to_timestamp":"2023-04-24T08:40:00Z","uncertainty_Be-7-uncertainty":5.0,"uncertainty_Cs-137-uncertainty":9.0,"uncertainty_Na-22-uncertainty":21.0,"uncertainty_Pb-210-uncertainty":5.0},"type":"Feature"},{"geometry":{"coordinates":[26.91808,60.48318],"type":"Point"},"properties":{"concentration_Be-7":2903.9,"concentration_Cs-137":2.1,"concentration_Na-22":0.4,"concentration_air-volume":50399.0,"from_timestamp":"2023-04-24T08:43:00Z","id":"103429","site":"Kotka","to_timestamp":"2023-05-08T08:36:00Z","uncertainty_Be-7-uncertainty":10.0,"uncertainty_Cs-137-uncertainty":10.0,"uncertainty_Na-22-uncertainty":20.0},"type":"Feature"},{"geometry":{"coordinates":[28.82663,61.13229],"type":"Point"},"properties":{"concentration_Be-7":4674.6,"concentration_Cs-137":2.1,"concentration_Na-22":0.7,"concentration_Pb-210":898.5,"concentration_air-volume":18736.0,"from_timestamp":"2023-04-17T22:10:00Z","id":"103430","site":"Imatra","to_timestamp":"2023-04-24T06:39:00Z","uncertainty_Be-7-uncertainty":10.0,"uncertainty_Cs-137-uncertainty":11.0,"uncertainty_Na-22-uncertainty":25.0,"uncertainty_Pb-210-uncertainty":29.0},"type":"Feature"},{"geometry":{"coordinates":[28.82663,61.13229],"type":"Point"},"properties":{"concentration_Be-7":4055.9,"concentration_Cs-137":1.3,"concentration_Pb-210":444.4,"concentration_air-volume":19124.0,"from_timestamp":"2023-04-24T06:45:00Z","id":"103430","site":"Imatra","to_timestamp":"2023-05-01T07:15:00Z","uncertainty_Be-7-uncertainty":6.0,"uncertainty_Cs-137-uncertainty":17.0,"uncertainty_Pb-210-uncertainty":19.0},"type":"Feature"},{"geometry":{"coordinates":[27.57,68.64],"type":"Point"},"properties":{"concentration_Be-7":5045.3,"concentration_Pb-210":426.9,"concentration_air-volume":24536.0,"from_timestamp":"2023-04-13T10:07:00Z","id":"103431","site":"Ivalo","to_timestamp":"2023-04-20T08:44:00Z","uncertainty_Be-7-uncertainty":2.0,"uncertainty_Pb-210-uncertainty":4.0},"type":"Feature"},{"geometry":{"coordinates":[27.57,68.64],"type":"Point"},"properties":{"concentration_Be-7":1407.2,"concentration_Pb-210":106.7,"concentration_air-volume":24586.0,"from_timestamp":"2023-04-20T08:46:00Z","id":"103431","site":"Ivalo","to_timestamp":"2023-04-27T08:11:00Z","uncertainty_Be-7-uncertainty":6.0,"uncertainty_Pb-210-uncertainty":8.0},"type":"Feature"},{"geometry":{"coordinates":[27.57,68.64],"type":"Point"},"properties":{"concentration_Be-7":7098.7,"concentration_air-volume":25617.0,"from_timestamp":"2023-01-19T08:35:00Z","id":"103431","site":"Ivalo","to_timestamp":"2023-10-26T09:10:00Z","uncertainty_Be-7-uncertainty":10.0},"type":"Feature"},{"geometry":{"coordinates":[27.63414,62.89195],"type":"Point"},"properties":{"concentration_Be-7":2161.6,"concentration_Cs-137":0.7,"concentration_Pb-210":179.8,"concentration_air-volume":25709.0,"from_timestamp":"2023-04-24T08:21:00Z","id":"103432","site":"Kuopio","to_timestamp":"2023-05-02T09:15:00Z","uncertainty_Be-7-uncertainty":3.0,"uncertainty_Cs-137-uncertainty":26.0,"uncertainty_Pb-210-uncertainty":14.0},"type":"Feature"},{"geometry":{"coordinates":[27.63414,62.89195],"type":"Point"},"properties":{"concentration_Be-7":2939.6,"concentration_Pb-210":280.6,"concentration_air-volume":21040.0,"from_timestamp":"2023-04-17T08:43:00Z","id":"103432","site":"Kuopio","to_timestamp":"2023-04-24T08:18:00Z","uncertainty_Be-7-uncertainty":3.0,"uncertainty_Pb-210-uncertainty":12.0},"type":"Feature"},{"geometry":{"coordinates":[25.67774,66.51285],"type":"Point"},"properties":{"concentration_Be-7":1497.1,"concentration_Na-22":0.2,"concentration_Pb-210":145.9,"concentration_air-volume":144044.0,"from_timestamp":"2023-04-17T09:28:00Z","id":"103433","site":"Rovaniemi","to_timestamp":"2023-04-24T10:48:00Z","uncertainty_Be-7-uncertainty":5.0,"uncertainty_Na-22-uncertainty":23.0,"uncertainty_Pb-210-uncertainty":4.0},"type":"Feature"},{"geometry":{"coordinates":[25.67774,66.51285],"type":"Point"},"properties":{"concentration_Be-7":1842.7,"concentration_Cs-137":0.1,"concentration_Na-22":0.3,"concentration_Pb-210":154.8,"concentration_air-volume":166470.0,"from_timestamp":"2023-04-24T10:50:00Z","id":"103433","site":"Rovaniemi","to_timestamp":"2023-05-02T09:28:00Z","uncertainty_Be-7-uncertainty":5.0,"uncertainty_Cs-137-uncertainty":14.0,"uncertainty_Na-22-uncertainty":10.0,"uncertainty_Pb-210-uncertainty":4.0},"type":"Feature"},{"geometry":{"coordinates":[27.70835,64.08474],"type":"Point"},"properties":{"concentration_Be-7":1830.1,"concentration_Cs-137":0.4,"concentration_air-volume":98768.0,"from_timestamp":"2023-04-18T13:09:00Z","id":"103435","site":"Kajaani","to_timestamp":"2023-04-25T14:15:00Z","uncertainty_Be-7-uncertainty":7.0,"uncertainty_Cs-137-uncertainty":14.0},"type":"Feature"},{"geometry":{"coordinates":[27.70835,64.08474],"type":"Point"},"properties":{"concentration_Be-7":1796.3,"concentration_Cs-137":0.4,"concentration_air-volume":81367.0,"from_timestamp":"2023-04-25T14:25:00Z","id":"103435","site":"Kajaani","to_timestamp":"2023-05-01T09:52:00Z","uncertainty_Be-7-uncertainty":7.0,"uncertainty_Cs-137-uncertainty":14.0},"type":"Feature"},{"geometry":{"coordinates":[25.05334,60.29049],"type":"Point"},"properties":{"concentration_Be-7":2646.4,"concentration_Pb-210":303.7,"concentration_air-volume":13873.0,"from_timestamp":"2023-04-19T08:01:00Z","id":"107554","site":"Vantaa","to_timestamp":"2023-04-20T07:34:00Z","uncertainty_Be-7-uncertainty":8.0,"uncertainty_Pb-210-uncertainty":7.0},"type":"Feature"},{"geometry":{"coordinates":[25.05334,60.29049],"type":"Point"},"properties":{"concentration_Be-7":2408.7,"concentration_Pb-210":279.1,"concentration_air-volume":13530.0,"from_timestamp":"2023-04-20T08:01:00Z","id":"107554","site":"Vantaa","to_timestamp":"2023-04-21T07:34:00Z","uncertainty_Be-7-uncertainty":8.0,"uncertainty_Pb-210-uncertainty":7.0},"type":"Feature"},{"geometry":{"coordinates":[25.05334,60.29049],"type":"Point"},"properties":{"concentration_Be-7":5207.0,"concentration_Pb-210":528.2,"concentration_air-volume":12876.0,"from_timestamp":"2023-04-18T08:01:00Z","id":"107554","site":"Vantaa","to_timestamp":"2023-04-19T07:34:00Z","uncertainty_Be-7-uncertainty":8.0,"uncertainty_Pb-210-uncertainty":6.0},"type":"Feature"},{"geometry":{"coordinates":[25.05334,60.29049],"type":"Point"},"properties":{"concentration_Be-7":4703.0,"concentration_Pb-210":513.6,"concentration_air-volume":13391.0,"from_timestamp":"2023-04-23T08:01:00Z","id":"107554","site":"Vantaa","to_timestamp":"2023-04-24T07:34:00Z","uncertainty_Be-7-uncertainty":8.0,"uncertainty_Pb-210-uncertainty":6.0},"type":"Feature"},{"geometry":{"coordinates":[25.05334,60.29049],"type":"Point"},"properties":{"concentration_Be-7":3957.9,"concentration_Pb-210":406.2,"concentration_air-volume":13151.0,"from_timestamp":"2023-04-21T08:01:00Z","id":"107554","site":"Vantaa","to_timestamp":"2023-04-22T07:34:00Z","uncertainty_Be-7-uncertainty":8.0,"uncertainty_Pb-210-uncertainty":7.0},"type":"Feature"},{"geometry":{"coordinates":[25.05334,60.29049],"type":"Point"},"properties":{"concentration_Be-7":3127.0,"concentration_Pb-210":351.9,"concentration_air-volume":13338.0,"from_timestamp":"2023-04-22T08:01:00Z","id":"107554","site":"Vantaa","to_timestamp":"2023-04-23T07:34:00Z","uncertainty_Be-7-uncertainty":8.0,"uncertainty_Pb-210-uncertainty":7.0},"type":"Feature"},{"geometry":{"coordinates":[25.05334,60.29049],"type":"Point"},"properties":{"concentration_Be-7":2043.2,"concentration_Pb-210":322.0,"concentration_air-volume":13230.0,"from_timestamp":"2023-04-24T08:01:00Z","id":"107554","site":"Vantaa","to_timestamp":"2023-04-25T07:34:00Z","uncertainty_Be-7-uncertainty":8.0,"uncertainty_Pb-210-uncertainty":7.0},"type":"Feature"},{"geometry":{"coordinates":[25.05334,60.29049],"type":"Point"},"properties":{"concentration_Be-7":5897.1,"concentration_Cs-137":2.5,"concentration_Pb-210":520.3,"concentration_air-volume":13051.0,"from_timestamp":"2023-04-25T08:01:00Z","id":"107554","site":"Vantaa","to_timestamp":"2023-04-26T07:34:00Z","uncertainty_Be-7-uncertainty":8.0,"uncertainty_Cs-137-uncertainty":29.0,"uncertainty_Pb-210-uncertainty":6.0},"type":"Feature"},{"geometry":{"coordinates":[25.05334,60.29049],"type":"Point"},"properties":{"concentration_Be-7":1488.7,"concentration_Pb-210":184.6,"concentration_air-volume":13612.0,"from_timestamp":"2023-04-26T08:01:00Z","id":"107554","site":"Vantaa","to_timestamp":"2023-04-27T07:33:00Z","uncertainty_Be-7-uncertainty":8.0,"uncertainty_Pb-210-uncertainty":7.0},"type":"Feature"}],"name":"stuk_open_data_air_radionuclides","type":"FeatureCollection"}