{"crs":{"properties":{"name":"urn:ogc:def:crs:OGC:1.3:CRS84"},"type":"name"},"features":[{"geometry":{"coordinates":[26.91808,60.48318],"type":"Point"},"properties":{"concentration_Be-7":1613.1,"concentration_Cs-137":0.7,"concentration_Na-22":0.2,"concentration_Pb-210":696.1,"concentration_air-volume":101822.0,"from_timestamp":"2024-02-12T09:06:00Z","id":"103429","site":"Kotka","to_timestamp":"2024-02-19T08:52:00Z","uncertainty_Be-7-uncertainty":5.0,"uncertainty_Cs-137-uncertainty":7.0,"uncertainty_Na-22-uncertainty":25.0,"uncertainty_Pb-210-uncertainty":5.0},"type":"Feature"},{"geometry":{"coordinates":[26.91808,60.48318],"type":"Point"},"properties":{"concentration_Be-7":1402.0,"concentration_Cs-137":0.7,"concentration_Pb-210":277.7,"concentration_air-volume":99545.0,"from_timestamp":"2024-02-19T08:53:00Z","id":"103429","site":"Kotka","to_timestamp":"2024-02-26T08:53:00Z","uncertainty_Be-7-uncertainty":5.0,"uncertainty_Cs-137-uncertainty":7.0,"uncertainty_Pb-210-uncertainty":5.0},"type":"Feature"},{"geometry":{"coordinates":[28.82663,61.13229],"type":"Point"},"properties":{"concentration_Be-7":1767.1,"concentration_Cs-137":0.9,"concentration_Pb-210":667.6,"concentration_air-volume":31065.0,"from_timestamp":"2024-02-12T06:30:00Z","id":"103430","site":"Imatra","to_timestamp":"2024-02-22T07:05:00Z","uncertainty_Be-7-uncertainty":5.0,"uncertainty_Cs-137-uncertainty":12.0,"uncertainty_Pb-210-uncertainty":5.0},"type":"Feature"},{"geometry":{"coordinates":[28.82663,61.13229],"type":"Point"},"properties":{"concentration_Be-7":1287.6,"concentration_Cs-137":0.8,"concentration_air-volume":21103.0,"from_timestamp":"2024-02-22T07:05:00Z","id":"103430","site":"Imatra","to_timestamp":"2024-02-29T07:00:00Z","uncertainty_Be-7-uncertainty":10.0,"uncertainty_Cs-137-uncertainty":17.0},"type":"Feature"},{"geometry":{"coordinates":[27.57,68.64],"type":"Point"},"properties":{"concentration_Be-7":1332.7,"concentration_Pb-210":1056.9,"concentration_air-volume":26040.0,"from_timestamp":"2024-02-12T09:41:00Z","id":"103431","site":"Ivalo","to_timestamp":"2024-02-19T08:37:00Z","uncertainty_Be-7-uncertainty":10.0,"uncertainty_Pb-210-uncertainty":19.0},"type":"Feature"},{"geometry":{"coordinates":[27.57,68.64],"type":"Point"},"properties":{"concentration_Be-7":971.1,"concentration_Pb-210":99.3,"concentration_air-volume":25323.0,"from_timestamp":"2024-02-19T08:38:00Z","id":"103431","site":"Ivalo","to_timestamp":"2024-02-26T08:21:00Z","uncertainty_Be-7-uncertainty":3.0,"uncertainty_Pb-210-uncertainty":4.0},"type":"Feature"},{"geometry":{"coordinates":[27.63414,62.89195],"type":"Point"},"properties":{"concentration_Be-7":1440.3,"concentration_Pb-210":794.9,"concentration_air-volume":24019.0,"from_timestamp":"2024-02-12T08:30:00Z","id":"103432","site":"Kuopio","to_timestamp":"2024-02-19T08:20:00Z","uncertainty_Be-7-uncertainty":3.0,"uncertainty_Pb-210-uncertainty":5.0},"type":"Feature"},{"geometry":{"coordinates":[27.63414,62.89195],"type":"Point"},"properties":{"concentration_Be-7":1895.8,"concentration_Cs-137":0.7,"concentration_Pb-210":235.6,"concentration_air-volume":23386.0,"from_timestamp":"2024-02-19T08:22:00Z","id":"103432","site":"Kuopio","to_timestamp":"2024-02-26T08:13:00Z","uncertainty_Be-7-uncertainty":3.0,"uncertainty_Cs-137-uncertainty":29.0,"uncertainty_Pb-210-uncertainty":12.0},"type":"Feature"},{"geometry":{"coordinates":[25.67774,66.51285],"type":"Point"},"properties":{"concentration_Be-7":1352.6,"concentration_Cs-137":0.4,"concentration_Na-22":0.1,"concentration_Pb-210":752.4,"concentration_air-volume":131404.0,"from_timestamp":"2024-02-12T09:33:00Z","id":"103433","site":"Rovaniemi","to_timestamp":"2024-02-19T10:11:00Z","uncertainty_Be-7-uncertainty":5.0,"uncertainty_Cs-137-uncertainty":10.0,"uncertainty_Na-22-uncertainty":28.0,"uncertainty_Pb-210-uncertainty":4.0},"type":"Feature"},{"geometry":{"coordinates":[25.67774,66.51285],"type":"Point"},"properties":{"concentration_Be-7":900.4,"concentration_Cs-137":0.2,"concentration_Na-22":0.1,"concentration_Pb-210":152.2,"concentration_air-volume":138134.0,"from_timestamp":"2024-02-09T10:16:00Z","id":"103433","site":"Rovaniemi","to_timestamp":"2024-02-26T09:26:00Z","uncertainty_Be-7-uncertainty":5.0,"uncertainty_Cs-137-uncertainty":12.0,"uncertainty_Na-22-uncertainty":25.0,"uncertainty_Pb-210-uncertainty":4.0},"type":"Feature"},{"geometry":{"coordinates":[26.62807,67.36505],"type":"Point"},"properties":{"concentration_Be-7":1338.2,"concentration_Pb-210":1363.4,"concentration_air-volume":25802.0,"from_timestamp":"2024-02-12T07:36:00Z","id":"103434","site":"Sodankylä","to_timestamp":"2024-02-19T08:40:00Z","uncertainty_Be-7-uncertainty":10.0,"uncertainty_Pb-210-uncertainty":20.0},"type":"Feature"},{"geometry":{"coordinates":[26.62807,67.36505],"type":"Point"},"properties":{"concentration_Be-7":1122.2,"concentration_air-volume":24765.0,"from_timestamp":"2024-02-19T08:40:00Z","id":"103434","site":"Sodankylä","to_timestamp":"2024-02-26T00:00:00Z","uncertainty_Be-7-uncertainty":10.0},"type":"Feature"},{"geometry":{"coordinates":[27.70835,64.08474],"type":"Point"},"properties":{"concentration_Be-7":418.6,"concentration_Cs-137":0.2,"concentration_Pb-210":483.3,"concentration_air-volume":98917.0,"from_timestamp":"2024-02-12T18:33:00Z","id":"103435","site":"Kajaani","to_timestamp":"2024-02-19T12:16:00Z","uncertainty_Be-7-uncertainty":3.0,"uncertainty_Cs-137-uncertainty":23.0,"uncertainty_Pb-210-uncertainty":3.0},"type":"Feature"},{"geometry":{"coordinates":[27.70835,64.08474],"type":"Point"},"properties":{"concentration_Be-7":1251.2,"concentration_Cs-137":0.3,"concentration_Na-22":0.2,"concentration_Pb-210":193.5,"concentration_air-volume":101558.0,"from_timestamp":"2024-02-19T12:18:00Z","id":"103435","site":"Kajaani","to_timestamp":"2024-02-26T14:10:00Z","uncertainty_Be-7-uncertainty":5.0,"uncertainty_Cs-137-uncertainty":10.0,"uncertainty_Na-22-uncertainty":24.0,"uncertainty_Pb-210-uncertainty":5.0},"type":"Feature"}],"name":"stuk_open_data_air_radionuclides","type":"FeatureCollection"}