{"crs":{"properties":{"name":"urn:ogc:def:crs:OGC:1.3:CRS84"},"type":"name"},"features":[{"geometry":{"coordinates":[26.91808,60.48318],"type":"Point"},"properties":{"concentration_Be-7":1862.8,"concentration_Cs-137":0.9,"concentration_Na-22":0.3,"concentration_air-volume":101175.0,"from_timestamp":"2024-05-06T08:27:00Z","id":"103429","site":"Kotka","to_timestamp":"2024-05-13T08:32:00Z","uncertainty_Be-7-uncertainty":7.0,"uncertainty_Cs-137-uncertainty":9.0,"uncertainty_Na-22-uncertainty":17.0},"type":"Feature"},{"geometry":{"coordinates":[26.91808,60.48318],"type":"Point"},"properties":{"concentration_Be-7":2542.1,"concentration_Cs-137":1.0,"concentration_Na-22":0.5,"concentration_Pb-210":290.4,"concentration_air-volume":98155.0,"from_timestamp":"2024-05-13T08:33:00Z","id":"103429","site":"Kotka","to_timestamp":"2024-05-20T09:04:00Z","uncertainty_Be-7-uncertainty":2.0,"uncertainty_Cs-137-uncertainty":5.0,"uncertainty_Na-22-uncertainty":11.0,"uncertainty_Pb-210-uncertainty":4.0},"type":"Feature"},{"geometry":{"coordinates":[28.82663,61.13229],"type":"Point"},"properties":{"concentration_Be-7":2511.3,"concentration_Cs-137":1.7,"concentration_air-volume":29928.0,"from_timestamp":"2024-05-06T06:46:00Z","id":"103430","site":"Imatra","to_timestamp":"2024-05-16T07:00:00Z","uncertainty_Be-7-uncertainty":6.0,"uncertainty_Cs-137-uncertainty":10.0},"type":"Feature"},{"geometry":{"coordinates":[27.57,68.64],"type":"Point"},"properties":{"concentration_Be-7":1485.9,"concentration_Pb-210":208.9,"concentration_air-volume":25288.0,"from_timestamp":"2024-05-06T08:18:00Z","id":"103431","site":"Ivalo","to_timestamp":"2024-05-13T09:29:00Z","uncertainty_Be-7-uncertainty":5.0,"uncertainty_Pb-210-uncertainty":5.0},"type":"Feature"},{"geometry":{"coordinates":[27.57,68.64],"type":"Point"},"properties":{"concentration_Be-7":1810.9,"concentration_Pb-210":214.2,"concentration_air-volume":24091.0,"from_timestamp":"2024-05-13T09:31:00Z","id":"103431","site":"Ivalo","to_timestamp":"2024-05-20T08:18:00Z","uncertainty_Be-7-uncertainty":6.0,"uncertainty_Pb-210-uncertainty":19.0},"type":"Feature"},{"geometry":{"coordinates":[27.63414,62.89195],"type":"Point"},"properties":{"concentration_Be-7":2106.3,"concentration_Na-22":1.0,"concentration_Pb-210":194.1,"concentration_air-volume":23170.0,"from_timestamp":"2024-05-06T08:19:00Z","id":"103432","site":"Kuopio","to_timestamp":"2024-05-13T07:53:00Z","uncertainty_Be-7-uncertainty":3.0,"uncertainty_Na-22-uncertainty":29.0,"uncertainty_Pb-210-uncertainty":14.0},"type":"Feature"},{"geometry":{"coordinates":[27.63414,62.89195],"type":"Point"},"properties":{"concentration_Be-7":3292.2,"concentration_Cs-137":2.3,"concentration_Pb-210":312.4,"concentration_air-volume":21985.0,"from_timestamp":"2024-05-13T07:55:00Z","id":"103432","site":"Kuopio","to_timestamp":"2024-05-20T09:15:00Z","uncertainty_Be-7-uncertainty":3.0,"uncertainty_Cs-137-uncertainty":11.0,"uncertainty_Pb-210-uncertainty":10.0},"type":"Feature"},{"geometry":{"coordinates":[25.67774,66.51285],"type":"Point"},"properties":{"concentration_Be-7":1540.5,"concentration_Na-22":0.3,"concentration_Pb-210":142.4,"concentration_air-volume":137713.0,"from_timestamp":"2024-05-06T10:23:00Z","id":"103433","site":"Rovaniemi","to_timestamp":"2024-05-13T09:30:00Z","uncertainty_Be-7-uncertainty":5.0,"uncertainty_Na-22-uncertainty":17.0,"uncertainty_Pb-210-uncertainty":4.0},"type":"Feature"},{"geometry":{"coordinates":[25.67774,66.51285],"type":"Point"},"properties":{"concentration_Be-7":2327.0,"concentration_Cs-137":0.4,"concentration_Na-22":0.4,"concentration_Pb-210":286.6,"concentration_air-volume":130817.0,"from_timestamp":"2024-05-13T09:33:00Z","id":"103433","site":"Rovaniemi","to_timestamp":"2024-05-20T09:36:00Z","uncertainty_Be-7-uncertainty":5.0,"uncertainty_Cs-137-uncertainty":9.0,"uncertainty_Na-22-uncertainty":12.0,"uncertainty_Pb-210-uncertainty":5.0},"type":"Feature"},{"geometry":{"coordinates":[26.62807,67.36505],"type":"Point"},"properties":{"concentration_Be-7":1494.0,"concentration_Pb-210":169.3,"concentration_air-volume":24738.0,"from_timestamp":"2024-05-06T08:12:00Z","id":"103434","site":"Sodankylä","to_timestamp":"2024-05-13T07:52:00Z","uncertainty_Be-7-uncertainty":5.0,"uncertainty_Pb-210-uncertainty":5.0},"type":"Feature"},{"geometry":{"coordinates":[26.62807,67.36505],"type":"Point"},"properties":{"concentration_Be-7":2552.3,"concentration_Cs-137":0.8,"concentration_air-volume":23639.0,"from_timestamp":"2024-05-13T07:53:00Z","id":"103434","site":"Sodankylä","to_timestamp":"2024-05-20T08:15:00Z","uncertainty_Be-7-uncertainty":6.0,"uncertainty_Cs-137-uncertainty":19.0},"type":"Feature"},{"geometry":{"coordinates":[27.70835,64.08474],"type":"Point"},"properties":{"concentration_Be-7":1868.1,"concentration_Cs-137":0.2,"concentration_Na-22":0.3,"concentration_Pb-210":157.8,"concentration_air-volume":102949.0,"from_timestamp":"2024-05-06T16:15:00Z","id":"103435","site":"Kajaani","to_timestamp":"2024-05-13T19:59:00Z","uncertainty_Be-7-uncertainty":2.0,"uncertainty_Cs-137-uncertainty":11.0,"uncertainty_Na-22-uncertainty":12.0,"uncertainty_Pb-210-uncertainty":4.0},"type":"Feature"},{"geometry":{"coordinates":[27.70835,64.08474],"type":"Point"},"properties":{"concentration_Be-7":3142.2,"concentration_Cs-137":1.3,"concentration_Na-22":0.6,"concentration_Pb-210":208.1,"concentration_air-volume":92695.0,"from_timestamp":"2024-05-13T20:02:00Z","id":"103435","site":"Kajaani","to_timestamp":"2024-05-20T16:27:00Z","uncertainty_Be-7-uncertainty":2.0,"uncertainty_Cs-137-uncertainty":5.0,"uncertainty_Na-22-uncertainty":12.0,"uncertainty_Pb-210-uncertainty":4.0},"type":"Feature"},{"geometry":{"coordinates":[25.05334,60.29049],"type":"Point"},"properties":{"concentration_Be-7":2157.2,"concentration_Pb-210":280.9,"concentration_air-volume":14476.0,"from_timestamp":"2024-05-07T08:01:00Z","id":"107554","site":"Vantaa","to_timestamp":"2024-05-08T06:56:00Z","uncertainty_Be-7-uncertainty":8.0,"uncertainty_Pb-210-uncertainty":7.0},"type":"Feature"},{"geometry":{"coordinates":[25.05334,60.29049],"type":"Point"},"properties":{"concentration_Be-7":2687.0,"concentration_Pb-210":274.0,"concentration_air-volume":14080.0,"from_timestamp":"2024-05-06T08:01:00Z","id":"107554","site":"Vantaa","to_timestamp":"2024-05-07T06:56:00Z","uncertainty_Be-7-uncertainty":8.0,"uncertainty_Pb-210-uncertainty":7.0},"type":"Feature"},{"geometry":{"coordinates":[25.05334,60.29049],"type":"Point"},"properties":{"concentration_Be-7":1591.0,"concentration_Pb-210":219.5,"concentration_air-volume":14330.0,"from_timestamp":"2024-05-08T08:01:00Z","id":"107554","site":"Vantaa","to_timestamp":"2024-05-09T06:56:00Z","uncertainty_Be-7-uncertainty":8.0,"uncertainty_Pb-210-uncertainty":7.0},"type":"Feature"},{"geometry":{"coordinates":[25.05334,60.29049],"type":"Point"},"properties":{"concentration_Be-7":2310.1,"concentration_Pb-210":321.3,"concentration_air-volume":13867.0,"from_timestamp":"2024-05-09T08:01:00Z","id":"107554","site":"Vantaa","to_timestamp":"2024-05-10T06:56:00Z","uncertainty_Be-7-uncertainty":8.0,"uncertainty_Pb-210-uncertainty":7.0},"type":"Feature"},{"geometry":{"coordinates":[25.05334,60.29049],"type":"Point"},"properties":{"concentration_Be-7":1078.9,"concentration_Pb-210":92.0,"concentration_air-volume":13900.0,"from_timestamp":"2024-05-10T08:01:00Z","id":"107554","site":"Vantaa","to_timestamp":"2024-05-11T06:56:00Z","uncertainty_Be-7-uncertainty":8.0,"uncertainty_Pb-210-uncertainty":8.0},"type":"Feature"},{"geometry":{"coordinates":[25.05334,60.29049],"type":"Point"},"properties":{"concentration_Be-7":2874.5,"concentration_Pb-210":167.1,"concentration_air-volume":14031.0,"from_timestamp":"2024-05-11T08:01:00Z","id":"107554","site":"Vantaa","to_timestamp":"2024-05-12T06:56:00Z","uncertainty_Be-7-uncertainty":8.0,"uncertainty_Pb-210-uncertainty":7.0},"type":"Feature"},{"geometry":{"coordinates":[25.05334,60.29049],"type":"Point"},"properties":{"concentration_Be-7":2643.0,"concentration_Pb-210":337.3,"concentration_air-volume":13448.0,"from_timestamp":"2024-05-13T08:01:00Z","id":"107554","site":"Vantaa","to_timestamp":"2024-05-14T06:56:00Z","uncertainty_Be-7-uncertainty":8.0,"uncertainty_Pb-210-uncertainty":7.0},"type":"Feature"},{"geometry":{"coordinates":[25.05334,60.29049],"type":"Point"},"properties":{"concentration_Be-7":3348.4,"concentration_Pb-210":238.2,"concentration_air-volume":13725.0,"from_timestamp":"2024-05-12T08:01:00Z","id":"107554","site":"Vantaa","to_timestamp":"2024-05-13T06:56:00Z","uncertainty_Be-7-uncertainty":8.0,"uncertainty_Pb-210-uncertainty":7.0},"type":"Feature"},{"geometry":{"coordinates":[25.05334,60.29049],"type":"Point"},"properties":{"concentration_Be-7":2868.3,"concentration_Pb-210":523.8,"concentration_air-volume":13280.0,"from_timestamp":"2024-05-14T08:01:00Z","id":"107554","site":"Vantaa","to_timestamp":"2024-05-15T06:56:00Z","uncertainty_Be-7-uncertainty":8.0,"uncertainty_Pb-210-uncertainty":6.0},"type":"Feature"}],"name":"stuk_open_data_air_radionuclides","type":"FeatureCollection"}