{"crs":{"properties":{"name":"urn:ogc:def:crs:OGC:1.3:CRS84"},"type":"name"},"features":[{"geometry":{"coordinates":[26.91808,60.48318],"type":"Point"},"properties":{"concentration_Be-7":1254.3,"concentration_Cs-137":0.6,"concentration_Pb-210":379.4,"concentration_air-volume":102186.0,"from_timestamp":"2024-02-26T08:54:00Z","id":"103429","site":"Kotka","to_timestamp":"2024-03-04T08:33:00Z","uncertainty_Be-7-uncertainty":5.0,"uncertainty_Cs-137-uncertainty":7.0,"uncertainty_Pb-210-uncertainty":5.0},"type":"Feature"},{"geometry":{"coordinates":[26.91808,60.48318],"type":"Point"},"properties":{"concentration_Be-7":1785.3,"concentration_Cs-137":1.6,"concentration_Na-22":0.3,"concentration_Pb-210":268.9,"concentration_air-volume":102316.0,"from_timestamp":"2024-03-04T08:36:00Z","id":"103429","site":"Kotka","to_timestamp":"2024-03-11T08:41:00Z","uncertainty_Be-7-uncertainty":2.0,"uncertainty_Cs-137-uncertainty":4.0,"uncertainty_Na-22-uncertainty":17.0,"uncertainty_Pb-210-uncertainty":4.0},"type":"Feature"},{"geometry":{"coordinates":[26.91808,60.48318],"type":"Point"},"properties":{"concentration_Be-7":1565.9,"concentration_Cs-137":1.1,"concentration_Na-22":0.2,"concentration_Pb-210":786.5,"concentration_air-volume":99950.0,"from_timestamp":"2024-03-11T08:42:00Z","id":"103429","site":"Kotka","to_timestamp":"2024-03-18T12:35:00Z","uncertainty_Be-7-uncertainty":7.0,"uncertainty_Cs-137-uncertainty":8.0,"uncertainty_Na-22-uncertainty":20.0,"uncertainty_Pb-210-uncertainty":22.0},"type":"Feature"},{"geometry":{"coordinates":[28.82663,61.13229],"type":"Point"},"properties":{"concentration_Be-7":2532.8,"concentration_Cs-137":1.0,"concentration_air-volume":21739.0,"from_timestamp":"2024-02-29T07:05:00Z","id":"103430","site":"Imatra","to_timestamp":"2024-03-07T06:50:00Z","uncertainty_Be-7-uncertainty":10.0,"uncertainty_Cs-137-uncertainty":14.0},"type":"Feature"},{"geometry":{"coordinates":[28.82663,61.13229],"type":"Point"},"properties":{"concentration_Be-7":1734.9,"concentration_Cs-137":1.5,"concentration_Pb-210":46.6,"concentration_air-volume":33331.0,"from_timestamp":"2024-03-07T06:55:00Z","id":"103430","site":"Imatra","to_timestamp":"2024-03-18T06:40:00Z","uncertainty_Be-7-uncertainty":6.0,"uncertainty_Cs-137-uncertainty":8.0,"uncertainty_Pb-210-uncertainty":20.0},"type":"Feature"},{"geometry":{"coordinates":[27.57,68.64],"type":"Point"},"properties":{"concentration_Be-7":643.3,"concentration_Pb-210":108.1,"concentration_air-volume":25494.0,"from_timestamp":"2024-02-26T08:22:00Z","id":"103431","site":"Ivalo","to_timestamp":"2024-03-04T10:33:00Z","uncertainty_Be-7-uncertainty":5.0,"uncertainty_Pb-210-uncertainty":5.0},"type":"Feature"},{"geometry":{"coordinates":[27.57,68.64],"type":"Point"},"properties":{"concentration_Be-7":1476.1,"concentration_Pb-210":269.1,"concentration_air-volume":25154.0,"from_timestamp":"2024-03-04T10:36:00Z","id":"103431","site":"Ivalo","to_timestamp":"2024-03-11T08:22:00Z","uncertainty_Be-7-uncertainty":5.0,"uncertainty_Pb-210-uncertainty":5.0},"type":"Feature"},{"geometry":{"coordinates":[27.57,68.64],"type":"Point"},"properties":{"concentration_Be-7":1989.7,"concentration_air-volume":25994.0,"from_timestamp":"2024-03-11T08:24:00Z","id":"103431","site":"Ivalo","to_timestamp":"2024-03-18T11:46:00Z","uncertainty_Be-7-uncertainty":10.0},"type":"Feature"},{"geometry":{"coordinates":[27.63414,62.89195],"type":"Point"},"properties":{"concentration_Be-7":1464.2,"concentration_Pb-210":234.5,"concentration_air-volume":24038.0,"from_timestamp":"2024-02-26T08:13:00Z","id":"103432","site":"Kuopio","to_timestamp":"2024-03-04T08:24:00Z","uncertainty_Be-7-uncertainty":3.0,"uncertainty_Pb-210-uncertainty":11.0},"type":"Feature"},{"geometry":{"coordinates":[27.63414,62.89195],"type":"Point"},"properties":{"concentration_Be-7":1442.6,"concentration_Pb-210":280.3,"concentration_air-volume":24543.0,"from_timestamp":"2024-03-04T08:28:00Z","id":"103432","site":"Kuopio","to_timestamp":"2024-03-11T09:27:00Z","uncertainty_Be-7-uncertainty":3.0,"uncertainty_Pb-210-uncertainty":9.0},"type":"Feature"},{"geometry":{"coordinates":[27.63414,62.89195],"type":"Point"},"properties":{"concentration_Be-7":1570.2,"concentration_Cs-137":0.7,"concentration_Pb-210":199.1,"concentration_air-volume":22884.0,"from_timestamp":"2024-03-11T09:32:00Z","id":"103432","site":"Kuopio","to_timestamp":"2024-03-18T09:48:00Z","uncertainty_Be-7-uncertainty":3.0,"uncertainty_Cs-137-uncertainty":26.0,"uncertainty_Pb-210-uncertainty":14.0},"type":"Feature"},{"geometry":{"coordinates":[25.67774,66.51285],"type":"Point"},"properties":{"concentration_Be-7":661.1,"concentration_Cs-137":0.2,"concentration_Pb-210":178.8,"concentration_air-volume":141332.0,"from_timestamp":"2024-02-26T09:28:00Z","id":"103433","site":"Rovaniemi","to_timestamp":"2024-03-04T10:31:00Z","uncertainty_Be-7-uncertainty":5.0,"uncertainty_Cs-137-uncertainty":13.0,"uncertainty_Pb-210-uncertainty":4.0},"type":"Feature"},{"geometry":{"coordinates":[25.67774,66.51285],"type":"Point"},"properties":{"concentration_Be-7":1548.2,"concentration_Cs-137":0.1,"concentration_Na-22":0.2,"concentration_Pb-210":258.6,"concentration_air-volume":143923.0,"from_timestamp":"2024-03-04T10:34:00Z","id":"103433","site":"Rovaniemi","to_timestamp":"2024-03-11T09:38:00Z","uncertainty_Be-7-uncertainty":5.0,"uncertainty_Cs-137-uncertainty":19.0,"uncertainty_Na-22-uncertainty":16.0,"uncertainty_Pb-210-uncertainty":4.0},"type":"Feature"},{"geometry":{"coordinates":[25.67774,66.51285],"type":"Point"},"properties":{"concentration_Be-7":1585.5,"concentration_Cs-137":0.3,"concentration_Na-22":0.2,"concentration_Pb-210":236.5,"concentration_air-volume":141383.0,"from_timestamp":"2024-03-11T09:41:00Z","id":"103433","site":"Rovaniemi","to_timestamp":"2024-03-18T10:46:00Z","uncertainty_Be-7-uncertainty":5.0,"uncertainty_Cs-137-uncertainty":10.0,"uncertainty_Na-22-uncertainty":15.0,"uncertainty_Pb-210-uncertainty":4.0},"type":"Feature"},{"geometry":{"coordinates":[26.62807,67.36505],"type":"Point"},"properties":{"concentration_Be-7":681.6,"concentration_Pb-210":146.6,"concentration_air-volume":24816.0,"from_timestamp":"2024-02-26T08:12:00Z","id":"103434","site":"Sodankylä","to_timestamp":"2024-03-04T08:30:00Z","uncertainty_Be-7-uncertainty":6.0,"uncertainty_Pb-210-uncertainty":8.0},"type":"Feature"},{"geometry":{"coordinates":[26.62807,67.36505],"type":"Point"},"properties":{"concentration_Be-7":1784.6,"concentration_Pb-210":349.4,"concentration_air-volume":25132.0,"from_timestamp":"2024-03-04T08:30:00Z","id":"103434","site":"Sodankylä","to_timestamp":"2024-03-11T08:42:00Z","uncertainty_Be-7-uncertainty":6.0,"uncertainty_Pb-210-uncertainty":19.0},"type":"Feature"},{"geometry":{"coordinates":[26.62807,67.36505],"type":"Point"},"properties":{"concentration_Be-7":1868.4,"concentration_air-volume":25016.0,"from_timestamp":"2024-03-11T08:42:00Z","id":"103434","site":"Sodankylä","to_timestamp":"2024-03-18T08:22:00Z","uncertainty_Be-7-uncertainty":6.0},"type":"Feature"},{"geometry":{"coordinates":[27.70835,64.08474],"type":"Point"},"properties":{"concentration_Be-7":798.9,"concentration_Cs-137":0.1,"concentration_Na-22":0.2,"concentration_Pb-210":179.0,"concentration_air-volume":97528.0,"from_timestamp":"2024-02-26T14:17:00Z","id":"103435","site":"Kajaani","to_timestamp":"2024-03-04T10:05:00Z","uncertainty_Be-7-uncertainty":6.0,"uncertainty_Cs-137-uncertainty":15.0,"uncertainty_Na-22-uncertainty":26.0,"uncertainty_Pb-210-uncertainty":8.0},"type":"Feature"},{"geometry":{"coordinates":[27.70835,64.08474],"type":"Point"},"properties":{"concentration_Be-7":1045.2,"concentration_Cs-137":0.1,"concentration_Pb-210":208.6,"concentration_air-volume":103224.0,"from_timestamp":"2024-03-04T10:15:00Z","id":"103435","site":"Kajaani","to_timestamp":"2024-03-11T11:42:00Z","uncertainty_Be-7-uncertainty":6.0,"uncertainty_Cs-137-uncertainty":18.0,"uncertainty_Pb-210-uncertainty":8.0},"type":"Feature"},{"geometry":{"coordinates":[27.70835,64.08474],"type":"Point"},"properties":{"concentration_Be-7":1406.4,"concentration_Cs-137":0.5,"concentration_air-volume":104037.0,"from_timestamp":"2024-03-11T11:43:00Z","id":"103435","site":"Kajaani","to_timestamp":"2024-03-18T16:06:00Z","uncertainty_Be-7-uncertainty":7.0,"uncertainty_Cs-137-uncertainty":11.0},"type":"Feature"},{"geometry":{"coordinates":[25.05334,60.29049],"type":"Point"},"properties":{"concentration_Be-7":2925.0,"concentration_Pb-210":872.7,"concentration_air-volume":14014.0,"from_timestamp":"2024-03-03T08:01:00Z","id":"107554","site":"Vantaa","to_timestamp":"2024-03-04T06:58:00Z","uncertainty_Be-7-uncertainty":8.0,"uncertainty_Pb-210-uncertainty":6.0},"type":"Feature"},{"geometry":{"coordinates":[25.05334,60.29049],"type":"Point"},"properties":{"concentration_Be-7":2064.7,"concentration_Pb-210":235.1,"concentration_air-volume":14286.0,"from_timestamp":"2024-03-06T08:01:00Z","id":"107554","site":"Vantaa","to_timestamp":"2024-03-07T06:58:00Z","uncertainty_Be-7-uncertainty":8.0,"uncertainty_Pb-210-uncertainty":7.0},"type":"Feature"},{"geometry":{"coordinates":[25.05334,60.29049],"type":"Point"},"properties":{"concentration_Be-7":1796.3,"concentration_Cs-137":2.6,"concentration_Pb-210":372.8,"concentration_air-volume":14668.0,"from_timestamp":"2024-03-07T08:01:00Z","id":"107554","site":"Vantaa","to_timestamp":"2024-03-08T06:58:00Z","uncertainty_Be-7-uncertainty":8.0,"uncertainty_Cs-137-uncertainty":20.0,"uncertainty_Pb-210-uncertainty":6.0},"type":"Feature"},{"geometry":{"coordinates":[25.05334,60.29049],"type":"Point"},"properties":{"concentration_Be-7":1694.3,"concentration_Pb-210":182.2,"concentration_air-volume":14876.0,"from_timestamp":"2024-03-05T08:01:00Z","id":"107554","site":"Vantaa","to_timestamp":"2024-03-06T06:58:00Z","uncertainty_Be-7-uncertainty":8.0,"uncertainty_Pb-210-uncertainty":7.0},"type":"Feature"},{"geometry":{"coordinates":[25.05334,60.29049],"type":"Point"},"properties":{"concentration_Be-7":2550.4,"concentration_Pb-210":766.9,"concentration_air-volume":14401.0,"from_timestamp":"2024-03-04T08:01:00Z","id":"107554","site":"Vantaa","to_timestamp":"2024-03-05T06:58:00Z","uncertainty_Be-7-uncertainty":8.0,"uncertainty_Pb-210-uncertainty":6.0},"type":"Feature"},{"geometry":{"coordinates":[25.05334,60.29049],"type":"Point"},"properties":{"concentration_Be-7":889.3,"concentration_Pb-210":275.8,"concentration_air-volume":14660.0,"from_timestamp":"2024-03-08T08:01:00Z","id":"107554","site":"Vantaa","to_timestamp":"2024-03-09T06:58:00Z","uncertainty_Be-7-uncertainty":8.0,"uncertainty_Pb-210-uncertainty":7.0},"type":"Feature"},{"geometry":{"coordinates":[25.05334,60.29049],"type":"Point"},"properties":{"concentration_Be-7":2046.6,"concentration_Pb-210":227.3,"concentration_air-volume":14591.0,"from_timestamp":"2024-03-09T08:01:00Z","id":"107554","site":"Vantaa","to_timestamp":"2024-03-10T06:58:00Z","uncertainty_Be-7-uncertainty":8.0,"uncertainty_Pb-210-uncertainty":7.0},"type":"Feature"},{"geometry":{"coordinates":[25.05334,60.29049],"type":"Point"},"properties":{"concentration_Be-7":1635.7,"concentration_Pb-210":371.6,"concentration_air-volume":13930.0,"from_timestamp":"2024-03-10T08:01:00Z","id":"107554","site":"Vantaa","to_timestamp":"2024-03-11T06:58:00Z","uncertainty_Be-7-uncertainty":8.0,"uncertainty_Pb-210-uncertainty":7.0},"type":"Feature"},{"geometry":{"coordinates":[25.05334,60.29049],"type":"Point"},"properties":{"concentration_Be-7":1331.3,"concentration_Pb-210":251.6,"concentration_air-volume":14276.0,"from_timestamp":"2024-03-11T08:01:00Z","id":"107554","site":"Vantaa","to_timestamp":"2024-03-12T06:58:00Z","uncertainty_Be-7-uncertainty":8.0,"uncertainty_Pb-210-uncertainty":7.0},"type":"Feature"}],"name":"stuk_open_data_air_radionuclides","type":"FeatureCollection"}