{"crs":{"properties":{"name":"urn:ogc:def:crs:OGC:1.3:CRS84"},"type":"name"},"features":[{"geometry":{"coordinates":[26.91808,60.48318],"type":"Point"},"properties":{"concentration_Be-7":1783.7,"concentration_Cs-137":0.3,"concentration_Na-22":0.3,"concentration_Pb-210":135.1,"concentration_air-volume":99470.0,"from_timestamp":"2024-06-10T08:36:00Z","id":"103429","site":"Kotka","to_timestamp":"2024-06-17T08:34:00Z","uncertainty_Be-7-uncertainty":2.0,"uncertainty_Cs-137-uncertainty":12.0,"uncertainty_Na-22-uncertainty":19.0,"uncertainty_Pb-210-uncertainty":4.0},"type":"Feature"},{"geometry":{"coordinates":[26.91808,60.48318],"type":"Point"},"properties":{"concentration_Be-7":2147.6,"concentration_Cs-137":0.9,"concentration_Na-22":0.4,"concentration_Pb-210":173.1,"concentration_air-volume":98477.0,"from_timestamp":"2024-06-17T08:36:00Z","id":"103429","site":"Kotka","to_timestamp":"2024-06-24T08:55:00Z","uncertainty_Be-7-uncertainty":2.0,"uncertainty_Cs-137-uncertainty":5.0,"uncertainty_Na-22-uncertainty":13.0,"uncertainty_Pb-210-uncertainty":4.0},"type":"Feature"},{"geometry":{"coordinates":[28.82663,61.13229],"type":"Point"},"properties":{"concentration_Be-7":2304.7,"concentration_Cs-137":0.6,"concentration_Na-22":0.5,"concentration_Pb-210":163.3,"concentration_air-volume":39312.0,"from_timestamp":"2024-06-13T17:05:00Z","id":"103430","site":"Imatra","to_timestamp":"2024-06-27T06:30:00Z","uncertainty_Be-7-uncertainty":6.0,"uncertainty_Cs-137-uncertainty":12.0,"uncertainty_Na-22-uncertainty":23.0,"uncertainty_Pb-210-uncertainty":8.0},"type":"Feature"},{"geometry":{"coordinates":[27.57,68.64],"type":"Point"},"properties":{"concentration_Be-7":2405.9,"concentration_Cs-137":0.7,"concentration_air-volume":24167.0,"from_timestamp":"2024-06-10T07:59:00Z","id":"103431","site":"Ivalo","to_timestamp":"2024-06-17T08:16:00Z","uncertainty_Be-7-uncertainty":6.0,"uncertainty_Cs-137-uncertainty":21.0},"type":"Feature"},{"geometry":{"coordinates":[27.57,68.64],"type":"Point"},"properties":{"concentration_Be-7":2354.7,"concentration_Pb-210":149.0,"concentration_air-volume":24462.0,"from_timestamp":"2024-06-17T08:18:00Z","id":"103431","site":"Ivalo","to_timestamp":"2024-06-24T10:23:00Z","uncertainty_Be-7-uncertainty":3.0,"uncertainty_Pb-210-uncertainty":4.0},"type":"Feature"},{"geometry":{"coordinates":[27.63414,62.89195],"type":"Point"},"properties":{"concentration_Be-7":2436.8,"concentration_Cs-137":0.8,"concentration_Pb-210":195.9,"concentration_air-volume":22315.0,"from_timestamp":"2024-06-10T09:06:00Z","id":"103432","site":"Kuopio","to_timestamp":"2024-06-17T08:45:00Z","uncertainty_Be-7-uncertainty":3.0,"uncertainty_Cs-137-uncertainty":28.0,"uncertainty_Pb-210-uncertainty":15.0},"type":"Feature"},{"geometry":{"coordinates":[27.63414,62.89195],"type":"Point"},"properties":{"concentration_Be-7":2476.0,"concentration_Pb-210":202.8,"concentration_air-volume":22292.0,"from_timestamp":"2024-06-17T08:48:00Z","id":"103432","site":"Kuopio","to_timestamp":"2024-06-24T08:29:00Z","uncertainty_Be-7-uncertainty":3.0,"uncertainty_Pb-210-uncertainty":14.0},"type":"Feature"},{"geometry":{"coordinates":[25.67774,66.51285],"type":"Point"},"properties":{"concentration_Be-7":2178.6,"concentration_Cs-137":0.2,"concentration_Na-22":0.5,"concentration_Pb-210":120.1,"concentration_air-volume":131288.0,"from_timestamp":"2024-06-10T09:56:00Z","id":"103433","site":"Rovaniemi","to_timestamp":"2024-06-17T09:00:00Z","uncertainty_Be-7-uncertainty":6.0,"uncertainty_Cs-137-uncertainty":14.0,"uncertainty_Na-22-uncertainty":12.0,"uncertainty_Pb-210-uncertainty":8.0},"type":"Feature"},{"geometry":{"coordinates":[25.67774,66.51285],"type":"Point"},"properties":{"concentration_Be-7":1893.3,"concentration_Cs-137":0.2,"concentration_Na-22":0.3,"concentration_Pb-210":192.4,"concentration_air-volume":136639.0,"from_timestamp":"2024-06-17T09:05:00Z","id":"103433","site":"Rovaniemi","to_timestamp":"2024-06-24T12:34:00Z","uncertainty_Be-7-uncertainty":5.0,"uncertainty_Cs-137-uncertainty":13.0,"uncertainty_Na-22-uncertainty":12.0,"uncertainty_Pb-210-uncertainty":5.0},"type":"Feature"},{"geometry":{"coordinates":[26.62807,67.36505],"type":"Point"},"properties":{"concentration_Be-7":2625.3,"concentration_Na-22":0.7,"concentration_air-volume":23747.0,"from_timestamp":"2024-06-10T07:55:00Z","id":"103434","site":"Sodankylä","to_timestamp":"2024-06-17T07:57:00Z","uncertainty_Be-7-uncertainty":10.0,"uncertainty_Na-22-uncertainty":29.0},"type":"Feature"},{"geometry":{"coordinates":[26.62807,67.36505],"type":"Point"},"properties":{"concentration_Be-7":2267.2,"concentration_Pb-210":219.4,"concentration_air-volume":23684.0,"from_timestamp":"2024-06-17T07:58:00Z","id":"103434","site":"Sodankylä","to_timestamp":"2024-06-24T08:11:00Z","uncertainty_Be-7-uncertainty":5.0,"uncertainty_Pb-210-uncertainty":5.0},"type":"Feature"},{"geometry":{"coordinates":[27.70835,64.08474],"type":"Point"},"properties":{"concentration_Be-7":1910.0,"concentration_Cs-137":0.2,"concentration_Na-22":0.3,"concentration_Pb-210":87.5,"concentration_air-volume":94597.0,"from_timestamp":"2024-06-10T15:37:00Z","id":"103435","site":"Kajaani","to_timestamp":"2024-06-17T10:17:00Z","uncertainty_Be-7-uncertainty":5.0,"uncertainty_Cs-137-uncertainty":15.0,"uncertainty_Na-22-uncertainty":17.0,"uncertainty_Pb-210-uncertainty":5.0},"type":"Feature"},{"geometry":{"coordinates":[27.70835,64.08474],"type":"Point"},"properties":{"concentration_Be-7":2210.5,"concentration_Cs-137":0.2,"concentration_Na-22":0.3,"concentration_air-volume":97286.0,"from_timestamp":"2024-06-17T10:25:00Z","id":"103435","site":"Kajaani","to_timestamp":"2024-06-24T12:25:00Z","uncertainty_Be-7-uncertainty":7.0,"uncertainty_Cs-137-uncertainty":14.0,"uncertainty_Na-22-uncertainty":15.0},"type":"Feature"}],"name":"stuk_open_data_air_radionuclides","type":"FeatureCollection"}