{"crs":{"properties":{"name":"urn:ogc:def:crs:OGC:1.3:CRS84"},"type":"name"},"features":[{"geometry":{"coordinates":[26.91808,60.48318],"type":"Point"},"properties":{"concentration_Be-7":897.2,"concentration_Cs-137":2.2,"concentration_Na-22":0.2,"concentration_Pb-210":41.3,"concentration_air-volume":95376.0,"from_timestamp":"2024-01-15T09:17:00Z","id":"103429","site":"Kotka","to_timestamp":"2024-01-22T08:51:00Z","uncertainty_Be-7-uncertainty":5.0,"uncertainty_Cs-137-uncertainty":6.0,"uncertainty_Na-22-uncertainty":27.0,"uncertainty_Pb-210-uncertainty":9.0},"type":"Feature"},{"geometry":{"coordinates":[26.91808,60.48318],"type":"Point"},"properties":{"concentration_Be-7":854.3,"concentration_Cs-137":0.4,"concentration_Pb-210":131.4,"concentration_air-volume":100822.0,"from_timestamp":"2024-01-22T08:52:00Z","id":"103429","site":"Kotka","to_timestamp":"2024-01-29T08:44:00Z","uncertainty_Be-7-uncertainty":5.0,"uncertainty_Cs-137-uncertainty":8.0,"uncertainty_Pb-210-uncertainty":5.0},"type":"Feature"},{"geometry":{"coordinates":[28.82663,61.13229],"type":"Point"},"properties":{"concentration_Be-7":1054.7,"concentration_Cs-137":2.9,"concentration_Pb-210":367.7,"concentration_air-volume":41147.0,"from_timestamp":"2024-01-08T07:00:00Z","id":"103430","site":"Imatra","to_timestamp":"2024-01-22T07:15:00Z","uncertainty_Be-7-uncertainty":6.0,"uncertainty_Cs-137-uncertainty":7.0,"uncertainty_Pb-210-uncertainty":19.0},"type":"Feature"},{"geometry":{"coordinates":[28.82663,61.13229],"type":"Point"},"properties":{"concentration_Be-7":975.9,"concentration_Cs-137":2.0,"concentration_air-volume":21618.0,"from_timestamp":"2024-01-22T07:15:00Z","id":"103430","site":"Imatra","to_timestamp":"2024-01-29T07:20:00Z","uncertainty_Be-7-uncertainty":10.0,"uncertainty_Cs-137-uncertainty":14.0},"type":"Feature"},{"geometry":{"coordinates":[27.57,68.64],"type":"Point"},"properties":{"concentration_Be-7":1076.9,"concentration_air-volume":26478.0,"from_timestamp":"2024-01-15T08:45:00Z","id":"103431","site":"Ivalo","to_timestamp":"2024-01-22T08:20:00Z","uncertainty_Be-7-uncertainty":10.0},"type":"Feature"},{"geometry":{"coordinates":[27.57,68.64],"type":"Point"},"properties":{"concentration_Be-7":640.3,"concentration_air-volume":25413.0,"from_timestamp":"2024-01-22T08:23:00Z","id":"103431","site":"Ivalo","to_timestamp":"2024-01-29T08:16:00Z","uncertainty_Be-7-uncertainty":10.0},"type":"Feature"},{"geometry":{"coordinates":[27.63414,62.89195],"type":"Point"},"properties":{"concentration_Be-7":982.8,"concentration_Cs-137":0.8,"concentration_Pb-210":302.4,"concentration_air-volume":24843.0,"from_timestamp":"2024-01-15T09:57:00Z","id":"103432","site":"Kuopio","to_timestamp":"2024-01-22T08:40:00Z","uncertainty_Be-7-uncertainty":3.0,"uncertainty_Cs-137-uncertainty":23.0,"uncertainty_Pb-210-uncertainty":8.0},"type":"Feature"},{"geometry":{"coordinates":[27.63414,62.89195],"type":"Point"},"properties":{"concentration_Be-7":784.3,"concentration_Pb-210":143.4,"concentration_air-volume":24186.0,"from_timestamp":"2024-01-22T08:45:00Z","id":"103432","site":"Kuopio","to_timestamp":"2024-01-29T07:54:00Z","uncertainty_Be-7-uncertainty":3.0,"uncertainty_Pb-210-uncertainty":17.0},"type":"Feature"},{"geometry":{"coordinates":[25.67774,66.51285],"type":"Point"},"properties":{"concentration_Be-7":843.0,"concentration_Cs-137":0.4,"concentration_Pb-210":362.1,"concentration_air-volume":123590.0,"from_timestamp":"2024-01-15T13:33:00Z","id":"103433","site":"Rovaniemi","to_timestamp":"2024-01-22T09:00:00Z","uncertainty_Be-7-uncertainty":5.0,"uncertainty_Cs-137-uncertainty":11.0,"uncertainty_Pb-210-uncertainty":4.0},"type":"Feature"},{"geometry":{"coordinates":[25.67774,66.51285],"type":"Point"},"properties":{"concentration_Be-7":569.5,"concentration_Cs-137":0.3,"concentration_Pb-210":211.3,"concentration_air-volume":130236.0,"from_timestamp":"2024-01-22T09:03:00Z","id":"103433","site":"Rovaniemi","to_timestamp":"2024-01-29T10:07:00Z","uncertainty_Be-7-uncertainty":5.0,"uncertainty_Cs-137-uncertainty":12.0,"uncertainty_Pb-210-uncertainty":4.0},"type":"Feature"},{"geometry":{"coordinates":[26.62807,67.36505],"type":"Point"},"properties":{"concentration_Be-7":843.0,"concentration_Cs-137":0.4,"concentration_Pb-210":347.1,"concentration_air-volume":25413.0,"from_timestamp":"2024-01-15T08:25:00Z","id":"103434","site":"Sodankylä","to_timestamp":"2024-01-24T08:15:00Z","uncertainty_Be-7-uncertainty":6.0,"uncertainty_Cs-137-uncertainty":23.0,"uncertainty_Pb-210-uncertainty":19.0},"type":"Feature"},{"geometry":{"coordinates":[26.62807,67.36505],"type":"Point"},"properties":{"concentration_Be-7":557.8,"concentration_Cs-137":0.6,"concentration_air-volume":24690.0,"from_timestamp":"2024-01-22T08:16:00Z","id":"103434","site":"Sodankylä","to_timestamp":"2024-01-29T08:29:00Z","uncertainty_Be-7-uncertainty":6.0,"uncertainty_Cs-137-uncertainty":20.0},"type":"Feature"},{"geometry":{"coordinates":[27.70835,64.08474],"type":"Point"},"properties":{"concentration_Be-7":810.8,"concentration_Cs-137":0.3,"concentration_Pb-210":489.6,"concentration_air-volume":97227.0,"from_timestamp":"2024-01-15T18:50:00Z","id":"103435","site":"Kajaani","to_timestamp":"2024-01-22T20:15:00Z","uncertainty_Be-7-uncertainty":7.0,"uncertainty_Cs-137-uncertainty":11.0,"uncertainty_Pb-210-uncertainty":24.0},"type":"Feature"},{"geometry":{"coordinates":[27.70835,64.08474],"type":"Point"},"properties":{"concentration_Be-7":707.1,"concentration_Cs-137":0.2,"concentration_Pb-210":59.6,"concentration_air-volume":98219.0,"from_timestamp":"2024-01-22T20:20:00Z","id":"103435","site":"Kajaani","to_timestamp":"2024-01-29T14:52:00Z","uncertainty_Be-7-uncertainty":3.0,"uncertainty_Cs-137-uncertainty":29.0,"uncertainty_Pb-210-uncertainty":4.0},"type":"Feature"},{"geometry":{"coordinates":[25.05334,60.29049],"type":"Point"},"properties":{"concentration_Be-7":861.2,"concentration_Cs-137":1.6,"concentration_Pb-210":388.5,"concentration_air-volume":14607.0,"from_timestamp":"2024-01-15T08:01:00Z","id":"107554","site":"Vantaa","to_timestamp":"2024-01-16T07:01:00Z","uncertainty_Be-7-uncertainty":8.0,"uncertainty_Cs-137-uncertainty":27.0,"uncertainty_Pb-210-uncertainty":6.0},"type":"Feature"},{"geometry":{"coordinates":[25.05334,60.29049],"type":"Point"},"properties":{"concentration_Be-7":613.5,"concentration_Pb-210":464.2,"concentration_air-volume":15332.0,"from_timestamp":"2024-01-16T08:01:00Z","id":"107554","site":"Vantaa","to_timestamp":"2024-01-17T07:01:00Z","uncertainty_Be-7-uncertainty":8.0,"uncertainty_Pb-210-uncertainty":6.0},"type":"Feature"},{"geometry":{"coordinates":[25.05334,60.29049],"type":"Point"},"properties":{"concentration_Be-7":1361.3,"concentration_Pb-210":188.6,"concentration_air-volume":14325.0,"from_timestamp":"2024-01-17T08:01:00Z","id":"107554","site":"Vantaa","to_timestamp":"2024-01-18T07:01:00Z","uncertainty_Be-7-uncertainty":8.0,"uncertainty_Pb-210-uncertainty":7.0},"type":"Feature"},{"geometry":{"coordinates":[25.05334,60.29049],"type":"Point"},"properties":{"concentration_Be-7":971.0,"concentration_Cs-137":2.4,"concentration_Pb-210":496.7,"concentration_air-volume":15004.0,"from_timestamp":"2024-01-19T08:01:00Z","id":"107554","site":"Vantaa","to_timestamp":"2024-01-20T07:00:00Z","uncertainty_Be-7-uncertainty":8.0,"uncertainty_Cs-137-uncertainty":22.0,"uncertainty_Pb-210-uncertainty":6.0},"type":"Feature"},{"geometry":{"coordinates":[25.05334,60.29049],"type":"Point"},"properties":{"concentration_Be-7":1087.9,"concentration_Pb-210":299.7,"concentration_air-volume":14073.0,"from_timestamp":"2024-01-18T08:01:00Z","id":"107554","site":"Vantaa","to_timestamp":"2024-01-19T07:00:00Z","uncertainty_Be-7-uncertainty":8.0,"uncertainty_Pb-210-uncertainty":7.0},"type":"Feature"},{"geometry":{"coordinates":[25.05334,60.29049],"type":"Point"},"properties":{"concentration_Be-7":921.6,"concentration_Pb-210":130.8,"concentration_air-volume":13722.0,"from_timestamp":"2024-01-22T08:01:00Z","id":"107554","site":"Vantaa","to_timestamp":"2024-01-23T07:00:00Z","uncertainty_Be-7-uncertainty":8.0,"uncertainty_Pb-210-uncertainty":7.0},"type":"Feature"},{"geometry":{"coordinates":[25.05334,60.29049],"type":"Point"},"properties":{"concentration_Be-7":1216.9,"concentration_Pb-210":105.2,"concentration_air-volume":13845.0,"from_timestamp":"2024-01-23T08:01:00Z","id":"107554","site":"Vantaa","to_timestamp":"2024-01-24T07:00:00Z","uncertainty_Be-7-uncertainty":8.0,"uncertainty_Pb-210-uncertainty":8.0},"type":"Feature"},{"geometry":{"coordinates":[25.05334,60.29049],"type":"Point"},"properties":{"concentration_Be-7":1349.7,"concentration_Cs-137":3.6,"concentration_Pb-210":615.9,"concentration_air-volume":8486.0,"from_timestamp":"2024-01-20T08:01:00Z","id":"107554","site":"Vantaa","to_timestamp":"2024-01-21T07:00:00Z","uncertainty_Be-7-uncertainty":8.0,"uncertainty_Cs-137-uncertainty":25.0,"uncertainty_Pb-210-uncertainty":6.0},"type":"Feature"}],"name":"stuk_open_data_air_radionuclides","type":"FeatureCollection"}