{"crs":{"properties":{"name":"urn:ogc:def:crs:OGC:1.3:CRS84"},"type":"name"},"features":[{"geometry":{"coordinates":[26.91808,60.48318],"type":"Point"},"properties":{"concentration_Be-7":1402.0,"concentration_Cs-137":0.7,"concentration_Pb-210":277.7,"concentration_air-volume":99545.0,"from_timestamp":"2024-02-19T08:53:00Z","id":"103429","site":"Kotka","to_timestamp":"2024-02-26T08:53:00Z","uncertainty_Be-7-uncertainty":5.0,"uncertainty_Cs-137-uncertainty":7.0,"uncertainty_Pb-210-uncertainty":5.0},"type":"Feature"},{"geometry":{"coordinates":[26.91808,60.48318],"type":"Point"},"properties":{"concentration_Be-7":1254.3,"concentration_Cs-137":0.6,"concentration_Pb-210":379.4,"concentration_air-volume":102186.0,"from_timestamp":"2024-02-26T08:54:00Z","id":"103429","site":"Kotka","to_timestamp":"2024-03-04T08:33:00Z","uncertainty_Be-7-uncertainty":5.0,"uncertainty_Cs-137-uncertainty":7.0,"uncertainty_Pb-210-uncertainty":5.0},"type":"Feature"},{"geometry":{"coordinates":[28.82663,61.13229],"type":"Point"},"properties":{"concentration_Be-7":1287.6,"concentration_Cs-137":0.8,"concentration_air-volume":21103.0,"from_timestamp":"2024-02-22T07:05:00Z","id":"103430","site":"Imatra","to_timestamp":"2024-02-29T07:00:00Z","uncertainty_Be-7-uncertainty":10.0,"uncertainty_Cs-137-uncertainty":17.0},"type":"Feature"},{"geometry":{"coordinates":[28.82663,61.13229],"type":"Point"},"properties":{"concentration_Be-7":2532.8,"concentration_Cs-137":1.0,"concentration_air-volume":21739.0,"from_timestamp":"2024-02-29T07:05:00Z","id":"103430","site":"Imatra","to_timestamp":"2024-03-07T06:50:00Z","uncertainty_Be-7-uncertainty":10.0,"uncertainty_Cs-137-uncertainty":14.0},"type":"Feature"},{"geometry":{"coordinates":[27.57,68.64],"type":"Point"},"properties":{"concentration_Be-7":971.1,"concentration_Pb-210":99.3,"concentration_air-volume":25323.0,"from_timestamp":"2024-02-19T08:38:00Z","id":"103431","site":"Ivalo","to_timestamp":"2024-02-26T08:21:00Z","uncertainty_Be-7-uncertainty":3.0,"uncertainty_Pb-210-uncertainty":4.0},"type":"Feature"},{"geometry":{"coordinates":[27.57,68.64],"type":"Point"},"properties":{"concentration_Be-7":643.3,"concentration_Pb-210":108.1,"concentration_air-volume":25494.0,"from_timestamp":"2024-02-26T08:22:00Z","id":"103431","site":"Ivalo","to_timestamp":"2024-03-04T10:33:00Z","uncertainty_Be-7-uncertainty":5.0,"uncertainty_Pb-210-uncertainty":5.0},"type":"Feature"},{"geometry":{"coordinates":[27.63414,62.89195],"type":"Point"},"properties":{"concentration_Be-7":1895.8,"concentration_Cs-137":0.7,"concentration_Pb-210":235.6,"concentration_air-volume":23386.0,"from_timestamp":"2024-02-19T08:22:00Z","id":"103432","site":"Kuopio","to_timestamp":"2024-02-26T08:13:00Z","uncertainty_Be-7-uncertainty":3.0,"uncertainty_Cs-137-uncertainty":29.0,"uncertainty_Pb-210-uncertainty":12.0},"type":"Feature"},{"geometry":{"coordinates":[27.63414,62.89195],"type":"Point"},"properties":{"concentration_Be-7":1464.2,"concentration_Pb-210":234.5,"concentration_air-volume":24038.0,"from_timestamp":"2024-02-26T08:13:00Z","id":"103432","site":"Kuopio","to_timestamp":"2024-03-04T08:24:00Z","uncertainty_Be-7-uncertainty":3.0,"uncertainty_Pb-210-uncertainty":11.0},"type":"Feature"},{"geometry":{"coordinates":[25.67774,66.51285],"type":"Point"},"properties":{"concentration_Be-7":900.4,"concentration_Cs-137":0.2,"concentration_Na-22":0.1,"concentration_Pb-210":152.2,"concentration_air-volume":138134.0,"from_timestamp":"2024-02-09T10:16:00Z","id":"103433","site":"Rovaniemi","to_timestamp":"2024-02-26T09:26:00Z","uncertainty_Be-7-uncertainty":5.0,"uncertainty_Cs-137-uncertainty":12.0,"uncertainty_Na-22-uncertainty":25.0,"uncertainty_Pb-210-uncertainty":4.0},"type":"Feature"},{"geometry":{"coordinates":[25.67774,66.51285],"type":"Point"},"properties":{"concentration_Be-7":661.1,"concentration_Cs-137":0.2,"concentration_Pb-210":178.8,"concentration_air-volume":141332.0,"from_timestamp":"2024-02-26T09:28:00Z","id":"103433","site":"Rovaniemi","to_timestamp":"2024-03-04T10:31:00Z","uncertainty_Be-7-uncertainty":5.0,"uncertainty_Cs-137-uncertainty":13.0,"uncertainty_Pb-210-uncertainty":4.0},"type":"Feature"},{"geometry":{"coordinates":[26.62807,67.36505],"type":"Point"},"properties":{"concentration_Be-7":1122.2,"concentration_air-volume":24765.0,"from_timestamp":"2024-02-19T08:40:00Z","id":"103434","site":"Sodankylä","to_timestamp":"2024-02-26T00:00:00Z","uncertainty_Be-7-uncertainty":10.0},"type":"Feature"},{"geometry":{"coordinates":[26.62807,67.36505],"type":"Point"},"properties":{"concentration_Be-7":681.6,"concentration_Pb-210":146.6,"concentration_air-volume":24816.0,"from_timestamp":"2024-02-26T08:12:00Z","id":"103434","site":"Sodankylä","to_timestamp":"2024-03-04T08:30:00Z","uncertainty_Be-7-uncertainty":6.0,"uncertainty_Pb-210-uncertainty":8.0},"type":"Feature"},{"geometry":{"coordinates":[27.70835,64.08474],"type":"Point"},"properties":{"concentration_Be-7":1251.2,"concentration_Cs-137":0.3,"concentration_Na-22":0.2,"concentration_Pb-210":193.5,"concentration_air-volume":101558.0,"from_timestamp":"2024-02-19T12:18:00Z","id":"103435","site":"Kajaani","to_timestamp":"2024-02-26T14:10:00Z","uncertainty_Be-7-uncertainty":5.0,"uncertainty_Cs-137-uncertainty":10.0,"uncertainty_Na-22-uncertainty":24.0,"uncertainty_Pb-210-uncertainty":5.0},"type":"Feature"},{"geometry":{"coordinates":[27.70835,64.08474],"type":"Point"},"properties":{"concentration_Be-7":798.9,"concentration_Cs-137":0.1,"concentration_Na-22":0.2,"concentration_Pb-210":179.0,"concentration_air-volume":97528.0,"from_timestamp":"2024-02-26T14:17:00Z","id":"103435","site":"Kajaani","to_timestamp":"2024-03-04T10:05:00Z","uncertainty_Be-7-uncertainty":6.0,"uncertainty_Cs-137-uncertainty":15.0,"uncertainty_Na-22-uncertainty":26.0,"uncertainty_Pb-210-uncertainty":8.0},"type":"Feature"}],"name":"stuk_open_data_air_radionuclides","type":"FeatureCollection"}