{"crs":{"properties":{"name":"urn:ogc:def:crs:OGC:1.3:CRS84"},"type":"name"},"features":[{"geometry":{"coordinates":[26.91808,60.48318],"type":"Point"},"properties":{"concentration_Be-7":1601.4,"concentration_Cs-137":0.3,"concentration_Na-22":0.2,"concentration_Pb-210":186.9,"concentration_air-volume":102865.0,"from_timestamp":"2024-04-22T08:36:00Z","id":"103429","site":"Kotka","to_timestamp":"2024-04-29T09:22:00Z","uncertainty_Be-7-uncertainty":2.0,"uncertainty_Cs-137-uncertainty":12.0,"uncertainty_Na-22-uncertainty":28.0,"uncertainty_Pb-210-uncertainty":4.0},"type":"Feature"},{"geometry":{"coordinates":[26.91808,60.48318],"type":"Point"},"properties":{"concentration_Be-7":1742.8,"concentration_Cs-137":1.0,"concentration_Na-22":0.3,"concentration_Pb-210":288.5,"concentration_air-volume":99221.0,"from_timestamp":"2024-04-29T09:23:00Z","id":"103429","site":"Kotka","to_timestamp":"2024-05-06T08:25:00Z","uncertainty_Be-7-uncertainty":2.0,"uncertainty_Cs-137-uncertainty":6.0,"uncertainty_Na-22-uncertainty":26.0,"uncertainty_Pb-210-uncertainty":4.0},"type":"Feature"},{"geometry":{"coordinates":[26.91808,60.48318],"type":"Point"},"properties":{"concentration_Be-7":1862.8,"concentration_Cs-137":0.9,"concentration_Na-22":0.3,"concentration_air-volume":101175.0,"from_timestamp":"2024-05-06T08:27:00Z","id":"103429","site":"Kotka","to_timestamp":"2024-05-13T08:32:00Z","uncertainty_Be-7-uncertainty":7.0,"uncertainty_Cs-137-uncertainty":9.0,"uncertainty_Na-22-uncertainty":17.0},"type":"Feature"},{"geometry":{"coordinates":[28.82663,61.13229],"type":"Point"},"properties":{"concentration_Be-7":2261.1,"concentration_Cs-137":0.8,"concentration_air-volume":21593.0,"from_timestamp":"2024-04-22T07:00:00Z","id":"103430","site":"Imatra","to_timestamp":"2024-04-29T07:10:00Z","uncertainty_Be-7-uncertainty":10.0,"uncertainty_Cs-137-uncertainty":14.0},"type":"Feature"},{"geometry":{"coordinates":[28.82663,61.13229],"type":"Point"},"properties":{"concentration_Be-7":2365.3,"concentration_Cs-137":1.1,"concentration_Pb-210":285.6,"concentration_air-volume":20838.0,"from_timestamp":"2024-04-29T07:10:00Z","id":"103430","site":"Imatra","to_timestamp":"2024-05-06T06:42:00Z","uncertainty_Be-7-uncertainty":3.0,"uncertainty_Cs-137-uncertainty":18.0,"uncertainty_Pb-210-uncertainty":3.0},"type":"Feature"},{"geometry":{"coordinates":[28.82663,61.13229],"type":"Point"},"properties":{"concentration_Be-7":2511.3,"concentration_Cs-137":1.7,"concentration_air-volume":29928.0,"from_timestamp":"2024-05-06T06:46:00Z","id":"103430","site":"Imatra","to_timestamp":"2024-05-16T07:00:00Z","uncertainty_Be-7-uncertainty":6.0,"uncertainty_Cs-137-uncertainty":10.0},"type":"Feature"},{"geometry":{"coordinates":[27.57,68.64],"type":"Point"},"properties":{"concentration_Be-7":1681.2,"concentration_Pb-210":256.4,"concentration_air-volume":25560.0,"from_timestamp":"2024-04-22T07:13:00Z","id":"103431","site":"Ivalo","to_timestamp":"2024-04-29T08:30:00Z","uncertainty_Be-7-uncertainty":3.0,"uncertainty_Pb-210-uncertainty":3.0},"type":"Feature"},{"geometry":{"coordinates":[27.57,68.64],"type":"Point"},"properties":{"concentration_Be-7":1531.0,"concentration_Pb-210":55.8,"concentration_air-volume":25233.0,"from_timestamp":"2024-04-29T08:32:00Z","id":"103431","site":"Ivalo","to_timestamp":"2024-05-06T08:15:00Z","uncertainty_Be-7-uncertainty":6.0,"uncertainty_Pb-210-uncertainty":22.0},"type":"Feature"},{"geometry":{"coordinates":[27.57,68.64],"type":"Point"},"properties":{"concentration_Be-7":1485.9,"concentration_Pb-210":208.9,"concentration_air-volume":25288.0,"from_timestamp":"2024-05-06T08:18:00Z","id":"103431","site":"Ivalo","to_timestamp":"2024-05-13T09:29:00Z","uncertainty_Be-7-uncertainty":5.0,"uncertainty_Pb-210-uncertainty":5.0},"type":"Feature"},{"geometry":{"coordinates":[27.63414,62.89195],"type":"Point"},"properties":{"concentration_Be-7":1815.6,"concentration_Pb-210":223.7,"concentration_air-volume":23228.0,"from_timestamp":"2024-04-22T08:09:00Z","id":"103432","site":"Kuopio","to_timestamp":"2024-04-29T08:43:00Z","uncertainty_Be-7-uncertainty":3.0,"uncertainty_Pb-210-uncertainty":12.0},"type":"Feature"},{"geometry":{"coordinates":[27.63414,62.89195],"type":"Point"},"properties":{"concentration_Be-7":2106.3,"concentration_Na-22":1.0,"concentration_Pb-210":194.1,"concentration_air-volume":23170.0,"from_timestamp":"2024-05-06T08:19:00Z","id":"103432","site":"Kuopio","to_timestamp":"2024-05-13T07:53:00Z","uncertainty_Be-7-uncertainty":3.0,"uncertainty_Na-22-uncertainty":29.0,"uncertainty_Pb-210-uncertainty":14.0},"type":"Feature"},{"geometry":{"coordinates":[25.67774,66.51285],"type":"Point"},"properties":{"concentration_Be-7":1640.9,"concentration_Na-22":0.2,"concentration_Pb-210":205.5,"concentration_air-volume":139255.0,"from_timestamp":"2024-04-22T10:12:00Z","id":"103433","site":"Rovaniemi","to_timestamp":"2024-04-29T08:48:00Z","uncertainty_Be-7-uncertainty":5.0,"uncertainty_Na-22-uncertainty":24.0,"uncertainty_Pb-210-uncertainty":4.0},"type":"Feature"},{"geometry":{"coordinates":[25.67774,66.51285],"type":"Point"},"properties":{"concentration_Be-7":1171.2,"concentration_Na-22":0.2,"concentration_Pb-210":169.0,"concentration_air-volume":139442.0,"from_timestamp":"2024-04-29T08:51:00Z","id":"103433","site":"Rovaniemi","to_timestamp":"2024-05-06T10:19:00Z","uncertainty_Be-7-uncertainty":5.0,"uncertainty_Na-22-uncertainty":21.0,"uncertainty_Pb-210-uncertainty":4.0},"type":"Feature"},{"geometry":{"coordinates":[25.67774,66.51285],"type":"Point"},"properties":{"concentration_Be-7":1540.5,"concentration_Na-22":0.3,"concentration_Pb-210":142.4,"concentration_air-volume":137713.0,"from_timestamp":"2024-05-06T10:23:00Z","id":"103433","site":"Rovaniemi","to_timestamp":"2024-05-13T09:30:00Z","uncertainty_Be-7-uncertainty":5.0,"uncertainty_Na-22-uncertainty":17.0,"uncertainty_Pb-210-uncertainty":4.0},"type":"Feature"},{"geometry":{"coordinates":[26.62807,67.36505],"type":"Point"},"properties":{"concentration_Be-7":1443.5,"concentration_Pb-210":242.2,"concentration_air-volume":24894.0,"from_timestamp":"2024-04-22T08:21:00Z","id":"103434","site":"Sodankylä","to_timestamp":"2024-04-29T08:07:00Z","uncertainty_Be-7-uncertainty":5.0,"uncertainty_Pb-210-uncertainty":5.0},"type":"Feature"},{"geometry":{"coordinates":[26.62807,67.36505],"type":"Point"},"properties":{"concentration_Be-7":1189.5,"concentration_Pb-210":159.6,"concentration_air-volume":24895.0,"from_timestamp":"2024-04-29T08:08:00Z","id":"103434","site":"Sodankylä","to_timestamp":"2024-05-06T08:10:00Z","uncertainty_Be-7-uncertainty":3.0,"uncertainty_Pb-210-uncertainty":3.0},"type":"Feature"},{"geometry":{"coordinates":[26.62807,67.36505],"type":"Point"},"properties":{"concentration_Be-7":1494.0,"concentration_Pb-210":169.3,"concentration_air-volume":24738.0,"from_timestamp":"2024-05-06T08:12:00Z","id":"103434","site":"Sodankylä","to_timestamp":"2024-05-13T07:52:00Z","uncertainty_Be-7-uncertainty":5.0,"uncertainty_Pb-210-uncertainty":5.0},"type":"Feature"},{"geometry":{"coordinates":[27.70835,64.08474],"type":"Point"},"properties":{"concentration_Be-7":1607.9,"concentration_Cs-137":0.2,"concentration_Na-22":0.3,"concentration_Pb-210":802.9,"concentration_air-volume":102609.0,"from_timestamp":"2024-04-22T13:20:00Z","id":"103435","site":"Kajaani","to_timestamp":"2024-04-29T16:33:00Z","uncertainty_Be-7-uncertainty":7.0,"uncertainty_Cs-137-uncertainty":19.0,"uncertainty_Na-22-uncertainty":17.0,"uncertainty_Pb-210-uncertainty":25.0},"type":"Feature"},{"geometry":{"coordinates":[27.70835,64.08474],"type":"Point"},"properties":{"concentration_Be-7":1301.9,"concentration_Cs-137":0.1,"concentration_Na-22":0.2,"concentration_Pb-210":420.6,"concentration_air-volume":100537.0,"from_timestamp":"2024-04-29T16:37:00Z","id":"103435","site":"Kajaani","to_timestamp":"2024-05-06T16:06:00Z","uncertainty_Be-7-uncertainty":7.0,"uncertainty_Cs-137-uncertainty":18.0,"uncertainty_Na-22-uncertainty":23.0,"uncertainty_Pb-210-uncertainty":29.0},"type":"Feature"},{"geometry":{"coordinates":[27.70835,64.08474],"type":"Point"},"properties":{"concentration_Be-7":1868.1,"concentration_Cs-137":0.2,"concentration_Na-22":0.3,"concentration_Pb-210":157.8,"concentration_air-volume":102949.0,"from_timestamp":"2024-05-06T16:15:00Z","id":"103435","site":"Kajaani","to_timestamp":"2024-05-13T19:59:00Z","uncertainty_Be-7-uncertainty":2.0,"uncertainty_Cs-137-uncertainty":11.0,"uncertainty_Na-22-uncertainty":12.0,"uncertainty_Pb-210-uncertainty":4.0},"type":"Feature"}],"name":"stuk_open_data_air_radionuclides","type":"FeatureCollection"}