{"crs":{"properties":{"name":"urn:ogc:def:crs:OGC:1.3:CRS84"},"type":"name"},"features":[{"geometry":{"coordinates":[26.91808,60.48318],"type":"Point"},"properties":{"concentration_Be-7":1571.2,"concentration_Cs-137":0.8,"concentration_Na-22":0.1,"concentration_Pb-210":423.3,"from_timestamp":"2025-03-10T08:49:00Z","id":"103429","site":"Kotka","to_timestamp":"2025-03-24T10:10:00Z","uncertainty_Be-7-uncertainty":7.0,"uncertainty_Cs-137-uncertainty":8.0,"uncertainty_Na-22-uncertainty":17.0,"uncertainty_Pb-210-uncertainty":24.0},"type":"Feature"},{"geometry":{"coordinates":[26.91808,60.48318],"type":"Point"},"properties":{"concentration_Be-7":2000.7,"concentration_Cs-137":0.6,"concentration_Na-22":0.2,"from_timestamp":"2025-03-24T10:15:00Z","id":"103429","site":"Kotka","to_timestamp":"2025-03-31T08:47:00Z","uncertainty_Be-7-uncertainty":7.0,"uncertainty_Cs-137-uncertainty":9.0,"uncertainty_Na-22-uncertainty":22.0},"type":"Feature"},{"geometry":{"coordinates":[28.82663,61.13229],"type":"Point"},"properties":{"concentration_Be-7":1747.5,"concentration_Cs-137":1.1,"concentration_Pb-210":158.0,"from_timestamp":"2025-03-17T13:04:00Z","id":"103430","site":"Imatra","to_timestamp":"2025-03-24T07:00:00Z","uncertainty_Be-7-uncertainty":6.0,"uncertainty_Cs-137-uncertainty":12.0,"uncertainty_Pb-210-uncertainty":19.0},"type":"Feature"},{"geometry":{"coordinates":[28.82663,61.13229],"type":"Point"},"properties":{"concentration_Be-7":2163.8,"concentration_Cs-137":0.9,"concentration_Pb-210":75.6,"from_timestamp":"2025-03-24T07:01:00Z","id":"103430","site":"Imatra","to_timestamp":"2025-04-03T07:00:00Z","uncertainty_Be-7-uncertainty":6.0,"uncertainty_Cs-137-uncertainty":13.0,"uncertainty_Pb-210-uncertainty":17.0},"type":"Feature"},{"geometry":{"coordinates":[27.57,68.64],"type":"Point"},"properties":{"concentration_Be-7":2305.7,"concentration_Pb-210":220.5,"from_timestamp":"2025-03-20T14:58:00Z","id":"103431","site":"Ivalo","to_timestamp":"2025-03-27T08:30:00Z","uncertainty_Be-7-uncertainty":5.0,"uncertainty_Pb-210-uncertainty":5.0},"type":"Feature"},{"geometry":{"coordinates":[27.57,68.64],"type":"Point"},"properties":{"concentration_Be-7":806.3,"from_timestamp":"2025-03-27T08:32:00Z","id":"103431","site":"Ivalo","to_timestamp":"2025-04-03T10:39:00Z","uncertainty_Be-7-uncertainty":10.0},"type":"Feature"},{"geometry":{"coordinates":[27.63414,62.89195],"type":"Point"},"properties":{"concentration_Be-7":2051.5,"concentration_Pb-210":147.9,"from_timestamp":"2025-03-17T08:14:00Z","id":"103432","site":"Kuopio","to_timestamp":"2025-03-24T08:15:00Z","uncertainty_Be-7-uncertainty":3.0,"uncertainty_Pb-210-uncertainty":18.0},"type":"Feature"},{"geometry":{"coordinates":[27.63414,62.89195],"type":"Point"},"properties":{"concentration_Be-7":2170.8,"concentration_Pb-210":241.3,"from_timestamp":"2025-03-24T08:15:00Z","id":"103432","site":"Kuopio","to_timestamp":"2025-03-31T09:31:00Z","uncertainty_Be-7-uncertainty":3.0,"uncertainty_Pb-210-uncertainty":12.0},"type":"Feature"},{"geometry":{"coordinates":[25.67774,66.51285],"type":"Point"},"properties":{"concentration_Be-7":1637.5,"concentration_Cs-137":0.1,"concentration_Pb-210":147.9,"from_timestamp":"2025-03-17T08:54:00Z","id":"103433","site":"Rovaniemi","to_timestamp":"2025-03-24T08:58:00Z","uncertainty_Be-7-uncertainty":5.0,"uncertainty_Cs-137-uncertainty":23.0,"uncertainty_Pb-210-uncertainty":4.0},"type":"Feature"},{"geometry":{"coordinates":[25.67774,66.51285],"type":"Point"},"properties":{"concentration_Be-7":1614.4,"concentration_Pb-210":174.5,"from_timestamp":"2025-03-24T09:02:00Z","id":"103433","site":"Rovaniemi","to_timestamp":"2025-03-31T08:30:00Z","uncertainty_Be-7-uncertainty":5.0,"uncertainty_Pb-210-uncertainty":4.0},"type":"Feature"},{"geometry":{"coordinates":[26.62807,67.36505],"type":"Point"},"properties":{"concentration_Be-7":2288.4,"from_timestamp":"2025-03-20T08:09:00Z","id":"103434","site":"Sodankylä","to_timestamp":"2025-03-27T08:21:00Z","uncertainty_Be-7-uncertainty":10.0},"type":"Feature"},{"geometry":{"coordinates":[26.62807,67.36505],"type":"Point"},"properties":{"concentration_Be-7":891.6,"concentration_Pb-210":88.2,"from_timestamp":"2025-03-27T08:22:00Z","id":"103434","site":"Sodankylä","to_timestamp":"2025-04-03T08:30:00Z","uncertainty_Be-7-uncertainty":5.0,"uncertainty_Pb-210-uncertainty":6.0},"type":"Feature"},{"geometry":{"coordinates":[27.70835,64.08474],"type":"Point"},"properties":{"concentration_Be-7":1946.0,"concentration_Cs-137":0.2,"concentration_Na-22":0.2,"concentration_Pb-210":25.5,"from_timestamp":"2025-03-17T17:45:00Z","id":"103435","site":"Kajaani","to_timestamp":"2025-03-25T07:50:00Z","uncertainty_Be-7-uncertainty":5.0,"uncertainty_Cs-137-uncertainty":13.0,"uncertainty_Na-22-uncertainty":21.0,"uncertainty_Pb-210-uncertainty":14.0},"type":"Feature"},{"geometry":{"coordinates":[27.70835,64.08474],"type":"Point"},"properties":{"concentration_Be-7":1510.1,"concentration_Cs-137":0.2,"concentration_Na-22":0.3,"concentration_Pb-210":20.4,"from_timestamp":"2025-03-25T07:55:00Z","id":"103435","site":"Kajaani","to_timestamp":"2025-03-31T20:00:00Z","uncertainty_Be-7-uncertainty":5.0,"uncertainty_Cs-137-uncertainty":19.0,"uncertainty_Na-22-uncertainty":17.0,"uncertainty_Pb-210-uncertainty":18.0},"type":"Feature"},{"geometry":{"coordinates":[25.05334,60.29049],"type":"Point"},"properties":{"concentration_Be-7":2214.3,"concentration_Pb-210":215.5,"from_timestamp":"2025-03-21T08:01:00Z","id":"107554","site":"Vantaa","to_timestamp":"2025-03-22T07:53:00Z","uncertainty_Be-7-uncertainty":8.0,"uncertainty_Pb-210-uncertainty":7.0},"type":"Feature"},{"geometry":{"coordinates":[25.05334,60.29049],"type":"Point"},"properties":{"concentration_Be-7":2101.6,"concentration_Pb-210":290.7,"from_timestamp":"2025-03-22T08:01:00Z","id":"107554","site":"Vantaa","to_timestamp":"2025-03-23T07:53:00Z","uncertainty_Be-7-uncertainty":8.0,"uncertainty_Pb-210-uncertainty":7.0},"type":"Feature"},{"geometry":{"coordinates":[25.05334,60.29049],"type":"Point"},"properties":{"concentration_Be-7":3851.0,"concentration_Pb-210":379.5,"from_timestamp":"2025-03-23T08:01:00Z","id":"107554","site":"Vantaa","to_timestamp":"2025-03-24T10:52:00Z","uncertainty_Be-7-uncertainty":8.0,"uncertainty_Pb-210-uncertainty":7.0},"type":"Feature"},{"geometry":{"coordinates":[25.05334,60.29049],"type":"Point"},"properties":{"concentration_Be-7":2817.7,"concentration_Pb-210":581.3,"from_timestamp":"2025-03-24T11:00:00Z","id":"107554","site":"Vantaa","to_timestamp":"2025-03-25T07:53:00Z","uncertainty_Be-7-uncertainty":8.0,"uncertainty_Pb-210-uncertainty":6.0},"type":"Feature"},{"geometry":{"coordinates":[25.05334,60.29049],"type":"Point"},"properties":{"concentration_Be-7":2753.6,"concentration_Pb-210":695.0,"from_timestamp":"2025-03-25T08:01:00Z","id":"107554","site":"Vantaa","to_timestamp":"2025-03-26T07:52:00Z","uncertainty_Be-7-uncertainty":8.0,"uncertainty_Pb-210-uncertainty":6.0},"type":"Feature"},{"geometry":{"coordinates":[25.05334,60.29049],"type":"Point"},"properties":{"concentration_Be-7":1981.3,"concentration_Pb-210":172.4,"from_timestamp":"2025-03-27T08:01:00Z","id":"107554","site":"Vantaa","to_timestamp":"2025-03-28T07:52:00Z","uncertainty_Be-7-uncertainty":8.0,"uncertainty_Pb-210-uncertainty":7.0},"type":"Feature"},{"geometry":{"coordinates":[25.05334,60.29049],"type":"Point"},"properties":{"concentration_Be-7":1230.1,"concentration_Pb-210":152.4,"from_timestamp":"2025-03-26T08:01:00Z","id":"107554","site":"Vantaa","to_timestamp":"2025-03-27T07:52:00Z","uncertainty_Be-7-uncertainty":8.0,"uncertainty_Pb-210-uncertainty":8.0},"type":"Feature"},{"geometry":{"coordinates":[25.05334,60.29049],"type":"Point"},"properties":{"concentration_Be-7":2073.7,"concentration_Pb-210":321.0,"from_timestamp":"2025-03-28T08:01:00Z","id":"107554","site":"Vantaa","to_timestamp":"2025-03-29T07:52:00Z","uncertainty_Be-7-uncertainty":8.0,"uncertainty_Pb-210-uncertainty":7.0},"type":"Feature"},{"geometry":{"coordinates":[25.05334,60.29049],"type":"Point"},"properties":{"concentration_Be-7":2269.9,"concentration_Pb-210":489.6,"from_timestamp":"2025-03-29T08:01:00Z","id":"107554","site":"Vantaa","to_timestamp":"2025-03-30T07:52:00Z","uncertainty_Be-7-uncertainty":8.0,"uncertainty_Pb-210-uncertainty":6.0},"type":"Feature"}],"name":"stuk_open_data_air_radionuclides","type":"FeatureCollection"}